     2.11           OBSERVATION DATA    G (GPS)             RINEX VERSION / TYPE
teqc  2009Oct19     administrateur ccgps20100105 00:06:08UTCPGM / RUN BY / DATE
Solaris 5.9|UltraSparc IIe|cc -xarch=v9 SC5.8|=+-|*Sparc    COMMENT
teqc  2009Oct19     administrateur ccgps20100104 10:01:32UTCCOMMENT
teqc  2009Oct19     CNES                20100104 09:48:14UTCCOMMENT
MSXP|IAx86-PII|bcc32 5.0|MSWin95->XP|486/DX+                COMMENT
teqc  2009Oct19                         20100104 09:48:13UTCCOMMENT
BIT 2 OF LLI FLAGS DATA COLLECTED UNDER A/S CONDITION       COMMENT
GRAS                                                        MARKER NAME
10002M006                                                   MARKER NUMBER
CARDALIAGUET        CNES                                    OBSERVER / AGENCY
48002               ASHTECH UZ-12       CN00-1A01           REC # / TYPE / VERS
24222               ASH701945E_M    NONE                    ANT # / TYPE
  4581696.7100   556116.2900  4389366.3900                  APPROX POSITION XYZ
        0.0350        0.0000        0.0000                  ANTENNA: DELTA H/E/N
     1     1                                                WAVELENGTH FACT L1/2
     7    L1    L2    C1    P1    P2    D1    D2            # / TYPES OF OBSERV
    30.0000                                                 INTERVAL
Version: Version:                                           COMMENT
Project: A002_______CNE_____________                        COMMENT
 SNR is mapped to RINEX snr flag value [0-9]                COMMENT
  L1 & L2: min(max(int(snr_dBHz/6), 0), 9)                  COMMENT
pseudorange smoothing corrections not applied               COMMENT
Forced Modulo Decimation to 30 seconds                      COMMENT
  2010     1     4     0     0    0.0000000     GPS         TIME OF FIRST OBS
                                                            END OF HEADER
 10  1  4  0  0  0.0000000  0 10G05G28G08G12G09G18G10G27G17G15
  -5948100.35947  -4620409.38446  23925791.8554   23925791.6074   23925793.9804
     -3607.9594
 -17176877.70648 -13334691.70547  22321996.7964   22321995.8584   22321998.0834
     -2225.0704
  -9026783.58047  -7029085.86546  24124765.3314   24124765.0474   24124768.6364
     -2941.7784
  -2864097.80747  -2217581.73845  25133123.8284   25133125.7094   25133127.8264
      3800.1284
 -17848579.50448 -13689984.05447  21932997.2114   21932997.1374   21933000.1484
      2762.0684
 -10223873.87047  -7926831.09946  23457828.5464   23457828.3614   23457829.9764
      1890.8204
   2242780.34747   1753082.83346  25181993.5344   25181993.5454   25181997.4424
     -3681.4554
 -16822443.83548 -13091922.74647  21908516.2544   21908516.4054   21908519.1854
      1496.3534
  -8965031.51548  -6950786.33647  23429688.9564   23429689.6714   23429690.8534
      2426.0034
 -24823133.08349 -19333485.22748  20362723.7134   20362723.9444   20362725.3804
       297.4664
 10  1  4  0  0 30.0000000  0 10G05G28G08G12G09G18G10G27G17G15
  -5839802.94747  -4536021.78546  23946399.8904   23946400.4504   23946401.0534
     -3610.8084
 -17109941.31948 -13282533.48247  22334734.1014   22334734.2524   22334735.8214
     -2236.5244
  -8938481.95747  -6960279.41046  24141568.2554   24141566.9224   24141571.3094
     -2944.3574
  -2978052.32947  -2306377.48846  25111438.8494   25111438.5004   25111441.3514
      3797.1374
 -17931314.89848 -13754453.17147  21917253.0034   21917252.8434   21917256.8944
      2754.3504
 -10280342.09347  -7970832.31246  23447082.7984   23447081.7474   23447085.6094
      1874.1874
   2353213.08347   1839134.34046  25203007.8504   25203006.7674   25203009.5134
     -3679.7694
 -16867227.78748 -13126819.31047  21899994.2684   21899994.2714   21899997.0744
      1490.0754
  -9037642.10648  -7007366.00447  23415871.5524   23415871.2954   23415872.6334
      2415.4994
 -24831802.33249 -19340240.48948  20361074.0384   20361074.3774   20361075.5934
       281.2544
 10  1  4  0  1  0.0000000  0 10G05G28G08G12G09G18G10G27G17G15
  -5731432.68647  -4451577.42046  23967022.0384   23967021.6384   23967024.8114
     -3613.8404
 -17042677.15248 -13230119.84547  22347534.0924   22347533.7154   22347535.8064
     -2247.7384
  -8850123.68247  -6891428.81146  24158383.0584   24158381.2904   24158385.1794
     -2946.5484
  -3091941.88447  -2395122.57946  25089766.3674   25089766.3824   25089769.0314
      3794.8334
 -18013831.06648 -13818751.47747  21901550.7194   21901551.0514   21901553.4414
      2746.7164
 -10336335.06647  -8014463.21546  23436428.6914   23436427.8624   23436429.3084
      1858.2924
   2463572.72247   1925128.91645  25224008.5254   25224007.9664   25224014.7774
     -3677.2694
 -16911840.27748 -13161582.27247  21891504.7854   21891504.4844   21891507.3584
      1484.0524
  -9109948.43848  -7063708.58747  23402111.9084   23402112.0054   23402114.7174
      2404.9534
 -24840002.37249 -19346630.13548  20359513.4934   20359513.8044   20359515.2294
       265.3004
 10  1  4  0  1 30.0000000  0 10G05G28G08G12G09G18G10G27G17G15
  -5622992.88647  -4367078.88346  23987657.7654   23987659.0704   23987660.4484
     -3616.0394
 -16975087.70748 -13177452.74247  22360396.0584   22360395.5274   22360397.4674
     -2258.7924
  -8761709.73347  -6822534.84346  24175207.2174   24175205.3684   24175210.8114
     -2948.3324
  -3205765.10447  -2483816.00146  25068106.5074   25068106.5684   25068109.7414
      3792.7224
 -18096127.21948 -13882878.35847  21885890.5174   21885890.5344   21885892.9764
      2739.0984
 -10391851.40247  -8057722.67846  23425864.0584   23425863.5504   23425865.3694
      1842.1284
   2573856.68847   2011064.46445  25244994.4014   25244992.3704   25244996.6314
     -3675.1174
 -16956281.51748 -13196211.79847  21883047.7134   21883047.5504   21883051.1384
      1478.0814
  -9181948.08948  -7119812.19747  23388410.6934   23388410.0674   23388413.0594
      2394.5364
 -24847732.51849 -19352653.62848  20358042.4974   20358042.7384   20358044.1784
       249.4604
 10  1  4  0  2  0.0000000  0 10G05G28G08G12G09G18G10G27G17G15
  -5514484.01947  -4282526.52046  24008306.1564   24008306.2584   24008308.7434
     -3618.0964
 -16907172.58448 -13124531.87047  22373319.8234   22373318.9954   22373321.7914
     -2269.3214
  -8673238.43847  -6753596.18046  24192042.5714   24192042.0324   24192045.1694
     -2949.9274
  -3319517.18747  -2572453.98746  25046460.0864   25046461.6884   25046463.0634
      3790.5484
 -18178200.20848 -13946831.32647  21870272.0694   21870271.7504   21870274.7944
      2732.0754
 -10446886.68647  -8100607.32046  23415390.4944   23415389.7774   23415392.0564
      1826.5904
   2684064.85547   2096941.02845  25265967.1244   25265966.7844   25265969.8604
     -3672.3764
 -17000549.13048 -13230706.02447  21874624.1704   21874623.9274   21874627.1114
      1472.7104
  -9253635.58648  -7175672.58047  23374769.0574   23374769.7124   23374771.3734
      2384.4464
 -24854989.49449 -19358308.41548  20356661.5834   20356661.6774   20356663.2024
       233.9694
 10  1  4  0  2 30.0000000  0 10G05G28G08G12G09G18G10G27G17G15
  -5405912.12147  -4197925.04346  24028966.2034   24028966.8964   24028969.9494
     -3619.8254
 -16838937.20948 -13071361.44647  22386304.3824   22386303.8344   22386306.7644
     -2279.5834
  -8584713.76347  -6684615.91946  24208888.1644   24208888.1334   24208891.2784
     -2951.4274
  -3433199.72847  -2661037.78146  25024827.3474   25024826.8264   25024829.7354
      3788.4464
 -18260052.77548 -14010612.53747  21854696.3814   21854696.2094   21854699.3514
      2725.2224
 -10501442.61847  -8143118.42446  23405009.2214   23405008.8634   23405010.6134
      1810.8874
   2794191.78147   2182754.23945  25286924.1244   25286925.8644   25286926.5854
     -3669.2114
 -17044646.82648 -13265067.84647  21866232.6994   21866232.2934   21866235.5154
      1467.3754
  -9325011.29148  -7231289.99147  23361186.9514   23361187.5034   23361188.9824
      2374.1854
 -24861775.53549 -19363596.24348  20355370.1114   20355370.4034   20355371.8864
       218.6544
 10  1  4  0  3  0.0000000  0 10G05G28G08G12G09G18G10G27G17G15
  -5297278.96347  -4113275.83847  24049638.6884   24049639.6694   24049640.6664
     -3621.4354
 -16770382.91848 -13017942.51747  22399350.4014   22399349.6044   22399352.3854
     -2290.1754
  -8496134.82147  -6615593.37446  24225744.5874   24225743.4094   24225748.2804
     -2953.1194
  -3546809.97947  -2749565.27146  25003208.2734   25003207.6624   25003210.1644
      3786.2864
 -18341682.89748 -14074220.39347  21839162.4664   21839162.4414   21839165.2264
      2717.6464
 -10555516.51647  -8185253.95446  23394719.7464   23394719.0964   23394720.0784
      1794.8074
   2904235.67046   2268502.77045  25307863.7414   25307864.5614   25307867.3854
     -3666.6524
 -17088573.59648 -13299296.48547  21857873.6234   21857873.5614   21857876.4684
      1461.7454
  -9396071.35348  -7286661.45647  23347664.2664   23347664.4404   23347666.9794
      2363.6894
 -24868088.82149 -19368515.68848  20354168.8324   20354168.9934   20354170.6204
       202.8564
 10  1  4  0  3 30.0000000  0 10G05G28G08G12G09G18G10G27G17G15
  -5188588.77647  -4028582.19647  24070321.9824   24070321.2624   24070324.2034
     -3623.6504
 -16701512.82848 -12964277.51247  22412455.5904   22412455.3284   22412457.3654
     -2300.7404
  -8407503.05247  -6546529.67346  24242610.5784   24242610.2074   24242612.4884
     -2955.0044
  -3660346.63647  -2838035.37346  24981602.7494   24981603.3034   24981605.6854
      3783.6934
 -18423090.64348 -14137654.98647  21823671.3604   21823671.6304   21823673.6974
      2710.2704
 -10609107.71647  -8227013.33146  23384520.9714   23384519.5474   23384522.1854
      1778.3994
   3014193.54047   2354184.21645  25328788.2304   25328789.5414   25328792.4164
     -3663.1364
 -17132330.48148 -13333392.74247  21849546.7104   21849546.7474   21849549.1714
      1456.0364
  -9466814.38648  -7341785.88147  23334202.6314   23334202.5334   23334204.5414
      2353.1054
 -24873929.32049 -19373066.73148  20353057.4154   20353057.6424   20353059.1344
       187.1344
 10  1  4  0  4  0.0000000  0 10G05G28G08G12G09G18G10G27G17G15
  -5079838.78047  -3943841.95147  24091015.9084   24091016.2144   24091019.8064
     -3626.1844
 -16632323.56348 -12910363.79247  22425622.0544   22425621.5154   22425623.6664
     -2311.5684
  -8318814.47647  -6477421.71046  24259487.1214   24259486.7054   24259489.5944
     -2957.4454
  -3773802.78047  -2926442.72746  24960011.8624   24960012.4524   24960014.5874
      3780.6194
 -18504269.96848 -14200911.58047  21808223.1134   21808223.1784   21808225.8434
      2702.3014
 -10662209.34747  -8268391.21746  23374417.5594   23374417.4184   23374416.5494
      1761.7304
   3124067.90646   2439800.69345  25349697.3594   25349694.6374   25349698.1204
     -3661.4724
 -17175912.43548 -13367352.68847  21841253.3824   21841253.3774   21841255.7524
      1449.7404
  -9537232.16048  -7396656.86347  23320802.3874   23320803.0554   23320804.9984
      2341.7244
 -24879291.07649 -19377244.72648  20352037.1674   20352037.3814   20352038.8314
       170.7414
 10  1  4  0  4 30.0000000  0 10G05G28G08G12G09G18G10G27G17G15
  -4971038.01347  -3859062.13547  24111720.2454   24111720.9374   24111723.7164
     -3627.5234
 -16562823.14248 -12856207.61947  22438847.2964   22438846.9144   22438848.8184
     -2321.9864
  -8230075.24247  -6408274.26246  24276373.8194   24276372.2834   24276376.6724
     -2958.8684
  -3887182.57147  -3014790.62046  24938437.5544   24938438.8414   24938440.7214
      3777.9454
 -18585225.70248 -14263993.94747  21792817.8754   21792817.4034   21792819.9094
      2694.6694
 -10714825.67347  -8309390.93646  23364403.6524   23364403.5094   23364406.6134
      1745.5954
   3233850.24546   2525345.36345  25370588.4914   25370583.5584   25370589.0774
     -3657.9544
 -17219325.32348 -13401180.90047  21832992.2414   21832991.9594   21832994.6824
      1444.1924
  -9607327.79948  -7451276.82847  23307463.3834   23307463.5424   23307466.0694
      2331.1744
 -24884179.13649 -19381053.60548  20351107.0044   20351107.1554   20351108.6054
       154.9864
 10  1  4  0  5  0.0000000  0 10G05G28G08G12G09G18G10G27G17G15
  -4862189.80647  -3774245.35346  24132433.4574   24132433.9894   24132436.4414
     -3629.7674
 -16493014.72748 -12801811.45047  22452131.4624   22452130.8834   22452132.9794
     -2332.7254
  -8141286.93947  -6339088.58946  24293269.3424   24293269.5314   24293271.7544
     -2961.0714
  -4000484.52647  -3103077.88846  24916876.8224   24916877.8734   24916879.2754
      3775.0074
 -18665957.75748 -14326902.02947  21777455.2274   21777455.0124   21777457.7774
      2686.6504
 -10766955.44247  -8350011.53346  23354483.8994   23354483.4024   23354485.0384
      1728.7844
   3343537.93956   2610816.31955  25391460.0744   25391459.9874   25391464.9584
     -3654.8184
 -17262569.90448 -13434877.96347  21824762.9294   21824762.7254   21824766.0674
      1437.9514
  -9677099.14148  -7505644.11247  23294186.6244   23294187.1004   23294188.7494
      2319.6394
 -24888593.01349 -19384492.99448  20350266.9984   20350267.3464   20350268.7624
       138.5334
 10  1  4  0  5 30.0000000  0 10G05G28G08G12G09G18G10G27G17G15
  -4753289.55847  -3689388.03346  24153156.2164   24153157.1614   24153160.0044
     -3630.8244
 -16422892.84248 -12747171.02447  22465475.1624   22465474.8824   22465476.6354
     -2342.5124
  -8052443.11447  -6269859.64546  24310175.8444   24310176.4304   24310179.1374
     -2961.9594
  -4113699.04946  -3191296.95646  24895332.0194   24895332.4844   24895334.3654
      3772.5334
 -18746457.79648 -14389629.31147  21762136.3914   21762136.0624   21762138.9384
      2679.5704
 -10818589.80747  -8390246.11546  23344658.7724   23344657.6674   23344660.8354
      1712.9714
   3453135.95046   2696217.38645  25412316.0484   25412314.7754   25412317.1424
     -3651.5304
 -17305638.94348 -13468438.24047  21816567.2304   21816567.1904   21816570.1564
      1432.9774
  -9746535.73148  -7559750.53947  23280973.2154   23280973.5974   23280975.6594
      2309.0704
 -24892524.68449 -19387556.64348  20349518.8924   20349519.2164   20349520.6514
       123.2084
 10  1  4  0  6  0.0000000  0 10G05G28G08G12G09G18G10G27G17G15
  -4644346.45647  -3604497.31146  24173887.8494   24173887.4984   24173890.9424
     -3632.2714
 -16352465.66548 -12692292.70747  22478876.5474   22478876.1754   22478878.9104
     -2352.7484
  -7963549.93447  -6200592.22746  24327091.0114   24327091.8194   24327093.5544
     -2963.8844
  -4226830.31146  -3279451.12346  24873805.1054   24873804.6684   24873807.1174
      3769.4694
 -18826731.16348 -14452179.96347  21746860.9674   21746860.9904   21746863.2124
      2671.8174
 -10869733.13847  -8430098.07346  23334925.4914   23334925.2624   23334927.9214
      1696.4094
   3562635.53156   2781541.72955  25433152.8134   25433153.4064   25433156.7254
     -3648.6234
 -17348538.63548 -13501866.55947  21808403.5834   21808403.3504   21808406.5604
      1427.0454
  -9815641.30348  -7613599.04047  23267823.1824   23267823.0574   23267825.1444
      2297.8984
 -24895979.60549 -19390248.79548  20348861.4194   20348861.5954   20348863.1464
       107.0804
 10  1  4  0  6 30.0000000  0 10G05G28G08G12G09G18G10G27G17G15
  -4535363.33847  -3519575.40746  24194626.3084   24194626.5434   24194629.7724
     -3633.9754
 -16281735.55248 -12637178.33647  22492336.5604   22492336.3144   22492338.5624
     -2363.1804
  -7874608.50247  -6131287.22746  24344016.5274   24344014.9694   24344020.5844
     -2966.0814
  -4339876.89446  -3367539.37946  24852291.8764   24852293.3264   24852295.4584
      3766.4284
 -18906776.99448 -14514553.30947  21731628.5204   21731628.5024   21731631.6794
      2663.9754
 -10920384.02947  -8469566.30546  23325287.7254   23325287.7464   23325288.4174
      1679.5614
   3672034.32946   2866787.49045  25453971.4334   25453972.4934   25453974.5464
     -3644.9044
 -17391269.47748 -13535163.29647  21800272.3674   21800271.9754   21800275.6464
      1421.0104
  -9884412.99748  -7667187.35847  23254736.3224   23254736.3444   23254738.0794
      2286.2524
 -24898956.32049 -19392568.31948  20348295.0814   20348295.1324   20348296.7104
        90.7334
 10  1  4  0  7  0.0000000  0 10G05G28G08G12G09G18G10G27G17G15
  -4426340.05747  -3434622.21546  24215372.7144   24215373.7254   24215375.6364
     -3635.2924
 -16210701.90948 -12581827.44747  22505853.7554   22505853.5204   22505855.1954
     -2372.9984
  -7785616.11847  -6061942.52446  24360951.3554   24360950.7054   24360953.3854
     -2967.3334
  -4452833.81946  -3455557.76246  24830796.5084   24830798.4294   24830798.5694
      3763.2404
 -18986591.62148 -14576746.49747  21716440.7114   21716440.1634   21716443.2784
      2656.4244
 -10970538.01047  -8508647.32646  23315742.4234   23315741.3174   23315744.1004
      1663.4514
   3781332.87646   2951955.19345  25474770.3474   25474769.6064   25474772.6064
     -3641.6754
 -17433828.49149 -13568326.14148  21792173.7734   21792173.6994   21792176.4234
      1415.6014
  -9952845.30148  -7720511.22847  23241713.8204   23241713.5054   23241716.3364
      2275.0394
 -24901451.16249 -19394512.35648  20347820.2604   20347820.2914   20347821.9764
        74.9044
 10  1  4  0  7 30.0000000  0 10G05G28G08G12G09G18G10G27G17G15
  -4317278.72847  -3349639.37746  24236125.9704   24236127.1034   24236130.0794
     -3635.1284
 -16139366.25248 -12526241.22147  22519428.5244   22519428.0284   22519429.9634
     -2382.1624
  -7696572.74447  -5992558.07246  24377895.7224   24377894.5924   24377898.5694
     -2968.2154
  -4565698.52046  -3543504.21146  24809320.1854   24809320.9964   24809321.9214
      3761.0594
 -19066173.45648 -14638758.28547  21701296.4144   21701295.5734   21701298.8694
      2649.6404
 -11020192.92547  -8547339.47746  23306294.3114   23306294.0254   23306295.0524
      1647.7804
   3890529.66846   3037043.59945  25495550.3554   25495549.2164   25495552.2984
     -3637.0594
 -17476215.15849 -13601354.69748  21784107.6684   21784107.3174   21784110.2794
      1410.8074
 -10020934.60848  -7773567.81847  23228756.8914   23228757.4574   23228758.6064
      2264.5364
 -24903462.97649 -19396080.00948  20347437.3664   20347437.6184   20347439.1554
        59.7284
 10  1  4  0  8  0.0000000  0 10G05G28G08G12G09G18G10G27G17G15
  -4208187.02747  -3264632.86546  24256885.3654   24256885.3624   24256888.4514
     -3637.0254
 -16067734.87648 -12470424.56647  22533059.4464   22533059.3624   22533060.9044
     -2392.7984
  -7607483.05047  -5923137.54146  24394849.1494   24394848.8364   24394851.2774
     -2970.6524
  -4678473.22247  -3631380.59846  24787859.2484   24787858.9994   24787862.3504
      3757.2544
 -19145526.02648 -14700591.43247  21686196.4424   21686196.1804   21686199.2244
      2641.0154
 -11069351.44447  -8585644.81646  23296940.0524   23296939.8374   23296941.5494
      1629.9974
   3999617.99046   3122047.56745  25516308.2854   25516306.3814   25516311.0894
     -3634.8574
 -17518433.76548 -13634252.29548  21776073.7984   21776073.4394   21776076.2804
      1404.3224
 -10088682.55048  -7826358.41347  23215864.8744   23215865.9164   23215866.9084
      2252.2644
 -24904995.49549 -19397274.18748  20347145.7584   20347146.0504   20347147.5444
        42.9164
 10  1  4  0  8 30.0000000  0 10G05G28G08G12G09G18G10G27G17G15
  -4099063.75447  -3179601.75446  24277651.3764   24277651.5874   24277654.2584
     -3637.7844
 -15995806.83448 -12414376.74547  22546747.0794   22546746.7384   22546748.6434
     -2402.3584
  -7518344.88647  -5853679.23146  24411811.4234   24411811.0564   24411813.5874
     -2972.5364
  -4791152.97247  -3719182.96546  24766416.3544   24766416.8054   24766420.9004
      3754.8004
 -19224645.17948 -14762242.69047  21671140.1984   21671140.0004   21671143.1094
      2633.5914
 -11118008.80147  -8623559.64946  23287680.5244   23287679.9644   23287681.1034
      1613.4014
   4108598.70846   3206967.50045  25537046.3144   25537046.1884   25537049.3784
     -3630.9944
 -17560481.03449 -13667016.38148  21768072.3164   21768072.1784   21768075.1194
      1398.8544
 -10156083.32148  -7878878.48347  23203039.0414   23203040.0674   23203040.4084
      2240.9494
 -24906044.52249 -19398091.61248  20346946.1144   20346946.3904   20346947.9014
        26.9884
 10  1  4  0  9  0.0000000  0 10G05G28G08G12G09G18G10G27G17G15
  -3989912.95647  -3094549.17946  24298422.0544   24298422.0824   24298425.0614
     -3638.5864
 -15923584.98948 -12358099.98047  22560490.3974   22560490.1934   22560491.5624
     -2412.1574
  -7429159.63747  -5784184.22846  24428782.9254   24428781.4154   24428786.1524
     -2973.4604
  -4903736.68847  -3806910.55146  24744993.5554   24744993.2114   24744995.4264
      3751.3954
 -19303530.91148 -14823712.07247  21656128.7694   21656128.8384   21656131.3734
      2625.7294
 -11166164.09348  -8661083.25646  23278517.2574   23278517.2414   23278518.6964
      1596.8644
   4217468.65046   3291801.25646  25557763.3074   25557762.5754   25557765.9264
     -3626.9454
 -17602357.96948 -13699647.74548  21760103.3914   21760103.2814   21760106.2354
      1393.1664
 -10223134.90848  -7931126.46947  23190279.7614   23190280.3364   23190280.6124
      2229.4894
 -24906610.03349 -19398532.27748  20346838.5284   20346838.9144   20346840.3564
        10.8774
 10  1  4  0  9 30.0000000  0 10G05G28G08G12G09G18G10G27G17G15
  -3880726.09547  -3009468.50446  24319200.0524   24319200.2414   24319202.4064
     -3639.9034
 -15851060.02348 -12301587.02147  22574291.2674   22574290.6864   22574293.5284
     -2422.3694
  -7339916.45447  -5714644.06846  24445765.0444   24445766.1164   24445767.6824
     -2975.5064
  -5016210.51847  -3894552.50746  24723590.6864   24723591.6504   24723593.1174
      3747.5524
 -19382170.62848 -14884989.75247  21641164.5704   21641163.7964   21641166.8764
      2617.2204
 -11213804.83647  -8698205.91846  23269450.8054   23269450.5434   23269452.2514
      1579.7614
   4326236.85146   3376555.68946  25578461.8304   25578460.8354   25578464.6104
     -3623.3864
 -17644053.41449 -13732137.68648  21752169.3074   21752169.3244   21752171.7794
      1387.0534
 -10289823.53448  -7983091.63447  23177588.7134   23177589.3384   23177590.3024
      2216.9554
 -24906679.72949 -19398586.59348  20346825.2824   20346825.5904   20346827.1884
        -5.7604
 10  1  4  0 10  0.0000000  0 11G05G28G08G12G09G18G22G10G27G17G15
  -3771531.28447  -2924381.63346  24339978.6024   24339979.1304   24339981.5264
     -3640.0334
 -15778259.53048 -12244859.36947  22588145.0814   22588144.3174   22588146.2254
     -2431.7784
  -7250641.00947  -5645078.77546  24462753.7924   24462752.9574   24462757.0444
     -2976.6094
  -5128597.94547  -3982127.10446  24702204.1814   24702204.5954   24702205.5784
      3744.2334
 -19460589.02248 -14946094.96247  21626241.5614   21626241.6114   21626243.8384
      2609.8964
 -11260954.59747  -8734945.99446  23260479.1724   23260478.4754   23260479.9814
      1563.1804
  -1000274.69147   -739176.76346  25523677.4714   25523676.9544   25523677.7654
      2794.9344
   4434876.04647   3461209.62446  25599135.7374   25599134.2644   25599136.9144
     -3619.4044
 -17685592.53349 -13764505.81148  21744264.4934   21744264.3664   21744267.2614
      1381.5474
 -10356171.14248  -8034791.05447  23164963.6094   23164964.0654   23164965.8644
      2205.4154
 -24906278.26349 -19398273.77348  20346901.7964   20346901.9904   20346903.4854
       -21.6804
 10  1  4  0 10 30.0000000  0 11G05G28G08G12G09G18G22G10G27G17G15
  -3662311.07747  -2839274.97046  24360762.7764   24360763.4264   24360765.9614
     -3640.5794
 -15705165.61748 -12187903.07947  22602054.1054   22602054.2634   22602056.0504
     -2440.9994
  -7161314.43447  -5575473.66246  24479752.4834   24479752.1054   24479753.7364
     -2978.1494
  -5240878.14447  -4069618.19746  24680837.8794   24680837.2254   24680840.3124
      3741.1704
 -19538765.35848 -15007011.55747  21611365.2924   21611365.4534   21611368.0214
      2602.0224
 -11307592.16847  -8771286.96446  23251604.2874   23251602.4374   23251605.3504
      1546.0664
  -1083970.68147   -804394.41246  25507750.1294   25507750.4684   25507751.1454
      2784.9644
   4543403.75047   3545776.67146  25619786.6204   25619785.4874   25619791.1554
     -3614.8194
 -17726955.81549 -13796736.92548  21736393.2644   21736393.2204   21736395.9704
      1376.0964
 -10422155.40848  -8086207.35247  23152407.1834   23152407.8554   23152410.0204
      2193.7114
 -24905385.16449 -19397577.85848  20347071.8114   20347072.1004   20347073.4514
       -37.6874
 10  1  4  0 11  0.0000000  0 11G05G28G08G12G09G18G22G10G27G17G15
  -3553082.50747  -2754161.80146  24381547.9724   24381548.5984   24381550.8764
     -3641.3594
 -15631794.16248 -12130730.52247  22616016.4114   22616015.6544   22616017.6664
     -2450.5674
  -7071950.19647  -5505839.20146  24496757.4144   24496757.2914   24496761.4754
     -2979.6424
  -5353062.08547  -4157034.30646  24659489.3434   24659490.4194   24659491.9654
      3737.3464
 -19616712.46648 -15067749.53347  21596532.4024   21596532.6304   21596534.6294
      2594.0544
 -11353729.47148  -8807238.11246  23242825.0004   23242824.2144   23242826.9344
      1529.3804
  -1167377.64147   -869386.83946  25491879.3914   25491878.3734   25491879.2534
      2775.3864
   4651804.00546   3630244.38146  25640414.1554   25640412.9094   25640417.4454
     -3611.6454
 -17768156.76849 -13828841.54548  21728553.0214   21728552.5454   21728555.6124
      1370.4184
 -10487787.35648  -8137349.11747  23139917.9314   23139917.7674   23139919.7494
      2181.6494
 -24904013.16049 -19396508.77248  20347332.7814   20347332.9434   20347334.5534
       -53.9984
 10  1  4  0 11 30.0000000  0 11G05G28G08G12G09G18G22G10G27G17G15
  -3443833.76447  -2669032.89646  24402337.0714   24402337.7344   24402340.5024
     -3642.0024
 -15558133.25148 -12073332.41047  22630033.3794   22630033.6564   22630034.9274
     -2460.2714
  -6982535.03947  -5436165.07746  24513772.9054   24513772.3274   24513776.0024
     -2981.2514
  -5465133.55547  -4244362.67646  24638163.0404   24638162.7044   24638165.5574
      3733.7914
 -19694415.13648 -15128297.03347  21581745.8274   21581745.7914   21581748.6534
      2585.9784
 -11399350.85347  -8842787.25146  23234142.8614   23234143.1374   23234142.9794
      1511.7874
  -1250479.51146   -934141.55946  25476065.5734   25476065.8104   25476065.9144
      2765.0284
   4760088.61547   3714622.01146  25661020.6084   25661019.8484   25661023.4034
     -3607.7344
 -17809181.31049 -13860808.69748  21720746.3574   21720745.7994   21720749.0424
      1364.4074
 -10553050.07548  -8188203.17747  23127498.9984   23127499.2184   23127500.8584
      2169.1674
 -24902147.43949 -19395054.97148  20347687.7614   20347688.1564   20347689.4504
       -70.5144
 10  1  4  0 12  0.0000000  0 11G05G28G08G12G09G18G22G10G27G17G15
  -3334573.70847  -2583895.17246  24423129.3934   24423130.1174   24423131.3884
     -3641.6394
 -15484190.69048 -12015714.82947  22644104.2314   22644102.9304   22644105.3134
     -2469.4194
  -6893075.27247  -5366456.19046  24530796.0474   24530795.0254   24530800.4574
     -2982.7394
  -5577096.85047  -4331606.83746  24616857.6744   24616858.8714   24616858.9384
      3730.2554
 -19771878.47748 -15188658.05547  21567005.4134   21567005.4104   21567007.7384
      2578.1084
 -11444461.28447  -8877938.25046  23225558.7894   23225558.8024   23225561.4944
      1495.1274
  -1333280.23347   -998661.59546  25460308.6434   25460309.1574   25460308.8864
      2754.9824
   4868249.27447   3798903.08646  25681603.9364   25681601.6014   25681606.9874
     -3603.2524
 -17850035.47949 -13892643.10148  21712972.0044   21712971.6394   21712974.5904
      1358.9184
 -10617946.77448  -8238772.03547  23115149.1184   23115149.0284   23115151.2254
      2157.1094
 -24899793.03249 -19393220.37448  20348135.8174   20348136.1164   20348137.5814
       -86.6774
 10  1  4  0 12 30.0000000  0 11G05G28G08G12G09G18G22G10G27G17G15
  -3225305.71347  -2498751.25946  24443921.8084   24443922.0724   24443924.2444
     -3642.8284
 -15409969.85948 -11957880.42247  22658228.3254   22658227.9684   22658229.4074
     -2478.8834
  -6803572.70447  -5296713.95546  24547828.5014   24547826.9214   24547830.7264
     -2984.5534
  -5688951.02947  -4418765.99746  24595571.7774   24595570.8534   24595574.9404
      3726.4454
 -19849102.51948 -15248832.60947  21552309.6284   21552309.3214   21552312.5114
      2569.7784
 -11489059.95948  -8912690.47346  23217072.1644   23217071.6294   23217073.3774
      1477.8134
  -1415778.11846  -1062945.67346  25444609.4164   25444607.9944   25444609.8764
      2744.3534
   4976282.95747   3883085.14646  25702161.9804   25702160.3184   25702164.2724
     -3599.5914
 -17890720.23249 -13924345.49448  21705229.8964   21705229.7344   21705232.6884
      1353.0054
 -10682476.03348  -8289054.56247  23102869.9954   23102870.1504   23102871.9144
      2144.4204
 -24896950.28449 -19391005.25348  20348676.7744   20348677.1334   20348678.4604
      -103.2854
 10  1  4  0 13  0.0000000  0 10G05G28G08G12G09G18G22G27G17G15
  -3116032.15947  -2413603.02246  24464715.9144   24464716.8744   24464718.9734
     -3642.4324
 -15335472.23548 -11899830.32747  22672404.4574   22672404.1524   22672407.0344
     -2487.5414
  -6714027.02146  -5226938.12946  24564868.2514   24564867.5564   24564870.9584
     -2985.5094
  -5800693.14147  -4505837.73746  24574307.7794   24574308.6714   24574311.0734
      3723.2724
 -19926085.42648 -15308819.27147  21537660.3644   21537660.5274   21537662.4074
      2562.3814
 -11533144.77248  -8947042.28946  23208683.3104   23208683.2684   23208684.5334
      1461.3104
  -1497970.05547  -1126991.29046  25428970.0284   25428971.2264   25428970.2154
      2734.8624
 -17931234.90349 -13955915.35748  21697520.3104   21697520.3464   21697522.4774
      1347.9634
 -10746634.62948  -8339048.27347  23090660.6784   23090661.1834   23090663.1244
      2132.5834
 -24893617.87149 -19388408.57748  20349311.0134   20349311.2114   20349312.6624
      -118.9784
 10  1  4  0 13 30.0000000  0 10G05G28G08G12G09G18G22G27G17G15
  -3006754.89747  -2328451.89546  24485510.8144   24485510.1844   24485513.3874
     -3643.0684
 -15260698.88348 -11841565.38047  22686633.3544   22686632.3634   22686635.5054
     -2497.3084
  -6624437.58646  -5157128.21346  24581915.9324   24581914.2654   24581919.4634
     -2987.2874
  -5912320.59947  -4592820.19146  24553066.0574   24553066.2044   24553067.9714
      3718.7594
 -20002825.49148 -15368616.70147  21523057.2714   21523057.5394   21523060.2074
      2553.7704
 -11576713.59447  -8980992.02346  23200392.3104   23200391.8224   23200393.7454
      1443.6104
  -1579852.83047  -1190796.11746  25413387.4464   25413386.6284   25413387.1954
      2724.2114
 -17971578.53449 -13987351.94448  21689842.9564   21689843.0194   21689845.6334
      1341.6894
 -10810418.39348  -8388749.89347  23078523.1874   23078522.9074   23078525.1764
      2119.4484
 -24889794.24349 -19385429.13448  20350038.6824   20350038.8474   20350040.2624
      -135.8834
 10  1  4  0 14  0.0000000  0 10G05G28G08G12G09G18G22G27G17G15
  -2897477.02347  -2243300.29246  24506305.1464   24506305.7524   24506308.4714
     -3642.7964
 -15185652.30148 -11783087.52547  22700914.2214   22700914.2074   22700915.4164
     -2506.2134
  -6534805.81246  -5087285.34446  24598972.0234   24598972.6324   24598974.4704
     -2988.5994
  -6023831.78447  -4679712.02846  24531845.9884   24531846.6014   24531848.1014
      3715.1224
 -20079322.21948 -15428224.50947  21508500.2624   21508499.8534   21508502.8184
      2545.5654
 -11619765.39447  -9014538.87646  23192198.8104   23192197.6864   23192201.1784
      1426.2324
  -1661424.42447  -1254358.43146  25397865.2954   25397865.7764   25397866.2334
      2713.8414
 -18011751.45149 -14018655.50648  21682198.2664   21682197.9724   21682200.8524
      1336.0864
 -10873825.06748  -8438157.69347  23066457.1864   23066457.7714   23066459.2294
      2107.0514
 -24885479.16649 -19382066.74348  20350859.7274   20350860.0214   20350861.3664
      -152.2154
 10  1  4  0 14 30.0000000  0 10G05G28G08G12G09G18G22G27G17G15
  -2788204.00847  -2158152.49346  24527099.3774   24527100.1034   24527103.3194
     -3642.4744
 -15110337.35248 -11724400.55247  22715246.3584   22715246.2894   22715247.6194
     -2514.9754
  -6445134.71746  -5017411.81146  24616037.0804   24616034.1094   24616038.5154
     -2990.0744
  -6135227.57447  -4766513.92546  24510649.2254   24510649.4054   24510651.9704
      3711.0334
 -20155577.61748 -15487644.28047  21493989.7344   21493988.9444   21493992.1274
      2537.6904
 -11662301.89448  -9047684.22346  23184105.3084   23184106.0554   23184105.9954
      1409.2624
  -1742685.61547  -1317678.86646  25382401.0094   25382399.3794   25382403.1444
      2703.4974
 -18051756.73149 -14049828.44148  21674585.8734   21674585.2404   21674587.9814
      1330.6054
 -10936855.20748  -8487272.09147  23054462.9264   23054462.7794   23054465.3104
      2094.6114
 -24880674.68849 -19378323.00448  20351773.9194   20351774.1814   20351775.6694
      -168.3474
 10  1  4  0 15  0.0000000  0 10G05G28G08G12G09G18G22G27G17G15
  -2678934.31647  -2073007.26946  24547892.8274   24547893.4104   24547895.7034
     -3641.9864
 -15034751.48748 -11665502.48147  22729629.6864   22729629.5684   22729631.3794
     -2523.8384
  -6355420.18646  -4947504.44346  24633108.6744   24633108.0014   24633113.5694
     -2991.0804
  -6246501.50647  -4853220.88546  24489473.8264   24489472.7454   24489477.1084
      3707.3134
 -20231586.12948 -15546871.66047  21479525.6604   21479524.9134   21479527.9464
      2529.7434
 -11704316.70547  -9080423.02946  23176109.4334   23176109.7354   23176110.9544
      1392.0354
  -1823629.22847  -1380751.86146  25366999.0774   25366998.7534   25366998.5874
      2693.0374
 -18091589.85449 -14080867.23148  21667005.4704   21667005.6314   21667008.3674
      1325.0494
 -10999501.09448  -8536087.05947  23042541.9194   23042542.1754   23042543.1014
      2081.8524
 -24875375.54649 -19374193.81148  20352782.3774   20352782.6094   20352784.0424
      -184.6634
 10  1  4  0 15 30.0000000  0 10G05G28G08G12G09G18G22G27G17G15
  -2569671.35847  -1987867.29746  24568684.9004   24568685.3554   24568686.5634
     -3641.8054
 -14958898.21548 -11606396.04647  22744063.9214   22744063.5514   22744065.0074
     -2532.5384
  -6265663.41346  -4877564.15446  24650189.1264   24650188.5874   24650192.4484
     -2992.2754
  -6357652.70847  -4939832.20546  24468322.6094   24468321.8124   24468323.9864
      3703.4244
 -20307347.87348 -15605906.76447  21465108.8694   21465108.1574   21465111.4674
      2521.5274
 -11745809.67448  -9112755.20846  23168214.6734   23168213.7254   23168214.6324
      1374.7794
  -1904254.27247  -1443576.64146  25351655.2854   25351654.6444   25351656.8754
      2682.4274
 -18131251.70149 -14111772.54948  21659458.3584   21659458.1664   21659460.7064
      1319.5744
 -11061761.58748  -8584601.72347  23030693.9844   23030694.3604   23030696.0424
      2069.3644
 -24869582.07449 -19369679.42648  20353884.7244   20353885.0394   20353886.4864
      -201.0044
 10  1  4  0 16  0.0000000  0 10G05G28G08G12G09G18G22G27G17G15
  -2460424.59747  -1902739.94246  24589473.4554   24589473.9664   24589476.1664
     -3641.2934
 -14882785.87148 -11547087.72847  22758547.7224   22758546.9404   22758548.0974
     -2541.5864
  -6175871.95346  -4807596.81546  24667275.2184   24667276.6454   24667279.3974
     -2993.4764
  -6468685.78647  -5026351.49246  24447193.5134   24447193.5334   24447196.0054
      3698.6044
 -20382868.46048 -15664753.94447  21450737.2524   21450737.1254   21450740.1524
      2513.1364
 -11786785.94548  -9144684.78746  23160417.1384   23160416.8774   23160417.2844
      1356.8984
  -1984564.57346  -1506156.16746  25336372.4854   25336370.4774   25336373.5514
      2671.0954
 -18170748.77549 -14142549.47848  21651942.2854   21651942.1164   21651944.7054
      1313.6464
 -11123640.48448  -8632819.02847  23018918.7584   23018918.5544   23018921.5044
      2056.0944
 -24863300.68249 -19364784.84048  20355080.0734   20355080.3994   20355081.8914
      -217.7034
 10  1  4  0 16 30.0000000  0 10G05G28G08G12G09G18G22G27G17G15
  -2351186.58547  -1817619.40046  24610261.2604   24610261.5574   24610263.7624
     -3640.6424
 -14806406.73648 -11487571.51647  22773082.3204   22773081.5224   22773084.2764
     -2550.0224
  -6086036.33346  -4737595.08046  24684370.6044   24684370.6904   24684374.6784
     -2994.6704
  -6579588.65047  -5112769.26846  24426089.4274   24426089.5154   24426091.1034
      3695.3084
 -20458136.92648 -15723404.67647  21436414.5874   21436414.2924   21436416.5824
      2505.1524
 -11827234.63448  -9176203.23246  23152719.6464   23152718.6804   23152720.1844
      1339.8494
  -2064548.20246  -1568481.05246  25321153.8384   25321154.3004   25321153.1424
      2661.1974
 -18210071.39749 -14173190.47648  21644459.2364   21644459.2444   21644462.0104
      1308.1894
 -11185125.47248  -8680729.40447  23007218.6624   23007218.8684   23007220.0644
      2043.2884
 -24856520.67249 -19359501.72148  20356370.2664   20356370.5364   20356372.0924
      -234.0144
 10  1  4  0 17  0.0000000  0 10G05G28G08G12G09G18G22G27G17G15
  -2241967.74747  -1732513.80646  24631044.3774   24631045.6104   24631047.6774
     -3640.1864
 -14729770.43348 -11427854.91847  22787665.7304   22787665.9174   22787667.8554
     -2558.8264
  -5996164.74247  -4667565.31346  24701473.2934   24701472.4724   24701476.3194
     -2996.1654
  -6690367.03547  -5199090.16146  24405009.1974   24405009.4364   24405011.2664
      3690.7074
 -20533159.91448 -15781864.12247  21422137.7704   21422138.1474   21422140.3774
      2496.5124
 -11867161.74448  -9207315.27346  23145121.5824   23145121.3074   23145122.4054
      1322.2254
  -2144210.35346  -1630555.45545  25305994.8534   25305993.4894   25305993.6884
      2649.8224
 -18249226.95649 -14203701.29948  21637008.2084   21637008.1854   21637011.2674
      1302.3344
 -11246221.35248  -8728336.57647  22995592.6414   22995592.9574   22995594.2934
      2029.9184
 -24849248.70049 -19353835.25748  20357754.1654   20357754.3914   20357755.8934
      -250.6714
 10  1  4  0 17 30.0000000  0  9G05G28G08G12G09G18G27G17G15
  -2132764.29447  -1647420.21646  24651825.0724   24651826.1314   24651828.2224
     -3639.6504
 -14652873.31648 -11367935.09147  22802298.6974   22802297.6404   22802300.9724
     -2567.3794
  -5906250.91947  -4597502.62346  24718582.6924   24718581.1974   24718585.5734
     -2997.6404
  -6801013.18847  -5285307.90646  24383953.5984   24383953.8734   24383956.2984
      3686.3904
 -20607930.27448 -15840126.70747  21407909.4164   21407909.8584   21407911.4814
      2488.4144
 -11906559.92148  -9238015.15846  23137624.3764   23137624.0124   23137625.3574
      1304.6434
 -18288209.39749 -14234077.21448  21629590.1434   21629589.9394   21629592.9994
      1296.8824
 -11306919.10848  -8775633.52147  22984042.1774   22984042.7524   22984044.6004
      2016.8394
 -24841477.99149 -19347780.16348  20359232.8564   20359233.0734   20359234.6554
      -267.0504
 10  1  4  0 18  0.0000000  0  9G05G28G08G12G09G18G27G17G15
  -2023582.20847  -1562343.25746  24672602.8554   24672602.5324   24672604.9694
     -3638.5984
 -14575720.10948 -11307815.71547  22816980.6264   22816980.1464   22816982.5044
     -2575.5914
  -5816298.77847  -4527410.06046  24735700.0104   24735699.2084   24735703.0574
     -2998.5304
  -6911527.93947  -5371423.33046  24362923.7264   24362923.9554   24362925.6434
      3682.2134
 -20682450.11048 -15898194.08147  21393728.6794   21393728.6464   21393731.3894
      2480.1354
 -11945431.20648  -9268304.47146  23130227.4564   23130226.3724   23130227.3234
      1287.3054
 -18327021.70649 -14264320.56648  21622204.3154   21622204.2024   21622206.8544
      1291.2484
 -11367219.41748  -8822620.76947  22972567.3754   22972567.6964   22972570.0514
      2003.7824
 -24833211.16949 -19341338.48748  20360806.0804   20360806.2614   20360807.6754
      -283.5664
 10  1  4  0 18 30.0000000  0  9G05G28G08G12G09G18G27G17G15
  -1914426.50247  -1477286.85546  24693373.8364   24693374.3224   24693377.0104
     -3638.2634
 -14498315.52348 -11247500.45547  22831709.8344   22831709.8624   22831711.9244
     -2584.4364
  -5726310.84847  -4457289.60046  24752825.2444   24752824.5744   24752827.2074
     -3000.3694
  -7021911.59747  -5457436.56046  24341917.8094   24341918.2044   24341921.1824
      3676.8464
 -20756720.88748 -15956067.38847  21379595.6414   21379596.1064   21379598.1444
      2471.4304
 -11983776.48548  -9298183.91146  23122930.9684   23122931.6364   23122933.6614
      1269.1164
 -18365666.10649 -14294433.07848  21614850.5614   21614850.6814   21614853.0014
      1285.3224
 -11427121.98648  -8869298.09047  22961168.5614   22961168.3774   22961170.9024
      1989.9164
 -24824450.07349 -19334511.66248  20362473.0944   20362473.4214   20362474.9154
      -300.3094
 10  1  4  0 19  0.0000000  0 10G05G28G08G12G09G18G22G27G17G15
  -1805298.14047  -1392251.77846  24714139.7914   24714140.5154   24714142.2634
     -3636.7644
 -14420659.81448 -11186989.51847  22846487.3774   22846487.0614   22846489.0874
     -2592.5804
  -5636286.04547  -4387140.39846  24769956.2654   24769955.3884   24769958.2074
     -3001.5764
  -7132160.44047  -5543344.75946  24320938.6814   24320938.9394   24320941.2174
      3672.7184
 -20830739.77148 -16013744.41747  21365510.1454   21365510.0394   21365513.0774
      2463.1314
 -12021592.98448  -9327651.31146  23115734.3334   23115732.8554   23115735.0724
      1251.9354
   -286472.166 7                  25245985.550
      2606.754
 -18404140.73449 -14324413.29748  21607529.2604   21607529.0064   21607531.7054
      1279.6964
 -11486622.55848  -8915662.16147  22949845.4494   22949845.3814   22949847.8554
      1976.7184
 -24815192.59049 -19327298.04348  20364234.7754   20364235.1164   20364236.4624
      -316.7554
 10  1  4  0 19 30.0000000  0 10G05G28G08G12G09G18G22G27G17G15
  -1696197.31347  -1307238.13346  24734901.6734   24734901.5814   24734904.2694
     -3636.7954
 -14342752.40648 -11126282.44847  22861312.7164   22861312.3684   22861314.6444
     -2601.3144
  -5546222.58147  -4316961.07546  24787094.2334   24787094.4904   24787097.1044
     -3003.1984
  -7242270.67447  -5629144.94846  24299984.5994   24299986.2994   24299987.6074
      3667.8344
 -20904503.35248 -16071222.50447  21351473.7484   21351473.4784   21351475.5664
      2454.2884
 -12058877.06848  -9356703.85146  23108639.7404   23108639.5604   23108641.3754
      1233.8444
   -364474.07647   -269180.72646  25231143.5764   25231143.8444   25231142.3044
      2593.9864
 -18442443.39449 -14354259.51648  21600240.1954   21600240.1124   21600242.8884
      1273.5234
 -11545716.24648  -8961709.20047  22938600.4534   22938600.9554   22938602.6544
      1962.7564
 -24805435.47849 -19319695.10248  20366091.4774   20366091.7334   20366093.3014
      -333.8314
 10  1  4  0 20  0.0000000  0 10G05G28G08G12G09G18G22G27G17G15
  -1587130.97047  -1222251.37546  24755655.7214   24755655.5384   24755660.0444
     -3634.8944
 -14264599.80148 -11065384.32547  22876184.7444   22876185.0524   22876185.4244
     -2609.1834
  -5456125.11947  -4246755.25046  24804239.3274   24804237.7444   24804242.1874
     -3003.9144
  -7352244.43347  -5714838.78646  24279058.3464   24279058.6824   24279060.5884
      3663.4754
 -20978015.27948 -16128504.51447  21337484.3034   21337484.6244   21337487.1874
      2446.1754
 -12095631.65348  -9385343.79046  23101645.0614   23101645.2174   23101646.5274
      1216.1874
   -442140.00747   -329699.61446  25216363.4354   25216363.4844   25216363.8714
      2583.1224
 -18480578.45449 -14383975.13848  21592983.4864   21592983.3304   21592986.1514
      1268.3734
 -11604405.12048  -9007440.79447  22927432.7534   22927432.6164   22927434.0844
      1949.5014
 -24795182.50749 -19311705.78048  20368042.7794   20368042.9994   20368044.4064
      -350.0504
 10  1  4  0 20 30.0000000  0 10G05G28G08G12G09G18G22G27G17G15
  -1478096.08047  -1137289.11846  24776404.0264   24776405.0374   24776407.6514
     -3633.4494
 -14186198.62148 -11004292.49347  22891104.1374   22891104.2644   22891105.5344
     -2617.3214
  -5365988.24547  -4176518.76146  24821391.7014   24821391.9004   24821394.5424
     -3004.9754
  -7462073.82947  -5800420.11546  24258158.0174   24258158.2124   24258159.5234
      3658.3524
 -21051268.96048 -16185585.29047  21323544.8524   21323545.3484   21323547.6704
      2437.7074
 -12131849.96948  -9413565.86046  23094753.5054   23094751.9974   23094752.7824
      1198.5134
   -519462.18347   -389950.68046  25201650.2084   25201650.0984   25201647.9674
      2572.0284
 -18518540.08349 -14413555.61948  21585759.5734   21585759.4124   21585762.3694
      1262.6894
 -11662680.25548  -9052849.98747  22916343.0894   22916343.1224   22916345.4684
      1935.7784
 -24784427.74449 -19303325.45348  20370089.2644   20370089.6354   20370091.0424
      -366.6894
 10  1  4  0 21  0.0000000  0 10G05G28G08G12G09G18G22G27G17G15
  -1369098.31747  -1052355.80546  24797146.5424   24797147.8654   24797148.9564
     -3632.9544
 -14107553.80448 -10943010.82147  22906069.6784   22906069.6644   22906070.4214
     -2625.6594
  -5275815.67047  -4106254.43646  24838550.7264   24838550.7944   24838554.3174
     -3006.2034
  -7571760.05747  -5885889.89746  24237285.2784   24237285.6834   24237287.4424
      3653.5334
 -21124266.43748 -16242466.42647  21309653.7404   21309653.1284   21309656.1014
      2428.9374
 -12167534.46948  -9441371.96746  23087962.0864   23087961.1844   23087965.4904
      1180.4994
   -596441.29747   -449934.43146  25187001.9274   25187001.9234   25187000.3044
      2560.1744
 -18556331.48649 -14443003.45448  21578568.2514   21578568.1014   21578571.0104
      1256.7544
 -11720542.62148  -9097937.53747  22905332.3754   22905332.1934   22905334.1574
      1921.7614
 -24773174.04149 -19294556.34348  20372230.7134   20372231.0374   20372232.4874
      -383.5454
 10  1  4  0 21 30.0000000  0 10G05G28G08G12G09G18G22G27G17G15
  -1260143.59347   -967456.02546  24817878.6164   24817879.8814   24817883.5194
     -3630.9194
 -14028670.67048 -10881543.44847  22921080.7524   22921080.4834   22921081.6594
     -2633.2904
  -5185611.00547  -4035965.10746  24855716.7674   24855716.5864   24855720.2324
     -3007.0284
  -7681304.78447  -5971249.38046  24216439.4784   24216439.5004   24216442.8964
      3649.5574
 -21197009.77948 -16299149.53547  21295811.3424   21295811.4574   21295813.8774
      2420.7934
 -12202686.75448  -9468763.37146  23081274.1274   23081273.2374   23081273.9794
      1163.0234
   -673077.75747   -509651.18746  25172416.3534   25172416.6494   25172418.0344
      2549.1014
 -18593955.47949 -14472320.84248  21571408.4774   21571408.6714   21571411.2214
      1251.5634
 -11777992.69548  -9142703.83147  22894399.5854   22894399.3404   22894402.3804
      1908.3224
 -24761423.43949 -19285400.03548  20374466.6524   20374466.9344   20374468.6954
      -399.7764
 10  1  4  0 22  0.0000000  0 10G05G28G08G12G09G18G22G27G17G15
  -1151230.92247   -882589.02846  24838605.3174   24838605.9104   24838608.0134
     -3630.3804
 -13949548.06348 -10819889.47547  22936137.1704   22936136.9604   22936138.8344
     -2641.7274
  -5095371.21147  -3965648.40546  24872888.7404   24872888.3394   24872890.9234
     -3009.1324
  -7790702.26147  -6056494.16846  24195622.2864   24195622.0284   24195624.6644
      3644.0424
 -21269494.27448 -16355630.94947  21282018.1104   21282017.7924   21282020.3284
      2411.4864
 -12237302.07348  -9495736.34946  23074686.8564   23074685.8694   23074687.4324
      1144.7364
   -749365.95247   -569096.58746  25157900.4034   25157899.9284   25157899.1114
      2536.7934
 -18631408.34249 -14501504.88948  21564281.3984   21564281.2084   21564284.6574
      1245.3394
 -11835024.24148  -9187143.98347  22883546.7774   22883547.3134   22883549.6944
      1893.6694
 -24749172.49549 -19275853.85248  20376798.0364   20376798.2534   20376799.8564
      -416.9964
 10  1  4  0 22 30.0000000  0 10G05G28G08G12G09G18G22G27G17G15
  -1042363.54347   -797757.32146  24859322.0264   24859321.4754   24859325.2744
     -3627.7834
 -13870188.39348 -10758050.77447  22951238.7534   22951237.5324   22951240.9604
     -2649.8954
  -5005097.04147  -3895304.91446  24890066.8954   24890066.6224   24890070.8214
     -3010.1654
  -7899951.19347  -6141623.16546  24174832.6904   24174832.7314   24174835.0514
      3638.6254
 -21341720.05848 -16411910.76547  21268273.9524   21268273.5394   21268275.9384
      2402.6594
 -12271380.09748  -9522290.65446  23068201.1864   23068201.0024   23068203.5774
      1126.2624
   -825304.60247   -628269.58846  25143448.1014   25143448.2584   25143452.2114
      2524.9444
 -18668690.85749 -14530556.18948  21557186.8354   21557186.4214   21557189.7584
      1239.3994
 -11891636.01948  -9231257.05547  22872774.0764   22872774.3984   22872776.5854
      1879.3114
 -24736420.88649 -19265917.54548  20379224.7584   20379224.9924   20379226.4864
      -433.8844
 10  1  4  0 23  0.0000000  0 10G05G28G08G12G09G18G22G27G17G15
   -933544.90147   -712963.57746  24880029.3264   24880029.3834   24880032.5744
     -3626.6014
 -13790594.75948 -10696029.76347  22966384.9874   22966385.3614   22966386.6244
     -2656.6484
  -4914789.71347  -3824935.57546  24907252.2794   24907252.1934   24907254.1654
     -3010.4194
  -8009050.49247  -6226635.61546  24154071.8434   24154071.6894   24154074.1894
      3634.2784
 -21413686.94348 -16467988.84547  21254579.1534   21254579.0884   21254581.4554
      2394.8194
 -12304920.86148  -9548426.31946  23061819.2014   23061816.5994   23061819.5614
      1109.2274
   -900892.09247   -687169.02946  25129067.2054   25129068.8104   25129070.1984
      2513.8644
 -18705804.03949 -14559475.54448  21550124.5294   21550124.0874   21550127.4074
      1234.5394
 -11947825.99348  -9275041.44847  22862081.4524   22862081.8484   22862084.0364
      1866.0934
 -24723169.45849 -19255591.76848  20381746.3814   20381746.6224   20381748.1224
      -449.7864
 10  1  4  0 23 30.0000000  0 10G05G28G08G12G09G18G22G27G17G15
   -824774.51747   -628207.45346  24900727.1214   24900727.8784   24900730.4684
     -3625.2264
 -13710765.60048 -10633825.22847  22981575.5244   22981575.4134   22981577.5694
     -2664.9174
  -4824446.56447  -3754538.30046  24924443.7634   24924442.5134   24924448.2584
     -3012.2134
  -8117995.15647  -6311527.53946  24133340.5924   24133341.0564   24133342.5224
      3628.8774
 -21485390.30348 -16523861.58047  21240934.2184   21240934.0134   21240936.9894
      2385.6264
 -12337920.07248  -9574139.99546  23055539.6584   23055539.2414   23055541.4594
      1090.7614
   -976122.91447   -745790.46646  25114748.2154   25114745.4664   25114748.9854
      2501.6584
 -18742744.40149 -14588260.23648  21543094.7834   21543094.6094   21543097.4584
      1228.4014
 -12003588.70148  -9318492.90247  22851470.5204   22851470.6644   22851472.4504
      1851.5884
 -24709414.48749 -19244873.61848  20384363.8124   20384363.9164   20384365.6354
      -467.0684
 10  1  4  0 24  0.0000000  0 10G05G28G08G12G09G18G22G27G17G15
   -716060.44947   -543495.21246  24921415.0134   24921415.7234   24921418.0774
     -3623.2304
 -13630708.80448 -10571443.30747  22996810.0824   22996810.6194   22996810.7204
     -2672.6834
  -4734073.75647  -3684117.95646  24941641.1684   24941638.4944   24941642.9874
     -3013.3904
  -8226788.92947  -6396301.87546  24112637.7594   24112638.0064   24112639.4354
      3623.7464
 -21556835.01048 -16579532.76347  21227338.6664   21227338.6644   21227340.9874
      2376.8624
 -12370382.39348  -9599435.30347  23049362.3394   23049361.7984   23049365.6414
      1072.9254
  -1051000.38447   -804136.63046  25100503.7484   25100505.5584   25100504.1074
      2490.0704
 -18779517.43549 -14616914.54348  21536097.3744   21536096.9854   21536099.9044
      1222.6984
 -12058927.07448  -9361613.70547  22840939.8044   22840940.1004   22840941.3754
      1837.2384
 -24695161.28549 -19233767.23548  20387076.1054   20387076.3994   20387077.8164
      -483.6644
 10  1  4  0 24 30.0000000  0 10G05G28G08G12G09G18G22G27G17G15
   -607403.38747   -458827.36746  24942091.8814   24942092.5314   24942094.6784
     -3621.9124
 -13550424.76448 -10508884.31347  23012087.5214   23012087.4104   23012089.3944
     -2680.3134
  -4643669.86347  -3613673.36545  24958844.6474   24958844.8114   24958847.4574
     -3014.3344
  -8335428.05147  -6480955.70146  24091964.4404   24091964.7094   24091966.5474
      3618.4324
 -21628018.55048 -16635000.43547  21213792.7814   21213792.7384   21213795.5304
      2368.1164
 -12402304.65448  -9624309.80546  23043287.2674   23043286.7974   23043287.4184
      1054.7264
  -1125520.72647   -862204.46645  25086317.8514   25086315.4584   25086321.2194
      2477.2804
 -18816121.34349 -14645437.06548  21529131.9024   21529131.6064   21529134.5734
      1216.9404
 -12113836.79348  -9404400.49347  22830490.7174   22830490.9244   22830492.7104
      1822.7514
 -24680407.96749 -19222271.15148  20389883.5394   20389883.6754   20389885.3114
      -500.4634
 10  1  4  0 25  0.0000000  0 10G05G28G08G12G09G18G22G27G17G15
   -498801.10447   -374202.20746  24962758.2694   24962758.8074   24962761.8704
     -3618.8644
 -13469910.25748 -10446145.73547  23027409.2114   23027408.9474   23027410.5114
     -2687.6154
  -4553230.07447  -3543200.80945  24976054.7314   24976055.0884   24976057.7644
     -3015.2724
  -8443905.44547  -6565483.50446  24071321.5244   24071321.1104   24071323.5424
      3613.2114
 -21698934.30948 -16690259.44947  21200298.0054   21200297.8264   21200301.0264
      2359.4324
 -12433681.14248  -9648759.02547  23037316.0984   23037316.2824   23037317.5894
      1036.9314
  -1199676.38147   -919988.18246  25072210.0394   25072210.5174   25072210.4034
      2465.8644
 -18852551.00349 -14673823.80548  21522199.4724   21522199.5064   21522201.9944
      1211.5574
 -12168310.82448  -9446847.77447  22820124.8014   22820124.7594   22820126.2294
      1808.6284
 -24665148.32249 -19210380.52848  20392787.2714   20392787.5294   20392789.1204
      -516.9034
 10  1  4  0 25 30.0000000  0 10G05G28G08G12G09G18G22G27G17G15
   -390262.17047   -289626.41746  24983412.7944   24983412.5744   24983415.6204
     -3617.0764
 -13389173.63548 -10383234.08947  23042772.6784   23042772.9634   23042773.5494
     -2695.4544
  -4462760.74446  -3472705.26445  24993270.7154   24993269.2444   24993273.6834
     -3016.3554
  -8552225.36547  -6649888.61946  24050708.6144   24050708.4974   24050712.1234
      3607.4724
 -21769587.64448 -16745313.98147  21186853.1194   21186853.1754   21186855.7704
      2350.0024
 -12464516.86748  -9672786.87247  23031448.3824   23031447.2114   23031449.7684
      1018.3144
  -1273471.15447   -977490.64246  25058164.8844   25058166.3114   25058163.3934
      2453.1874
 -18888812.18749 -14702079.26848  21515299.0464   21515298.9864   21515301.9824
      1205.2404
 -12222352.68648  -9488958.32047  22809840.8004   22809840.6844   22809842.7814
      1793.5884
 -24649388.28549 -19198099.98848  20395786.3724   20395786.7234   20395788.2314
      -534.2054
 10  1  4  0 26  0.0000000  0 10G05G28G08G12G09G18G22G27G17G15
   -281788.10547   -205101.18746  25004054.5274   25004054.4854   25004057.5044
     -3615.3244
 -13308216.00348 -10320150.23947  23058178.5264   23058177.7014   23058179.4234
     -2702.3894
  -4372261.43346  -3402186.34045  25010492.2284   25010492.0924   25010497.2934
     -3017.2514
  -8660385.25347  -6734169.02346  24030127.3444   24030127.3624   24030128.5674
      3602.6844
 -21839976.69349 -16800162.58447  21173458.4494   21173458.8094   21173461.4784
      2341.8754
 -12494810.22948  -9696392.09647  23025684.2554   23025683.5874   23025684.3204
      1000.7854
  -1346902.12546  -1034709.60746  25044192.0824   25044190.9844   25044181.9764
      2441.9474
 -18924904.23049 -14730202.92948  21508431.0244   21508430.5164   21508433.7834
      1200.3454
 -12275958.80048  -9530729.30847  22799639.8634   22799640.1484   22799641.6174
      1779.5534
 -24633126.88949 -19185428.78148  20398880.9104   20398881.1264   20398882.6694
      -550.3674
 10  1  4  0 26 30.0000000  0 10G05G28G08G12G09G18G22G27G17G15
   -173375.46347   -120623.75446  25024685.2444   25024685.3224   25024686.9564
     -3612.5564
 -13227033.25648 -10256890.95447  23073627.3024   23073626.7524   23073629.1114
     -2709.5134
  -4281726.91946  -3331639.97645  25027719.9434   25027719.1984   25027723.5664
     -3018.4424
  -8768376.98147  -6818318.41046  24009576.9054   24009577.3544   24009579.1284
      3597.2634
 -21910094.82349 -16854800.07047  21160115.5014   21160115.3584   21160118.2554
      2332.9304
 -12524554.24148  -9719569.25947  23020024.4544   23020022.5814   23020024.6364
       982.5244
  -1419961.04347  -1091638.74246  25030289.1934   25030288.7934   25030292.3794
      2429.4934
 -18960820.92649 -14758189.96748  21501596.3034   21501596.0054   21501598.9314
      1194.5524
 -12329120.89548  -9572154.31747  22789523.4324   22789523.6134   22789525.4124
      1764.8024
 -24616357.85149 -19172362.00548  20402071.9854   20402072.2014   20402073.8204
      -567.2504
 10  1  4  0 27  0.0000000  0 10G05G28G08G12G09G18G22G27G17G15
    -65037.78847    -36204.79746  25045300.5234   25045300.9854   25045303.6284
     -3609.9904
 -13145638.42348 -10193466.41647  23089115.9354   23089116.4864   23089117.1704
     -2717.0044
  -4191168.03346  -3261074.61045  25044952.2324   25044951.0904   25044956.3284
     -3019.9714
  -8876209.41947  -6902343.66046  23989057.0444   23989057.0314   23989057.5374
      3591.2194
 -21979951.69749 -16909233.98047  21146822.4194   21146822.0114   21146824.9384
      2323.8334
 -12553758.74748  -9742326.02447  23014467.2004   23014466.5524   23014467.2434
       964.3114
  -1492656.67447  -1148284.72646  25016456.5644   25016456.7624   25016458.5304
      2416.3954
 -18996572.91549 -14786048.65348  21494792.8174   21494792.6864   21494795.3264
      1188.5414
 -12381847.68348  -9613240.11447  22779490.0584   22779490.0344   22779492.2214
      1749.7704
 -24599091.60949 -19158907.79848  20405357.4894   20405357.8004   20405359.4804
      -584.2384
 10  1  4  0 27 30.0000000  0 10G05G28G08G12G09G18G22G27G17G15
     43233.14647     48162.17846  25065903.5424   25065905.2884   25065907.9594
     -3607.6504
 -13064022.69248 -10129869.75547  23104646.9764   23104646.4964   23104648.5044
     -2724.0904
  -4100574.50746  -3190482.27845  25062192.3264   25062192.5794   25062200.5474
     -3020.0424
  -8983870.10347  -6986235.09546  23968569.3304   23968569.7904   23968572.5394
      3585.6634
 -22049535.48949 -16963455.10448  21133580.8664   21133580.5284   21133583.5004
      2314.8344
 -12582411.92648  -9764653.17947  23009014.1944   23009014.0554   23009015.1404
       945.9224
  -1564975.95847  -1204637.45946  25002695.7024   25002696.9224   25002695.0954
      2404.4854
 -19032149.38549 -14813770.56848  21488022.8754   21488022.5964   21488025.6234
      1183.0394
 -12434126.03348  -9653976.47947  22769541.8874   22769541.6424   22769543.1004
      1735.1284
 -24581317.45949 -19145057.81848  20408739.7704   20408740.1354   20408741.6644
      -600.9874
 10  1  4  0 28  0.0000000  0 10G05G28G08G12G09G18G22G27G17G15
    151426.93047    132469.00546  25086492.8644   25086492.8104   25086495.8554
     -3605.0124
 -12982196.21148 -10066108.87247  23120218.4574   23120218.9014   23120219.6604
     -2731.2344
  -4009954.66246  -3119869.41445  25079437.2124   25079432.7394   25079438.9014
     -3021.4294
  -9091365.16147  -7069997.44946  23948113.8714   23948114.7014   23948115.8854
      3580.2854
 -22118853.02549 -17017468.75948  21120390.4204   21120389.8204   21120392.0814
      2305.8394
 -12610521.14848  -9786556.48447  23003664.7134   23003664.4774   23003664.8764
       927.5824
  -1636924.50147  -1260701.29446  24989004.2694   24989004.9834   24989003.8934
      2391.5114
 -19067558.12749 -14841361.79348  21481284.7674   21481284.6424   21481287.8684
      1177.2584
 -12485961.26248  -9694367.56447  22759677.8514   22759678.2924   22759679.5304
      1720.1934
 -24563042.43449 -19130817.55248  20412217.4554   20412217.8514   20412219.3974
      -617.8004
 10  1  4  0 28 30.0000000  0 10G05G28G08G12G09G18G22G27G17G15
    259544.29547    216716.38746  25107066.4334   25107067.5274   25107069.2434
     -3602.6564
 -12900157.53948 -10002182.63547  23135829.5364   23135828.9804   23135832.5094
     -2738.4924
  -3919305.68746  -3049233.88345  25096686.2594   25096683.2194   25096689.3884
     -3022.1764
  -9198689.39447  -7153626.71446  23927690.6184   23927690.9464   23927693.5234
      3574.1484
 -22187900.08249 -17071271.63948  21107250.9804   21107250.8004   21107253.1614
      2296.5534
 -12638082.41648  -9808032.80746  22998420.3224   22998420.9124   22998422.3084
       909.1164
  -1708497.11847  -1316472.26046  24975383.5294   24975382.1304   24975385.9124
      2378.6894
 -19102795.97249 -14868819.84648  21474579.3634   21474578.9874   21474581.7384
      1171.2954
 -12537347.97648  -9734409.15547  22749899.0524   22749899.2014   22749901.4544
      1704.9284
 -24544263.32049 -19116184.48648  20415791.0454   20415791.2214   20415792.9404
      -634.8814
 10  1  4  0 29  0.0000000  0 10G05G28G08G12G09G18G22G27G17G15
    367585.43047    300904.25846  25127626.2274   25127625.5344   25127628.8074
     -3599.3384
 -12817905.92848  -9938090.48547  23151481.2234   23151481.0604   23151483.3364
     -2744.3834
  -3828624.803 6  -2978573.43845  25113942.267                    25113946.0044
     -3022.804
  -9305837.89147  -7237119.01446  23907300.6224   23907300.8454   23907303.3814
      3569.4804
 -22256672.82949 -17124860.77648  21094164.2234   21094163.7704   21094166.3644
      2288.5634
 -12665092.11248  -9829079.33847  22993280.6064   22993280.1454   22993281.5384
       891.8784
  -1779688.52047  -1371946.09146  24961834.8404   24961834.1114   24961836.5394
      2367.1114
 -19137859.94749 -14896142.41848  21467906.7804   21467906.6874   21467909.4814
      1166.6154
 -12588280.95448  -9774097.18347  22740207.1124   22740207.4824   22740209.1794
      1690.7864
 -24524977.02849 -19101156.21748  20419461.1114   20419461.4144   20419462.9794
      -650.6244
 10  1  4  0 29 30.0000000  0 10G05G28G08G12G09G18G22G27G17G15
    475540.95547    385025.44446  25148169.7474   25148169.7554   25148172.0714
     -3597.3004
 -12735450.69948  -9873839.66347  23167172.4274   23167171.2134   23167173.8274
     -2752.2984
  -3737919.95856  -2907894.34945  25131202.9344   25131196.7234   25131208.9364
     -3024.3464
  -9412816.13147  -7320478.67346  23886944.3174   23886944.4234   23886945.8204
      3562.7244
 -22325177.21849 -17178240.79748  21081127.8994   21081128.0074   21081130.3474
      2278.6624
 -12691556.51348  -9849700.97547  22988244.8194   22988246.2234   22988245.1564
       872.8314
  -1850503.94947  -1427127.02146  24948359.8124   24948358.3634   24948359.9964
      2354.1914
 -19172756.90849 -14923334.85148  21461266.0954   21461266.0944   21461268.7894
      1160.1034
 -12638765.09448  -9813435.47347  22730600.0224   22730600.4894   22730602.2204
      1674.8884
 -24505190.43249 -19085738.09848  20423226.3464   20423226.6204   20423228.1884
      -668.2024
 10  1  4  0 30  0.0000000  0 10G05G28G08G12G09G18G22G27G17G15
    583414.16347    469082.52445  25168698.0684   25168697.8984   25168699.1084
     -3594.2244
 -12652787.93848  -9809427.13247  23182902.1894   23182902.2634   23182904.9434
     -2758.6144
  -3647185.40715                  25148469.028
     -3024.738
  -9519616.27547  -7403699.52146  23866620.1504   23866621.0194   23866623.0654
      3557.2254
 -22393406.52249 -17231406.47048  21068144.4784   21068144.5824   21068146.7634
      2269.9334
 -12717468.81148  -9869892.38547  22983314.3294   22983313.6074   22983314.9634
       854.6674
  -1920935.30147  -1482008.61046  24934957.6434   24934955.2124   24934957.4464
      2341.3444
 -19207480.90349 -14950392.51348  21454658.4374   21454658.1154   21454661.1664
      1154.7814
 -12688792.32948  -9852417.72247  22721080.3574   22721080.1774   22721082.6004
      1660.1284
 -24484897.62149 -19069925.52248  20427088.1334   20427088.2994   20427089.7414
      -684.6294
 10  1  4  0 30 30.0000000  0  9G05G28G12G09G18G22G27G17G15
    691201.77847    553072.92146  25189208.7604   25189208.9634   25189210.2464
     -3591.1154
 -12569920.55248  -9744855.14147  23198671.2944   23198671.2624   23198672.8044
     -2765.7234
  -9626237.47647  -7486780.96946  23846330.6814   23846330.4984   23846333.5684
      3551.0124
 -22461360.79848 -17284357.83848  21055212.9144   21055212.7804   21055215.7244
      2260.6694
 -12742829.11248  -9889653.66747  22978487.7084   22978488.1834   22978488.7534
       836.1714
  -1990981.18947  -1536589.89146  24921628.3564   24921628.7374   24921628.8004
      2328.4884
 -19242032.44049 -14977315.78648  21448083.4704   21448083.1964   21448086.0984
      1148.8994
 -12738360.76448  -9891042.47047  22711647.6104   22711647.8814   22711650.0774
      1644.6974
 -24464099.31349 -19053719.05448  20431045.6734   20431045.9814   20431047.6044
      -701.5854
 10  1  4  0 31  0.0000000  0  9G05G28G12G09G18G22G27G17G15
    798899.22446    636992.98045  25209701.7404   25209703.3564   25209705.1134
     -3587.9534
 -12486852.21548  -9680126.57447  23214479.3454   23214478.3004   23214480.4774
     -2772.2774
  -9732679.74747  -7569722.97646  23826075.9374   23826075.9434   23826078.7354
      3545.0084
 -22529040.82249 -17337095.50348  21042333.9794   21042333.3914   21042335.8824
      2251.3134
 -12767639.01948  -9908986.06347  22973766.8374   22973766.2164   22973768.2244
       817.6914
  -2060641.46447  -1590870.63146  24908373.8054   24908374.2014   24908372.4934
      2315.7434
 -19276413.69349 -15004106.36448  21441541.0264   21441540.6904   21441543.8424
      1143.0934
 -12787470.68048  -9929309.92747  22702302.5954   22702302.7514   22702304.6984
      1629.1584
 -24442797.01949 -19037119.87148  20435099.4284   20435099.7134   20435101.4864
      -718.5934
 10  1  4  0 31 30.0000000  0  9G05G28G12G09G18G22G27G17G15
    906505.93746    720842.37346  25230180.0674   25230181.6504   25230182.5974
     -3584.8724
 -12403583.09048  -9615241.53947  23230324.7604   23230324.3524   23230326.2254
     -2778.7834
  -9838939.05147  -7652522.41346  23805855.2424   23805855.1924   23805857.0764
      3539.0404
 -22596443.62049 -17389617.14748  21029507.6984   21029507.7624   21029509.9474
      2242.3074
 -12791895.57048  -9927887.29647  22969151.2474   22969150.9494   22969152.1984
       799.5274
  -2129911.89947  -1644847.66246  24895191.5034   24895192.6334   24895193.4164
      2302.7224
 -19310622.55749 -15030762.61548  21435031.0604   21435030.8554   21435034.2914
      1137.6874
 -12836117.50748  -9967216.54047  22693045.5554   22693045.9044   22693047.5484
      1614.2014
 -24420988.60349 -19020126.30948  20439249.2814   20439249.6414   20439251.4014
      -735.1214
 10  1  4  0 32  0.0000000  0  9G05G28G12G09G18G22G27G17G15
   1014013.90046    804614.80045  25250637.1674   25250638.9064   25250641.6934
     -3581.6254
 -12320120.55148  -9550205.80447  23246207.2844   23246207.0464   23246208.6894
     -2785.2164
  -9945018.96347  -7735182.07146  23785669.1024   23785668.9974   23785671.9194
      3532.9424
 -22663573.45249 -17441926.09748  21016733.2634   21016733.1764   21016735.2474
      2233.1344
 -12815603.38748  -9946360.93447  22964639.4124   22964640.4954   22964640.7194
       781.0684
  -2198795.73147  -1698523.39846  24882084.0694   24882085.3574   24882083.1594
      2289.4654
 -19344664.04749 -15057288.44448  21428553.4514   21428553.3774   21428556.1164
      1132.0544
 -12884304.41448 -10004764.77747  22683875.5604   22683875.6964   22683877.5094
      1598.6344
 -24398679.37549 -19002742.50348  20443494.7414   20443494.9624   20443496.6984
      -751.9134
 10  1  4  0 32 30.0000000  0  9G05G28G12G09G18G22G27G17G15
   1121428.00046    888314.08345  25271077.2804   25271078.4144   25271079.6854
     -3579.2544
 -12236459.90248  -9485015.70847  23262127.3504   23262126.2364   23262129.0084
     -2792.5084
 -10050910.85847  -7817695.21346  23765518.3974   23765519.0354   23765520.1704
      3526.1034
 -22730422.39549 -17494016.17248  21004012.2964   21004012.1744   21004014.8704
      2223.3624
 -12838755.19748  -9964401.33447  22960234.4934   22960232.7334   22960234.8994
       762.0944
  -2267284.19847  -1751891.07746  24869051.5874   24869050.9704   24869049.4784
      2276.5194
 -19378531.15449 -15083678.39248  21422108.7614   21422108.2264   21422111.4284
      1125.6274
 -12932022.50648 -10041947.69947  22674794.9754   22674794.8284   22674797.2494
      1582.3644
 -24375862.45249 -18984963.09148  20447836.6954   20447837.0704   20447838.5104
      -769.4634
 10  1  4  0 33  0.0000000  0  9G05G28G12G09G18G22G27G17G15
   1228743.72546    971936.75546  25291499.2084   25291498.5364   25291500.1204
     -3575.9454
 -12152604.63748  -9419673.95447  23278084.3934   23278083.1734   23278083.8984
     -2798.5694
 -10156615.05047  -7900062.08846  23745403.5464   23745404.2574   23745406.9684
      3520.3784
 -22796991.28049 -17545888.01948  20991344.9664   20991344.6844   20991346.8834
      2214.2154
 -12861351.92448  -9982009.19347  22955933.9774   22955933.1464   22955933.9594
       743.8934
  -2335376.70847  -1804950.17246  24856090.3584   24856089.6244   24856089.8854
      2263.3824
 -19412225.78849 -15109933.95248  21415696.7624   21415696.5684   21415699.5184
      1120.2104
 -12979271.42348 -10078765.02847  22665804.0614   22665804.3234   22665805.3504
      1567.0214
 -24352539.45449 -18966789.33448  20452274.9664   20452275.0674   20452276.7974
      -785.9854
 10  1  4  0 33 30.0000000  0  9G05G28G12G09G18G22G27G17G15
   1335955.13346   1055478.01246  25311900.5224   25311900.5074   25311904.4994
     -3572.0984
 -12068560.53848  -9354185.05047  23294077.1134   23294077.8054   23294079.1734
     -2804.9504
 -10262132.97747  -7982283.85346  23725324.2294   23725324.9684   23725325.8084
      3513.9764
 -22863282.76749 -17597543.71248  20978729.9104   20978729.5024   20978732.3514
      2204.9664
 -12883396.76348  -9999187.01147  22951738.6944   22951738.0264   22951740.3644
       725.5674
  -2403075.05947  -1857702.19546  24843210.3604   24843213.0144   24843211.7534
      2250.0744
 -19445751.11049 -15136057.57648  21409317.1984   21409316.9284   21409319.7484
      1114.5584
 -13026052.30848 -10115217.66747  22656901.8714   22656902.1754   22656903.9454
      1551.3214
 -24328713.90849 -18948223.97948  20456808.7334   20456809.0674   20456810.6484
      -802.7244
 10  1  4  0 34  0.0000000  0  9G05G28G12G09G18G22G27G17G15
   1443065.46646   1138940.60146  25332283.7324   25332282.7194   25332286.7424
     -3568.1154
 -11984323.78148  -9288546.02647  23310107.0654   23310106.7074   23310109.0114
     -2810.7754
 -10367456.71647  -8064354.27146  23705282.0434   23705281.5534   23705284.8794
      3508.0974
 -22929289.98449 -17648977.89648  20966168.9454   20966168.7564   20966171.7114
      2196.1054
 -12904883.30548 -10015929.78247  22947650.5304   22947649.8394   22947651.7054
       707.3914
  -2470371.31347  -1910140.85846  24830406.6464   24830407.9024   24830405.6324
      2237.4384
 -19479101.29049 -15162044.73048  21402970.9464   21402970.5884   21402973.2474
      1109.1944
 -13072357.53648 -10151299.65947  22648090.3774   22648090.2754   22648092.2834
      1536.2574
 -24304380.06049 -18929262.54448  20461439.2264   20461439.6994   20461441.1374
      -819.1174
 10  1  4  0 34 30.0000000  0  9G05G28G12G09G18G22G27G17G15
   1550067.31046   1222318.69745  25352644.6424   25352645.1814   25352647.4094
     -3564.8524
 -11899901.37248  -9222762.34246  23326171.9154   23326172.3764   23326173.5694
     -2817.5674
 -10472589.81547  -8146276.15046  23685275.3364   23685275.4394   23685277.6914
      3501.2184
 -22995016.95649 -17700193.70848  20953661.6444   20953661.6404   20953664.0914
      2186.1414
 -12925815.83448 -10032240.85247  22943668.1404   22943666.4184   22943666.8754
       688.3634
  -2537268.29447  -1962268.42446  24817675.6194   24817675.2814   24817677.9854
      2223.0824
 -19512280.91849 -15187898.98348  21396656.8794   21396656.6794   21396659.6194
      1102.9364
 -13118189.86448 -10187013.14947  22639368.4464   22639368.9244   22639370.5234
      1519.6884
 -24279542.70149 -18909908.76348  20466165.8474   20466165.9964   20466167.7814
      -836.4164
 10  1  4  0 35  0.0000000  0  9G05G28G12G09G18G22G27G17G15
   1656959.79546   1305611.52046  25372986.2694   25372986.2214   25372989.0414
     -3561.9394
 -11815293.74448  -9156834.31847  23342271.9754   23342272.2794   23342274.7444
     -2823.7484
 -10577528.66547  -8228046.67446  23665306.1114   23665305.4114   23665309.0744
      3494.1654
 -23060461.32649 -17751189.30648  20941207.9304   20941208.0024   20941210.3694
      2176.3034
 -12946192.61348 -10048118.88847  22939788.6694   22939788.3654   22939790.1004
       669.4624
  -2603762.74646  -2014082.30546  24805018.9054   24805015.6934   24805017.6054
      2210.3024
 -19545288.52449 -15213619.18348  21390375.7554   21390375.5184   21390378.3884
      1096.9704
 -13163545.59048 -10222355.27247  22630737.6514   22630737.3814   22630739.8084
      1503.4614
 -24254200.25349 -18890161.40348  20470988.1424   20470988.2624   20470990.1254
      -853.5984
 10  1  4  0 35 30.0000000  0  9G05G28G12G09G18G22G27G17G15
   1763740.55446   1388817.32146  25393305.8014   25393306.1014   25393307.3884
     -3557.6254
 -11730502.83648  -9090763.48546  23358407.1254   23358407.6394   23358408.9734
     -2829.4734
 -10682271.56547  -8309664.51046  23645373.7674   23645374.1624   23645376.6954
      3488.2834
 -23125621.69349 -17801963.60948  20928808.3814   20928808.0244   20928811.2504
      2167.2284
 -12966012.92048 -10063563.29647  22936017.0384   22936017.8264   22936019.4474
       651.5294
  -2669852.24047  -2065580.62646  24792443.4114   24792443.0734   24792443.6734
      2196.3314
 -19578123.76349 -15239205.07548  21384127.1634   21384127.2734   21384130.2214
      1091.7044
 -13208422.37048 -10257324.18447  22622198.4654   22622198.3954   22622199.8504
      1487.9964
 -24228352.60549 -18870020.38348  20475906.7984   20475907.0804   20475908.6864
      -869.9274
 10  1  4  0 36  0.0000000  0  9G05G28G12G09G18G22G27G17G15
   1870407.60046   1471934.49246  25413603.5614   25413604.2804   25413604.8114
     -3553.7094
 -11645530.21248  -9024551.06747  23374577.4724   23374577.6744   23374578.6044
     -2835.5754
 -10786816.23547  -8391127.86346  23625480.3244   23625480.0764   23625483.0674
      3481.2714
 -23190496.91049 -17852515.71848  20916462.9534   20916462.9674   20916465.2474
      2157.6894
 -12985275.86948 -10078573.41147  22932351.5584   22932351.2504   22932353.2144
       632.6464
  -2735534.70947  -2116761.77046  24779944.9074   24779944.6314   24779945.0384
      2182.5404
 -19610786.44949 -15264656.51648  21377911.7854   21377911.4834   21377914.7864
      1085.8594
 -13252817.97648 -10291918.15847  22613749.4804   22613749.8724   22613751.8564
      1471.8554
 -24201999.67449 -18849485.63648  20480921.5444   20480921.7664   20480923.6044
      -886.8834
 10  1  4  0 36 30.0000000  0  9G05G28G12G09G18G22G27G17G15
   1976952.21146   1554956.24746  25433878.9724   25433878.3784   25433881.3724
     -3549.9044
 -11560384.14348  -8958203.49647  23390779.9174   23390780.4834   23390781.4324
     -2841.4174
 -10891167.43747  -8472440.48346  23605622.6094   23605623.0294   23605625.5864
      3474.6404
 -23255092.15849 -17902849.66148  20904170.7854   20904170.3714   20904173.2804
      2148.0544
 -13003987.33248 -10093153.78847  22928791.4034   22928791.2004   22928794.2464
       614.1364
  -2800814.27847  -2167629.00546  24767523.6274   24767523.2614   24767524.7514
      2168.5424
 -19643282.45249 -15289978.07048  21371728.0224   21371727.7414   21371730.6814
      1080.1434
 -13296736.71248 -10326140.54347  22605391.9994   22605392.9214   22605394.4394
      1455.6414
 -24175147.52049 -18828561.88448  20486031.3984   20486031.5924   20486033.4094
      -903.8564
 10  1  4  0 37  0.0000000  0 10G05G28G12G09G18G22G26G27G17G15
   2083383.79847   1637889.96546  25454132.1964   25454131.5004   25454133.3424
     -3546.0284
 -11475054.66547  -8891712.99247  23407017.6344   23407016.7194   23407019.5764
     -2847.8654
 -10995311.54848  -8553591.73147  23585805.2554   23585805.3624   23585806.4654
      3467.5004
 -23319394.59649 -17952955.44748  20891934.4704   20891934.2174   20891937.0084
      2137.9944
 -13022135.16348 -10107294.98547  22925338.6304   22925338.7044   22925338.0454
       595.0854
  -2865677.07647  -2218171.45946  24755179.6024   24755178.6924   24755179.8904
      2154.9944
   -800548.319 7                  24918751.462
      3823.227
 -19675599.98749 -15315160.55948  21365578.1374   21365578.1684   21365581.0054
      1073.6544
 -13340164.77948 -10359980.59247  22597127.8874   22597128.8154   22597129.7744
      1438.8984
 -24147784.80449 -18807240.29448  20491238.3184   20491238.5434   20491240.2924
      -921.0604
 10  1  4  0 37 30.0000000  0 10G05G28G12G09G18G22G26G27G17G15
   2189692.55747   1720727.94146  25474362.2544   25474361.8224   25474364.5774
     -3541.7974
 -11389551.50048  -8825087.15446  23423288.5124   23423287.5794   23423289.3714
     -2853.1974
 -11099254.38648  -8634586.12347  23566024.7724   23566024.4934   23566027.9334
      3461.2074
 -23383410.82949 -18002838.21248  20879752.7694   20879752.3024   20879755.0254
      2128.9844
 -13039726.32848 -10121002.39947  22921990.0344   22921989.7714   22921992.1454
       576.8494
  -2930128.67447  -2268393.47146  24742915.2154   24742914.7124   24742916.6884
      2141.5324
   -314713.536 7                  24896923.812
      3822.404
 -19707746.27449 -15340209.60748  21359460.9744   21359461.0694   21359463.6364
      1068.5554
 -13383107.52248 -10393442.46747  22588956.1794   22588956.4104   22588958.4594
      1423.1194
 -24119918.55849 -18785526.34148  20496541.0824   20496541.2754   20496543.0874
      -937.3994
 10  1  4  0 38  0.0000000  0 10G05G28G12G09G18G22G26G27G17G15
   2295878.68847   1803470.35946  25494567.5254   25494568.8564   25494571.7084
     -3537.8634
 -11303873.55848  -8758325.13247  23439592.4024   23439590.4554   23439593.2384
     -2858.9924
 -11202990.67448  -8715419.59147  23546284.6524   23546285.7494   23546286.3554
      3454.1194
 -23447136.89349 -18052494.86948  20867625.9434   20867625.7334   20867628.7534
      2119.0724
 -13056757.37048 -10134273.37347  22918748.7584   22918748.8674   22918750.2994
       558.0884
  -2994164.03147  -2318291.16746  24730729.7314   24730729.9814   24730729.3284
      2127.4384
   -429365.38247   -323960.16445  24875106.8444   24875107.4544   24875110.8454
      3820.7274
 -19739718.10949 -15365122.71748  21353376.8664   21353376.9394   21353379.7374
      1062.6234
 -13425559.88248 -10426522.22347  22580878.0874   22580878.3134   22580879.6194
      1406.6554
 -24091545.96549 -18763417.83048  20501940.2074   20501940.4114   20501942.2984
      -954.4494
 10  1  4  0 38 30.0000000  0  9G28G12G09G18G22G26G27G17G15
 -11218022.81348  -8691428.45746  23455929.2034   23455928.7104   23455931.3704
     -2864.2384
 -11306519.07148  -8796091.05447  23526583.6864   23526583.3144   23526586.2634
      3447.7874
 -23510571.71549 -18101924.59048  20855554.7454   20855554.6674   20855557.5264
      2109.9194
 -13073228.30548 -10147107.89047  22915615.3624   22915614.7714   22915617.0514
       539.8764
  -3057781.47747  -2367863.20346  24718623.0224   24718621.9184   24718624.1664
      2114.1074
   -543968.83346   -413261.56846  24853298.2174   24853297.0884   24853298.7064
      3819.5364
 -19771515.23349 -15389899.68848  21347326.0654   21347325.9594   21347328.8084
      1057.1384
 -13467519.85248 -10459218.29747  22572893.3074   22572893.2444   22572895.2474
      1390.7274
 -24062667.21149 -18740914.91348  20507435.7244   20507436.0444   20507437.7704
      -970.8094
 10  1  4  0 39  0.0000000  0  9G28G12G09G18G22G26G27G17G15
 -11132005.26848  -8624401.81347  23472298.0294   23472296.8284   23472299.1584
     -2870.5114
 -11409841.82848  -8876602.28447  23506922.2494   23506922.5344   23506923.9484
      3440.1264
 -23573718.53949 -18151129.89248  20843538.5104   20843538.2824   20843540.7694
      2099.5624
 -13089142.70048 -10159508.74446  22912586.6014   22912587.1884   22912587.6594
       520.7884
  -3120982.52647  -2417110.80046  24706595.8874   24706595.7934   24706599.6764
      2099.3924
   -658526.15647   -502526.98346  24831499.1994   24831501.1504   24831499.7424
      3817.0684
 -19803141.66249 -15414543.64748  21341307.8674   21341307.3804   21341310.6494
      1050.9064
 -13508989.68348 -10491532.43647  22565001.8834   22565002.2184   22565004.4244
      1373.6174
 -24033286.62449 -18718020.95148  20513026.7154   20513027.1264   20513028.7324
      -988.2384
 10  1  4  0 39 30.0000000  0  9G28G12G09G18G22G26G27G17G15
 -11045818.03748  -8557242.94246  23488698.8264   23488698.2494   23488699.7264
     -2875.5644
 -11512952.15948  -8956947.97447  23487300.9924   23487300.9774   23487302.4814
      3433.5124
 -23636571.10649 -18200105.90448  20831577.7364   20831577.3374   20831580.3684
      2090.1574
 -13104495.26848 -10171471.81046  22909664.4454   22909664.7664   22909666.8594
       502.2964
  -3183761.03247  -2466029.10646  24694650.1274   24694650.2124   24694651.7934
      2085.6324
   -773030.16747   -591750.96246  24809709.7694   24809710.2794   24809711.6884
      3815.9624
 -19834592.35949 -15439050.67848  21335322.9474   21335322.8994   21335325.7144
      1045.4794
 -13549962.77648 -10523459.51547  22557204.7204   22557204.9564   22557206.9584
      1357.4844
 -24003399.47049 -18694732.26848  20518713.9994   20518714.1554   20518715.8694
     -1004.6744
 10  1  4  0 40  0.0000000  0  9G28G12G09G18G22G26G27G17G15
 -10959467.68747  -8489956.95946  23505130.9354   23505130.3634   23505132.2534
     -2880.9644
 -11615853.25848  -9037130.64047  23467719.1834   23467720.0754   23467722.5704
      3426.5274
 -23699133.43049 -18248855.75748  20819672.4034   20819672.3524   20819674.9414
      2080.4434
 -13119290.49748 -10183000.59447  22906851.0464   22906849.7124   22906849.4934
       483.6984
  -3246119.63147  -2514620.25146  24682785.6564   24682784.6664   24682785.0334
      2071.4484
   -887483.40546   -680935.32946  24787930.5664   24787931.0224   24787933.1594
      3814.2464
 -19865871.89349 -15463424.33548  21329370.6294   21329370.4554   21329373.3764
      1039.5974
 -13590441.71748 -10555001.54747  22549501.9694   22549502.2474   22549503.9924
      1340.9864
 -23973010.41849 -18671052.49348  20524496.8314   20524497.2264   20524498.7214
     -1021.3934
 10  1  4  0 40 30.0000000  0  9G28G12G09G18G22G26G27G17G15
 -10872952.35048  -8422542.42246  23521594.0854   23521593.8284   23521596.3174
     -2887.1484
 -11718538.98948  -9117145.47947  23448179.3614   23448179.2564   23448181.9064
      3419.0854
 -23761400.41149 -18297375.47348  20807823.3774   20807823.3184   20807826.1234
      2070.4864
 -13133524.09548 -10194091.72447  22904141.1344   22904139.8554   22904143.1394
       464.6944
  -3308052.46647  -2562879.59446  24670998.1594   24670998.3784   24670999.0454
      2057.1494
  -1001879.76747   -770075.41546  24766160.9764   24766161.1594   24766165.9884
      3812.2694
 -19896975.91349 -15487661.23248  21323451.6954   21323451.6904   21323454.3074
      1033.5614
 -13630420.55448 -10586153.87847  22541894.2134   22541894.1484   22541896.1484
      1324.0404
 -23942115.92849 -18646978.87148  20530375.9134   20530376.2934   20530377.8024
     -1038.4704
 10  1  4  0 41  0.0000000  0  9G28G12G09G18G22G26G27G17G15
 -10786277.59247  -8355003.66146  23538087.5144   23538086.7134   23538089.3944
     -2892.0224
 -11821011.53348  -9196994.21047  23428679.7034   23428679.9274   23428680.7794
      3411.7594
 -23823374.34649 -18345666.84148  20796030.5054   20796030.1674   20796032.8004
      2060.6534
 -13147199.31848 -10204747.76647  22901538.4764   22901538.8364   22901541.4224
       446.0524
  -3369560.66547  -2610808.09046  24659295.3084   24659296.2564   24659295.9834
      2042.8224
  -1116220.37246   -859172.00546  24744403.3654   24744404.0574   24744406.0184
      3810.0624
 -19927907.75349 -15511763.96148  21317565.8694   21317565.5944   21317568.3124
      1027.8084
 -13669900.72148 -10616917.63347  22534381.4734   22534381.7384   22534383.5324
      1307.3934
 -23910719.40049 -18622514.04748  20536350.5574   20536350.6224   20536352.5514
     -1055.3024
 10  1  4  0 41 30.0000000  0  9G28G12G09G18G22G26G27G17G15
 -10699441.78148  -8287339.40146  23554612.1214   23554611.3914   23554613.8224
     -2896.8184
 -11923265.79248  -9276672.83547  23409220.7044   23409220.6394   23409222.1074
      3405.0974
 -23885051.29349 -18393726.78848  20784293.7224   20784293.3664   20784296.1564
      2051.1404
 -13160312.69448 -10214965.99447  22899043.0714   22899042.4614   22899044.9284
       427.9834
  -3430639.45247  -2658401.94746  24647672.0324   24647671.7834   24647670.7214
      2029.2824
  -1230500.02746   -948221.14946  24722655.9884   24722654.4804   24722658.6254
      3808.6164
 -19958663.98749 -15535729.84948  21311712.8984   21311712.8694   21311715.5804
      1022.4204
 -13708877.38748 -10647289.05847  22526964.6154   22526964.9744   22526966.8934
      1291.0474
 -23878817.95849 -18597655.78648  20542421.2784   20542421.2964   20542423.0644
     -1071.5124
 10  1  4  0 42  0.0000000  0  9G28G12G09G18G22G26G27G17G15
 -10612447.39248  -8219551.57846  23571166.3884   23571166.8264   23571167.5724
     -2902.2274
 -12025300.49548  -9356180.38947  23389804.2684   23389803.7254   23389806.7144
      3397.7074
 -23946430.59549 -18441554.80548  20772613.4894   20772613.6034   20772616.0074
      2041.2364
 -13172864.67048 -10224746.80047  22896655.5454   22896655.1634   22896656.3464
       409.2364
  -3491287.77547  -2705660.40446  24636131.7924   24636131.1704   24636130.6754
      2014.5274
  -1344716.70646  -1037221.13546  24700922.9084   24700924.2284   24700924.4014
      3806.1204
 -19989244.64849 -15559558.93048  21305893.6954   21305893.4954   21305896.0794
      1016.5764
 -13747349.28048 -10677267.15047  22519643.7864   22519644.2684   22519645.5064
      1274.1834
 -23846412.12149 -18572404.48948  20548587.8514   20548587.8674   20548589.6354
     -1088.3814
 10  1  4  0 42 30.0000000  0  9G28G12G09G18G22G26G27G17G15
 -10525295.95448  -8151641.36546  23587750.9454   23587749.7474   23587752.2694
     -2907.0944
 -12127113.92448  -9435515.52847  23370429.3724   23370429.9854   23370432.5894
      3390.5984
 -24007510.70649 -18489149.68948  20760990.4644   20760990.2984   20760992.8034
      2031.6384
 -13184854.57748 -10234089.59547  22894374.0564   22894372.1034   22894376.4854
       390.8144
  -3551502.85947  -2752581.25046  24624670.4704   24624669.8874   24624670.4924
      2000.8724
  -1458868.08846  -1126170.35845  24679198.6474   24679201.4524   24679203.5974
      3805.0464
 -20019649.41449 -15583250.95948  21300107.9214   21300107.8244   21300110.5774
      1011.1694
 -13785313.76248 -10706849.86547  22512419.0844   22512419.4994   22512421.3554
      1257.6294
 -23813501.99949 -18546760.24648  20554850.3264   20554850.5354   20554852.2754
     -1104.7524
 10  1  4  0 43  0.0000000  0  8G28G12G09G18G22G27G17G15
 -10437994.15147  -8083613.99246  23604363.6904   23604363.8604   23604365.3524
     -2912.7164
 -12228708.24948  -9514679.92147  23351097.1184   23351097.3104   23351099.3534
      3382.6014
 -24068295.43149 -18536514.39748  20749423.3504   20749423.2494   20749426.0244
      2020.8904
 -13196287.06248 -10242998.05147  22892198.4624   22892195.9084   22892199.7374
       371.7214
  -3611287.79047  -2799166.94746  24613294.9904   24613295.4544   24613295.9654
      1986.0874
 -20049882.87349 -15606809.49648  21294354.6194   21294354.5124   21294357.6154
      1004.8534
 -13822774.06548 -10736039.71047  22505290.6414   22505290.8184   22505292.4854
      1240.1744
 -23780092.31649 -18520726.72848  20561207.8864   20561208.1654   20561209.8604
     -1122.1484
 10  1  4  0 43 30.0000000  0  9G28G12G09G18G22G26G27G17G15
 -10350539.78648  -8015467.73146  23621005.9234   23621006.2824   23621006.9544
     -2917.3954
 -12330077.78548  -9593669.16047  23331806.7364   23331805.9094   23331809.3674
      3375.3464
 -24128779.19649 -18583644.59348  20737913.7054   20737913.0544   20737916.2324
      2011.2574
 -13207157.64648 -10251468.65447  22890129.6054   22890129.3184   22890131.5434
       353.2034
  -3670636.48147  -2845412.67546  24602002.8254   24602003.3074   24602002.9974
      1971.1804
   -425377.71146   -322668.55346  24635793.7994   24635793.6304   24635794.5584
      3799.4094
 -20079940.52049 -15630231.02848  21288634.8204   21288634.5764   21288637.3594
       999.1484
 -13859724.01548 -10764831.87147  22498259.4544   22498259.7714   22498261.6624
      1223.3854
 -23746179.26049 -18494300.97248  20567661.3064   20567661.6494   20567663.5824
     -1138.6684
 10  1  4  0 44  0.0000000  0  8G28G12G09G18G22G27G17G15
 -10262935.43847  -7947204.61246  23637676.4044   23637674.8244   23637678.4114
     -2922.0904
 -12431222.14648  -9672482.93447  23312560.0814   23312559.7824   23312562.1484
      3368.1534
 -24188962.52249 -18630540.67348  20726461.0284   20726460.7844   20726463.8514
      2001.6834
 -13217467.43248 -10259502.27547  22888168.3024   22888168.4734   22888169.6004
       334.9644
  -3729548.10747  -2891317.83246  24590790.3614   24590789.4074   24590792.1714
      1956.9804
 -20109823.17149 -15653516.20448  21282948.3264   21282948.4124   21282950.8984
       993.7834
 -13896162.95948 -10793225.85147  22491325.3844   22491325.7954   22491327.4114
      1206.5654
 -23711764.12249 -18467483.98448  20574210.3464   20574210.5174   20574212.5384
     -1154.9464
 10  1  4  0 44 30.0000000  0  8G28G12G09G18G22G27G17G15
 -10175182.10547  -7878825.39546  23654374.8394   23654375.9944   23654378.3844
     -2927.6924
 -12532138.39048  -9751118.95247  23293356.5584   23293356.3994   23293358.1694
      3359.7314
 -24248842.97949 -18677200.75848  20715066.2584   20715066.1514   20715068.6924
      1990.6344
 -13227215.20348 -10267097.96747  22886312.7474   22886312.2564   22886313.9034
       315.3444
  -3788019.79747  -2936880.20846  24579663.9804   24579663.8634   24579665.7734
      1941.3474
 -20139529.37049 -15676663.89148  21277295.5534   21277294.9394   21277298.2534
       987.0134
 -13932088.09348 -10821219.45747  22484488.7924   22484488.3244   22484490.6464
      1188.6454
 -23676846.12949 -18440275.15748  20580855.0234   20580855.2014   20580856.9134
     -1172.5724
 10  1  4  0 45  0.0000000  0  8G28G12G09G18G22G27G17G15
 -10087286.12147  -7810335.02446  23671101.1674   23671100.6344   23671103.8324
     -2932.7474
 -12632829.01648  -9829579.17547  23274195.6414   23274196.3464   23274197.9794
      3351.9514
 -24308424.16749 -18723627.64648  20703728.3604   20703728.2994   20703730.5944
      1980.5604
 -13236404.90848 -10274258.79447  22884563.8094   22884563.4884   22884564.3614
       296.5304
  -3846054.12247  -2982101.78946  24568621.4574   24568621.9424   24568620.7184
      1926.9554
 -20169063.46449 -15699677.46948  21271675.0984   21271674.9074   21271678.1454
       981.0354
 -13967502.02448 -10848814.72347  22477749.9224   22477750.1934   22477751.4204
      1171.4394
 -23641429.94749 -18412678.13548  20587594.3604   20587594.6604   20587596.5514
     -1189.3734
 10  1  4  0 45 30.0000000  0  9G28G12G09G18G22G26G27G17G15
  -9999243.14147  -7741730.11246  23687855.4564   23687855.0234   23687857.0014
     -2937.3214
 -12733286.43148  -9907857.68347  23255079.2974   23255078.8094   23255080.9424
      3344.7074
 -24367698.67949 -18769815.56248  20692448.7844   20692448.4454   20692451.1654
      1970.8404
 -13245030.74248 -10280980.24447  22882922.1754   22882922.7124   22882924.0924
       278.0774
  -3903643.22847  -3026976.43946  24557661.0744   24557660.9134   24557662.5064
      1912.0734
   -533270.13117                  24549142.337
      3789.480
 -20198418.84049 -15722551.78848  21266089.0564   21266088.8784   21266091.8144
       975.2014
 -14002396.55248 -10876005.26347  22471109.5374   22471110.1534   22471111.7164
      1154.4204
 -23605509.80649 -18384688.41748  20594429.7954   20594430.1884   20594431.9734
     -1205.8954
 10  1  4  0 46  0.0000000  0  9G28G12G09G18G22G26G27G17G15
  -9911059.45047  -7673015.55946  23704636.5274   23704636.6894   23704638.6404
     -2942.7614
 -12833513.21348  -9985956.46247  23236006.7004   23236006.6494   23236008.0064
      3336.3534
 -24426669.78049 -18815767.05648  20681226.8334   20681226.7354   20681229.4344
      1959.8744
 -13253097.20648 -10287265.82947  22881387.3404   22881386.9334   22881388.3934
       258.6604
  -3960789.29947  -3071505.87546  24546784.6764   24546783.7224   24546785.9654
      1896.7004
   -646914.30617                  24527517.483
      3785.983
 -20227599.52049 -15745289.97948  21260536.2694   21260535.8224   21260538.7944
       968.9774
 -14036774.87448 -10902793.56247  22464567.5004   22464567.9434   22464569.4004
      1136.5834
 -23569090.48949 -18356309.73048  20601360.2694   20601360.4894   20601362.3294
     -1223.1044
 10  1  4  0 46 30.0000000  0  9G28G12G09G18G22G26G27G17G15
  -9822735.80247  -7604191.94646  23721443.4264   23721443.3434   23721445.3944
     -2946.1104
 -12933506.64848 -10063873.41747  23216978.0994   23216978.9634   23216980.1264
      3329.2954
 -24485335.45749 -18861480.56848  20670063.1554   20670063.0794   20670065.6944
      1950.5814
 -13260602.69448 -10293114.27947  22879959.5654   22879958.6194   22879961.0954
       241.0644
  -4017489.75847  -3115688.03446  24535999.3054   24535999.1254   24535997.3684
      1882.8394
   -760476.904 7                  24505905.052
      3784.022
 -20256604.14849 -15767890.98848  21255016.8664   21255016.6574   21255019.1304
       964.1184
 -14070633.63648 -10929177.01747  22458124.4004   22458124.4534   22458126.6434
      1120.1624
 -23532170.99649 -18327541.29648  20608385.6744   20608386.0114   20608387.8784
     -1238.7744
 10  1  4  0 47  0.0000000  0  9G28G12G09G18G22G26G27G17G15
  -9734272.18247  -7535259.25746  23738277.7634   23738277.2174   23738278.8234
     -2950.9354
 -13033263.04148 -10141605.68147  23197995.2044   23197995.5514   23197997.2274
      3321.4654
 -24543692.65349 -18906953.70248  20658958.2914   20658958.1754   20658960.4264
      1940.2274
 -13267545.66848 -10298524.40647  22878638.1624   22878637.3344   22878639.0124
       222.3054
  -4073740.98747  -3159520.17546  24525292.9644   24525292.3154   24525294.3574
      1867.5484
   -873953.50146   -393651.29145  24484311.9104   24484310.8394   24484316.1434
      3781.1394
 -20285430.56549 -15790353.13348  21249531.2034   21249531.1864   21249533.9834
       958.0314
 -14103969.34648 -10955152.89147  22451780.8014   22451780.7774   22451782.7124
      1102.6364
 -23494749.80749 -18298381.93348  20615506.7374   20615507.0124   20615509.0004
     -1255.6164
 10  1  4  0 47 30.0000000  0  9G28G12G09G18G22G26G27G17G15
  -9645671.09347  -7466219.45446  23755137.7654   23755136.6744   23755138.7074
     -2955.3064
 -13132781.36348 -10219152.42047  23179057.5844   23179058.3004   23179060.3364
      3313.5824
 -24601741.10649 -18952186.25748  20647911.9404   20647911.7934   20647914.6934
      1930.2144
 -13273926.80648 -10303496.74247  22877424.2544   22877423.0754   22877425.0634
       203.8064
  -4129541.87947  -3203001.37346  24514674.3334   24514674.8514   24514674.1514
      1852.7104
   -987342.50746   -482006.33145  24462735.9064   24462735.4014   24462734.5864
      3778.8724
 -20314079.07749 -15812676.65248  21244079.6554   21244079.6324   21244082.3094
       952.4204
 -14136781.40448 -10980720.72447  22445536.8854   22445537.3354   22445539.1164
      1085.2564
 -23456828.08149 -18268832.53748  20622722.9764   20622723.3534   20622725.0384
     -1271.9814
 10  1  4  0 48  0.0000000  0  9G28G12G09G18G22G26G27G17G15
  -9556937.81047  -7397076.63346  23772023.5144   23772023.2104   23772025.8254
     -2960.9034
 -13232063.29048 -10296514.95147  23160164.9624   23160165.1294   23160167.1774
      3304.6084
 -24659483.39949 -18997180.23948  20636924.1524   20636923.9094   20636926.6324
      1918.6914
 -13279749.60148 -10308034.02147  22876315.8614   22876314.8384   22876317.6874
       183.9374
  -4184894.36847  -3246133.19346  24504142.1714   24504142.8254   24504140.8264
      1836.5384
  -1100645.29647   -570294.24046  24441174.7134   24441174.7204   24441175.2914
      3774.5274
 -20342553.08549 -15834864.19148  21238661.2644   21238661.1194   21238664.1394
       945.3574
 -14169071.58748 -11005881.89947  22439392.4994   22439392.6674   22439394.2224
      1066.7574
 -23418409.80649 -18238896.22248  20630033.7104   20630034.0014   20630035.8094
     -1289.8114
 10  1  4  0 48 30.0000000  0  9G28G12G09G18G22G26G27G17G15
  -9468070.68647  -7327829.52846  23788933.9884   23788933.3214   23788936.5274
     -2964.8374
 -13331104.03548 -10373689.56047  23141317.7174   23141318.0604   23141321.1024
      3296.6414
 -24716914.77249 -19041931.95248  20625994.9134   20625994.8944   20625997.5374
      1908.6174
 -13285010.93848 -10312133.77247  22875313.2444   22875314.9674   22875315.8754
       165.3404
  -4239792.89147  -3288911.27946  24493695.2134   24493694.6924   24493694.3354
      1821.8854
  -1213855.68047   -658510.23446  24419631.3864   24419632.1914   24419634.7804
      3771.4284
 -20370848.96749 -15856912.93448  21233276.7504   21233276.3854   21233279.3224
       939.6644
 -14200834.51248 -11030632.22047  22433347.9924   22433348.9814   22433350.4504
      1049.3754
 -23379491.77449 -18208570.48648  20637439.5674   20637440.0124   20637441.7444
     -1306.0804
 10  1  4  0 49  0.0000000  0  9G28G12G09G18G22G26G27G17G15
  -9379072.96347  -7258480.66146  23805869.7614   23805869.8184   23805870.4964
     -2969.1544
 -13429902.89448 -10450675.68147  23122516.8784   23122517.6154   23122518.5614
      3288.7324
 -24774035.37549 -19086441.51048  20615125.5454   20615125.5784   20615127.8704
      1898.2444
 -13289711.92148 -10315796.91047  22874419.8994   22874418.9164   22874422.8544
       146.7314
  -4294237.44547  -3331335.60246  24483334.6674   24483334.4294   24483335.2214
      1806.3824
  -1326972.70647   -746653.38046  24398106.3374   24398107.5584   24398107.3664
      3768.4804
 -20398967.45649 -15878823.44648  21227926.1454   21227925.8974   21227928.7784
       933.7144
 -14232070.00348 -11054971.55847  22427404.3694   22427404.7574   22427405.9524
      1031.7324
 -23340075.79449 -18177856.73448  20644940.3964   20644940.5634   20644942.2924
     -1322.7554
 10  1  4  0 49 30.0000000  0  9G28G12G09G18G22G26G27G17G15
  -9289946.54247  -7189031.50746  23822830.4534   23822830.7864   23822831.5344
     -2972.6104
 -13528458.44448 -10527472.20847  23103762.7994   23103763.0674   23103765.4704
      3281.3914
 -24830844.44849 -19130708.31848  20604315.0764   20604314.9584   20604317.3484
      1888.7524
 -13293852.87048 -10319023.65847  22873633.1014   22873632.1084   22873633.6864
       128.8834
  -4348226.32647  -3373404.88446  24473060.4894   24473060.4064   24473061.0214
      1792.2874
  -1439994.34847   -834722.22646  24376596.7094   24376595.2254   24376598.4364
      3766.1014
 -20426908.67649 -15900595.83048  21222608.8854   21222608.8874   21222611.5974
       928.7254
 -14262776.57148 -11078898.74347  22421560.7814   22421561.5474   22421562.5214
      1014.9834
 -23300162.63949 -18146755.57948  20652535.4474   20652535.7074   20652537.5624
     -1338.3504
 10  1  4  0 50  0.0000000  0  9G28G12G09G18G22G26G27G17G15
  -9200694.04847  -7119484.10646  23839814.5844   23839813.4224   23839815.1434
     -2977.1954
 -13626769.78848 -10604078.45047  23085054.9824   23085055.0474   23085057.3634
      3272.8854
 -24887341.54249 -19174732.01948  20593564.0354   20593563.9854   20593566.2154
      1878.0104
 -13297434.81048 -10321814.80447  22872949.4904   22872949.2334   22872952.5334
       110.1044
  -4401758.52347  -3415118.27846  24462873.4514   24462873.2444   24462872.7674
      1776.6264
  -1552918.71747   -922715.33646  24355107.0954   24355105.5024   24355111.3854
      3762.3154
 -20454672.84349 -15922230.24648  21217325.5464   21217325.3984   21217328.3644
       922.5184
 -14292953.73948 -11102413.41247  22415818.4024   22415818.1474   22415820.2394
       997.0334
 -23259753.45349 -18115267.90248  20660225.1674   20660225.3464   20660227.1554
     -1355.1994
 10  1  4  0 50 30.0000000  0  9G28G12G09G18G22G26G27G17G15
  -9111314.53547  -7049837.73546  23856822.8224   23856823.5654   23856823.4154
     -2981.2754
 -13724832.73548 -10680491.13347  23066394.2114   23066394.0604   23066396.5234
      3264.7724
 -24943522.91349 -19218509.70748  20582872.9464   20582872.8384   20582875.3004
      1867.7034
 -13300455.54948 -10324168.64747  22872376.4724   22872375.4144   22872377.3924
        91.7114
  -4454829.74747  -3456472.48046  24452774.2904   24452774.5304   24452772.1934
      1761.5534
  -1665740.69547  -1010628.60946  24333640.0564   24333641.3984   24333640.0794
      3759.2474
 -20482256.86949 -15943724.29548  21212076.5144   21212076.4594   21212079.3204
       916.6434
 -14322597.22748 -11125512.23147  22410177.3934   22410177.5894   22410179.1714
       979.3584
 -23218846.05849 -18083392.01348  20668009.4864   20668009.7154   20668011.7394
     -1371.6164
 10  1  4  0 51  0.0000000  0  9G28G12G09G18G22G26G27G17G15
  -9021813.20647  -6980096.45246  23873854.2644   23873854.0684   23873856.3374
     -2985.4104
 -13822649.05548 -10756711.63647  23047780.2224   23047780.7224   23047782.3644
      3256.1064
 -24999391.10149 -19262043.36748  20572241.6304   20572241.5784   20572244.2684
      1856.7214
 -13302918.45048 -10326087.83247  22871906.9574   22871906.0584   22871908.7234
        72.5444
  -4507441.94347  -3497469.04546  24442763.6694   24442763.1514   24442763.2164
      1745.9034
  -1778461.66047  -1098463.15346  24312190.2924   24312192.0064   24312190.2734
      3755.3894
 -20509664.21949 -15965080.67748  21206861.2814   21206860.9884   21206863.7124
       910.2764
 -14351708.81748 -11148196.58547  22404637.5984   22404638.0554   22404639.5364
       961.2364
 -23177444.29849 -18051130.90448  20675888.0514   20675888.3944   20675890.1964
     -1388.6274
 10  1  4  0 51 30.0000000  0  9G28G12G09G18G22G26G27G17G15
  -8932189.93047  -6910260.13046  23890909.3374   23890908.6294   23890908.8494
     -2989.3774
 -13920214.86748 -10832736.93247  23029214.3164   23029213.7654   23029217.6194
      3248.0934
 -25054942.95449 -19305330.52448  20561670.3604   20561670.5604   20561673.1054
      1846.4164
 -13304821.60948 -10327570.85047  22871545.9564   22871543.6264   22871546.6824
        54.3084
  -4559591.20047  -3538104.81446  24432838.1474   24432838.0194   24432837.7924
      1730.5964
  -1891076.88647  -1186215.34046  24290759.4734   24290759.0034   24290763.1374
      3752.2564
 -20536892.20949 -15986297.28948  21201679.8754   21201679.8614   21201682.8994
       904.7754
 -14380284.92348 -11170463.67547  22399200.0074   22399199.4144   22399201.9524
       943.6994
 -23135546.63049 -18018483.37148  20683860.8584   20683861.1174   20683862.9384
     -1404.7994
 10  1  4  0 52  0.0000000  0  9G28G12G09G18G22G26G27G17G15
  -8842446.74547  -6840330.38046  23907986.9454   23907986.8284   23907987.8064
     -2993.4854
 -14017529.16648 -10908566.25447  23010695.5494   23010695.8134   23010698.6424
      3239.7104
 -25110177.80249 -19348370.66448  20551159.7654   20551159.8294   20551162.1294
      1835.8734
 -13306165.71048 -10328618.22947  22871288.9724   22871288.0904   22871291.0084
        35.5894
  -4611276.47347  -3578379.08846  24423003.3094   24423003.2464   24423004.6074
      1715.1014
  -2003584.35746  -1273883.59246  24269349.7074   24269348.7694   24269351.5904
      3748.1524
 -20563941.04149 -16007374.29548  21196532.4914   21196532.4814   21196535.3704
       898.6164
 -14408324.57448 -11192312.74147  22393863.9684   22393863.4774   22393865.6804
       925.6784
 -23093154.13349 -17985450.25648  20691927.8804   20691928.0634   20691929.8604
     -1421.3884
 10  1  4  0 52 30.0000000  0  9G28G12G09G18G22G26G27G17G15
  -8752585.62347  -6770308.71546  23925086.7644   23925085.9434   23925087.0864
     -2997.5674
 -14114590.07848 -10984198.13347  22992225.6414   22992225.7734   22992227.7414
      3231.0764
 -25165094.41649 -19391162.83148  20540709.4624   20540709.0864   20540711.5644
      1825.0724
 -13306950.89848 -10329230.08847  22871140.4524   22871139.0894   22871139.7564
        16.6094
  -4662495.92347  -3618290.34846  24413256.4544   24413256.4234   24413258.0014
      1699.1004
  -2115981.50247  -1361465.81146  24247960.6194   24247963.4094   24247967.6134
      3744.5044
 -20590810.16049 -16028311.27048  21191419.4854   21191419.2504   21191422.2844
       892.4864
 -14435825.93148 -11213742.36647  22388630.7434   22388631.1074   22388633.0094
       907.4264
 -23050267.14849 -17952031.82848  20700089.0854   20700089.4394   20700091.1234
     -1437.9274
 10  1  4  0 53  0.0000000  0  9G28G12G09G18G22G26G27G17G15
  -8662607.88547  -6700196.20446  23942208.9164   23942207.8364   23942211.6134
     -3001.6694
 -14211396.03648 -11059631.34647  22973803.8124   22973804.4054   22973806.3174
      3222.2984
 -25219691.74849 -19433706.20848  20530319.9324   20530319.6424   20530322.2314
      1814.2454
 -13307177.42548 -10329406.62047  22871096.1194   22871096.5074   22871098.7594
        -2.0504
  -4713247.94347  -3657837.39546  24403598.3904   24403598.0514   24403599.0964
      1683.7474
  -2228265.60946  -1448959.91846  24226595.5214   24226594.9714   24226598.8694
      3740.5844
 -20617499.31349 -16049108.00748  21186340.6044   21186340.4904   21186343.5054
       886.2484
 -14462787.92648 -11234751.70147  22383499.9624   22383500.3154   22383502.0974
       889.5874
 -23006886.22449 -17918228.51548  20708344.1414   20708344.4414   20708346.0914
     -1454.6494
 10  1  4  0 53 30.0000000  0  9G28G12G09G18G22G26G27G17G15
  -8572517.15447  -6629995.64146  23959352.5914   23959351.2024   23959355.2174
     -3004.9354
 -14307947.15048 -11134865.97747  22955430.9034   22955431.3454   22955433.3114
      3213.9754
 -25273970.68849 -19476001.48148  20519990.8514   20519990.8944   20519993.1884
      1803.9504
 -13306847.48148 -10329149.54747  22871159.0694   22871158.8424   22871161.5554
       -20.4644
  -4763532.65847  -3697020.28246  24394032.8474   24394030.8044   24394031.8444
      1668.2534
  -2340436.22746  -1536365.60046  24205250.3054   24205250.7444   24205252.0894
      3736.5444
 -20644009.64749 -16069765.40748  21181296.0644   21181295.4444   21181298.7764
       880.6344
 -14489210.57248 -11255340.77147  22378472.0884   22378472.4224   22378473.8074
       871.7064
 -22963013.97249 -17884042.34848  20716692.6144   20716693.1014   20716694.9814
     -1470.6724
 10  1  4  0 54  0.0000000  0  9G28G12G09G18G22G26G27G17G15
  -8482311.99147  -6559705.91946  23976517.6754   23976517.2734   23976519.5814
     -3009.4914
 -14404238.16448 -11209897.92847  22937107.1544   22937107.0204   22937110.2774
      3204.5284
 -25327926.35749 -19518044.84948  20509723.4104   20509723.0584   20509725.5434
      1792.3244
 -13305958.16548 -10328456.59347  22871328.4664   22871328.4504   22871329.3754
       -39.5694
  -4813345.37547  -3735835.35546  24384551.0434   24384551.4114   24384551.2114
      1651.7704
  -2452487.47146  -1623678.26746  24183926.7244   24183927.5604   24183932.5584
      3732.4614
 -20670337.65949 -16090280.73948  21176286.1334   21176285.6594   21176288.6234
       873.8024
 -14515089.24148 -11275505.96747  22373547.2434   22373547.8624   22373549.8594
       852.8294
 -22918647.04449 -17849470.71848  20725135.5424   20725135.5684   20725137.6154
     -1487.8224
 10  1  4  0 54 30.0000000  0  9G28G12G09G18G22G26G27G17G15
  -8392001.93247  -6489334.45246  23993703.4694   23993702.3254   23993705.2874
     -3012.2594
 -14500275.42248 -11284732.15547  22918832.2344   22918831.9644   22918834.9134
      3196.9454
 -25381566.08349 -19559842.03148  20499516.2344   20499516.0894   20499518.6634
      1782.4814
 -13304517.62748 -10327334.11047  22871603.2794   22871602.5754   22871604.4944
       -57.1434
  -4862692.38247  -3774287.58146  24375160.2494   24375161.7954   24375161.7764
      1637.1414
  -2564424.47047  -1710901.89246  24162624.8754   24162628.2504   24162631.8624
      3729.3914
 -20696490.87549 -16110659.86248  21171309.2524   21171309.2974   21171312.2074
       868.6164
 -14540430.25048 -11295252.19747  22368725.0664   22368725.5474   22368727.4954
       835.6334
 -22873794.28849 -17814520.52048  20733670.6244   20733670.9404   20733672.7154
     -1503.3514
 10  1  4  0 55  0.0000000  0  9G28G12G09G18G22G26G27G17G15
  -8301576.93147  -6418873.41346  24010911.0094   24010910.4064   24010912.0604
     -3015.7874
 -14596045.68448 -11359358.33147  22900607.8864   22900607.7664   22900610.5484
      3188.2184
 -25434876.38449 -19601382.51848  20489371.4514   20489371.2694   20489373.9234
      1771.8734
 -13302514.38748 -10325773.17047  22871983.9274   22871983.3134   22871984.5234
       -75.5974
  -4911560.36847  -3812366.55246  24365860.4984   24365860.0024   24365862.6574
      1621.3084
  -2676233.16447  -1798025.50346  24141350.1304   24141352.4084   24141356.8874
      3725.1494
 -20722457.23649 -16130893.38948  21166367.9174   21166367.7284   21166370.5814
       862.9354
 -14565220.71348 -11314569.43547  22364007.8444   22364007.7714   22364009.8094
       817.6444
 -22828444.70149 -17779183.18548  20742300.3484   20742300.7294   20742302.5504
     -1519.4964
 10  1  4  0 55 30.0000000  0  9G28G12G09G18G22G26G27G17G15
  -8211048.38447  -6348331.70346  24028137.7654   24028137.4944   24028139.1524
     -3019.5704
 -14691556.93548 -11433782.68247  22882432.7854   22882433.0044   22882434.6494
      3179.2554
 -25487866.13749 -19642673.22748  20479287.9064   20479287.7194   20479290.7344
      1760.9694
 -13299958.37848 -10323781.49647  22872470.3424   22872469.3444   22872472.8424
       -94.4814
  -4959957.19847  -3850078.35246  24356652.8364   24356652.0154   24356651.8944
      1605.2774
  -2787920.68347  -1885054.70846  24120096.4604   24120095.8614   24120101.0384
      3720.4084
 -20748245.89349 -16150988.44048  21161460.5284   21161460.4954   21161463.3234
       856.4944
 -14589468.80548 -11333464.04847  22359393.4914   22359393.5824   22359395.0264
       799.0134
 -22782608.40949 -17743466.59848  20751022.8624   20751022.8734   20751024.9894
     -1536.1314
 10  1  4  0 56  0.0000000  0  9G28G12G09G18G22G26G27G17G15
  -8120413.40447  -6277707.04646  24045385.1174   24045384.8474   24045386.2934
     -3023.7334
 -14786803.04448 -11508000.42747  22864307.9134   22864308.0584   22864309.8694
      3169.8034
 -25540529.64649 -19683709.71848  20469266.3864   20469266.7154   20469268.6984
      1749.3134
 -13296845.65148 -10321356.02347  22873063.4104   22873062.8754   22873065.2914
      -113.8684
  -5007877.04747  -3887418.46846  24347533.8854   24347533.9174   24347535.4594
      1588.5294
  -2899479.85747  -1971983.91846  24098868.2294   24098868.2934   24098870.8634
      3715.7804
 -20773851.94649 -16170941.20448  21156587.7904   21156587.4284   21156590.6934
       849.7184
 -14613168.83048 -11351931.59347  22354883.5304   22354883.5754   22354885.5434
       780.1244
 -22736280.97149 -17707367.29948  20759838.5924   20759838.9494   20759840.8054
     -1553.2224
 10  1  4  0 56 30.0000000  0  9G28G12G09G18G22G26G27G17G15
  -8029675.32047  -6207002.05846  24062651.6704   24062651.2194   24062651.8864
     -3026.2744
 -14881783.95748 -11582011.52847  22846233.7504   22846233.7754   22846235.9814
      3161.5604
 -25592867.41749 -19724492.38748  20459306.9094   20459306.8304   20459309.5444
      1739.2394
 -13293178.24848 -10318498.32347  22873761.0634   22873758.9404   22873761.8994
      -131.0784
  -5055320.12447  -3924387.10846  24338503.6014   24338504.1514   24338505.3244
      1573.9034
  -3010909.85547  -2058812.49346  24077663.4994   24077664.7054   24077663.5844
      3712.3254
 -20799276.55549 -16190752.58548  21151749.6824   21151749.6124   21151752.3694
       844.4524
 -14636320.86848 -11369972.13347  22350477.7954   22350477.9534   22350479.9224
       762.7734
 -22689465.10549 -17670887.40848  20768747.4414   20768747.9694   20768749.4184
     -1568.5004
 10  1  4  0 57  0.0000000  0  9G28G12G09G18G22G26G27G17G15
  -7938834.40347  -6136216.93346  24079938.2964   24079937.2404   24079941.1004
     -3029.8484
 -14976496.88048 -11655813.80647  22828210.5824   22828209.9854   22828212.4974
      3152.3904
 -25644877.23549 -19765019.50948  20449409.7284   20449409.4634   20449412.1704
      1727.9214
 -13288955.16548 -10315207.63347  22874563.8754   22874563.8004   22874564.3374
      -150.4994
  -5102283.27647  -3960981.76646  24329568.5274   24329567.7174   24329570.1414
      1557.0624
  -3122206.80647  -2145537.38946  24056484.0804   24056483.5004   24056487.9794
      3707.5194
 -20824518.00149 -16210421.24248  21146946.4394   21146946.2984   21146949.0334
       838.0694
 -14658922.51148 -11387583.79947  22346176.6084   22346176.8684   22346179.1044
       744.0044
 -22642160.69549 -17634026.83248  20777749.1394   20777749.4874   20777751.2574
     -1585.2344
 10  1  4  0 57 30.0000000  0  9G28G12G09G18G22G26G27G17G15
  -7847895.43247  -6065355.40246  24097243.4984   24097244.0804   24097244.9814
     -3033.4294
 -15070943.18448 -11729408.32947  22810237.9494   22810237.1574   22810240.0154
      3143.2504
 -25696560.92549 -19805292.50748  20439574.5384   20439574.2254   20439577.0114
      1716.6994
 -13284179.87448 -10311486.64247  22875472.1154   22875473.0304   22875474.6264
      -168.7694
  -5148768.33147  -3997203.86946  24320721.9504   24320723.0994   24320723.5314
      1541.1244
  -3233370.93346  -2232158.76446  24035330.2944   24035328.7984   24035333.8704
      3702.1134
 -20849578.75249 -16229949.10048  21142177.5204   21142177.1934   21142180.0124
       831.8174
 -14680975.21248 -11404767.71147  22341980.1444   22341980.3234   22341982.3044
       725.5084
 -22594370.93349 -17596788.06048  20786843.0214   20786843.2764   20786845.4064
     -1601.6364
 10  1  4  0 58  0.0000000  0  9G28G12G09G18G22G26G27G17G15
  -7756855.37447  -5994415.10346  24114567.3094   24114567.1424   24114568.4154
     -3036.0454
 -15165116.48048 -11802790.10247  22792316.9474   22792316.0584   22792319.5104
      3134.6174
 -25747912.50849 -19845306.71948  20429802.5684   20429802.8594   20429805.1744
      1706.2444
 -13278848.34748 -10307332.22446  22876487.3964   22876488.2424   22876489.4084
      -186.7464
  -5194768.79347  -4033048.38146  24311969.6244   24311968.3534   24311967.8254
      1525.4884
  -3344394.89347  -2318670.91546  24014202.1804   24014203.1164   24014207.4544
      3698.3754
 -20874453.70949 -16249332.18748  21137444.0554   21137443.6924   21137447.0944
       826.1664
 -14702472.88648 -11421519.13847  22337889.5044   22337889.3254   22337891.4624
       707.4534
 -22546091.45649 -17559167.69548  20796030.6024   20796030.6404   20796032.6034
     -1617.3664
 10  1  4  0 58 30.0000000  0  9G28G12G09G18G22G26G27G17G15
  -7665721.88147  -5923401.98746  24131909.6634   24131910.0814   24131910.7654
     -3038.7654
 -15259021.29948 -11875962.68247  22774447.3794   22774447.6364   22774450.1574
      3126.1484
 -25798936.80949 -19885065.91148  20420093.2054   20420092.9684   20420095.7834
      1695.8684
 -13272967.05148 -10302749.41146  22877606.8424   22877605.7954   22877607.8304
      -204.6694
  -5240289.65147  -4068519.16746  24303307.4594   24303306.3454   24303306.2214
      1509.7354
  -3455282.41747  -2405076.74546  23993102.1824   23993102.6784   23993107.5624
      3694.2364
 -20899148.45449 -16268574.84748  21132744.7584   21132744.5704   21132747.4354
       820.4854
 -14723420.86448 -11437842.22747  22333903.2394   22333903.5334   22333905.0804
       689.3564
 -22497329.48849 -17521171.36448  20805309.6034   20805309.7304   20805311.4564
     -1633.0264
 10  1  4  0 59  0.0000000  0  9G28G12G09G18G22G26G27G17G15
  -7574493.17047  -5852314.69646  24149270.0884   24149269.4164   24149271.0414
     -3042.6264
 -15352652.64848 -11948922.16647  22756630.1014   22756630.4114   22756632.1774
      3116.4384
 -25849629.53349 -19924566.72448  20410446.6684   20410446.4284   20410449.0774
      1684.0604
 -13266533.22748 -10297736.05647  22878831.4904   22878830.5524   22878833.0964
      -223.6324
  -5285325.92947  -4103612.37246  24294736.9014   24294737.2674   24294737.3224
      1492.8294
  -3566027.22247  -2491371.37246  23972027.7974   23972028.4034   23972030.4884
      3689.2914
 -20923659.09449 -16287674.04648  21128080.6004   21128080.5774   21128083.1404
       813.9204
 -14743814.23548 -11453733.15647  22330022.4984   22330022.6554   22330024.6924
       670.5594
 -22448082.08449 -17482796.76648  20814680.8714   20814681.2064   20814683.2274
     -1649.6814
 10  1  4  0 59 30.0000000  0  9G28G12G09G18G22G26G27G17G15
  -7483170.99047  -5781154.56846  24166648.3034   24166646.7464   24166649.2754
     -3046.2954
 -15446008.81848 -12021667.23747  22738864.9384   22738865.2334   22738867.4954
      3106.6864
 -25899989.49149 -19963808.24348  20400863.4144   20400863.2114   20400866.0164
      1672.5504
 -13259547.28348 -10292292.47947  22880160.7964   22880159.3714   22880162.0804
      -242.6194
  -5329876.17747  -4138326.85646  24286260.3024   24286259.2114   24286258.6614
      1476.3394
  -3676626.93447  -2577552.94846  23950981.5574   23950980.1664   23950981.7654
      3683.6744
 -20947985.41249 -16306629.61848  21123451.3934   21123451.2164   21123454.3684
       807.1574
 -14763651.99348 -11469191.14047  22326247.3814   22326247.5454   22326249.3104
       651.3694
 -22398350.19249 -17444044.64548  20824144.5734   20824144.8344   20824146.9084
     -1666.4564
                            4  1
RINEX FILE SPLICE; other post-header comments skipped       COMMENT
 10  1  4  1  0  0.0000000  0  9G28G12G09G18G22G26G27G17G15
  -7391758.11247  -5709923.76746  24184042.8064   24184042.5884   24184045.3764
     -3048.0784
 -15539089.68448 -12094197.76947  22721152.2734   22721152.3934   22721155.0804
      3098.7354
 -25950016.75949 -20002790.52348  20391343.6424   20391343.2324   20391346.3754
      1662.5684
 -13252011.08848 -10286420.13047  22881595.9794   22881594.5094   22881597.0794
      -259.6324
  -5373940.05747  -4172662.34046  24277873.1374   24277873.2364   24277874.0304
      1461.0894
  -3787079.96247  -2663620.22846  23929963.0354   23929962.8024   23929965.1594
      3679.8644
 -20972128.22049 -16325442.19448  21118857.2114   21118857.0274   21118859.8254
       802.2304
 -14782933.96248 -11484216.04147  22322578.0874   22322578.6884   22322580.1904
       634.0174
 -22348135.77949 -17404916.53548  20833700.0964   20833700.4904   20833702.1434
     -1681.2834
 10  1  4  1  0 30.0000000  0  9G28G12G09G18G22G26G27G17G15
  -7300256.78847  -5638624.04146  24201455.1734   24201455.5414   24201455.8634
     -3051.3114
 -15631893.98348 -12166512.80947  22703492.1154   22703492.2494   22703494.3014
      3089.2414
 -25999710.70949 -20041513.07048  20381887.0204   20381886.8454   20381889.6184
      1651.1344
 -13243925.79748 -10280119.92047  22883133.4464   22883132.4994   22883133.2564
      -278.4414
  -5417516.62747  -4206618.08846  24269582.9104   24269581.9344   24269580.5574
      1444.9094
  -3897384.38947  -2749571.71246  23908972.9104   23908972.9914   23908975.1884
      3674.7104
 -20996087.38949 -16344111.67248  21114297.8874   21114297.9224   21114300.7394
       795.8544
 -14801659.67848 -11498807.50047  22319014.7804   22319015.1004   22319016.7394
       615.2494
 -22297440.11549 -17365413.42448  20843347.1664   20843347.2884   20843349.3984
     -1697.5354
 10  1  4  1  1  0.0000000  0  9G28G12G09G18G22G26G27G17G15
  -7208665.31047  -5567254.05746  24218884.6814   24218884.7054   24218886.0524
     -3054.4064
 -15724417.09748 -12238608.74747  22685886.1064   22685886.5664   22685887.3304
      3079.4724
 -26049067.15749 -20079972.63348  20372494.7724   20372494.5554   20372496.9594
      1639.6544
 -13235288.87948 -10273389.87047  22884776.7614   22884774.8434   22884778.9034
      -297.0064
  -5460601.31547  -4240190.57346  24261380.9574   24261381.3124   24261381.6074
      1428.0004
  -4007534.27047  -2835402.76946  23888012.3084   23888012.6444   23888015.0004
      3669.2754
 -21019859.32849 -16362635.25548  21109774.1664   21109774.1794   21109776.9314
       789.3514
 -14819824.71348 -11512962.06547  22315557.9904   22315558.2904   22315559.6914
       596.1354
 -22246260.60049 -17325533.28648  20853086.3144   20853086.5504   20853088.4914
     -1713.9564
 10  1  4  1  1 30.0000000  0  9G28G12G09G18G22G26G27G17G15
  -7116991.95247  -5495820.29046  24236329.3294   24236328.8094   24236331.7774
     -3057.3514
 -15816664.23848 -12310489.63447  22668331.7374   22668332.3504   22668333.5444
      3069.9084
 -26098091.63949 -20118173.52548  20363165.9774   20363165.7924   20363168.0824
      1628.2174
 -13226107.55248 -10266235.59847  22886524.2964   22886523.8994   22886526.5244
      -315.5514
  -5503200.10747  -4273384.41446  24253276.1744   24253277.1294   24253275.8604
      1411.5494
  -4117533.47847  -2921116.41446  23867079.0764   23867079.1844   23867082.1074
      3663.9644
 -21043450.19049 -16381017.74248  21105285.0324   21105284.9944   21105287.6964
       782.9064
 -14837434.87748 -11526684.26647  22312206.7284   22312207.1974   22312209.1744
       577.4584
 -22194605.21149 -17285282.33848  20862915.9254   20862916.2764   20862918.3074
     -1730.1864
 10  1  4  1  2  0.0000000  0  9G28G12G09G18G22G26G27G17G15
  -7025231.08847  -5424318.33046  24253791.1324   24253790.1404   24253792.4264
     -3060.1914
 -15908626.18748 -12382148.28447  22650831.9764   22650831.9674   22650834.5924
      3060.3704
 -26146775.49949 -20156108.99548  20353901.5914   20353901.4104   20353904.0274
      1616.8264
 -13216375.60848 -10258652.26547  22888376.1424   22888375.1494   22888377.8574
      -333.9824
  -5545303.82147  -4306192.51746  24245265.4454   24245263.0134   24245262.5954
      1394.7994
  -4227372.15047  -3006704.94846  23846178.1214   23846178.0344   23846182.3424
      3658.4964
 -21066852.05449 -16399252.96048  21100831.7224   21100831.8534   21100834.2794
       776.5894
 -14854481.34848 -11539967.22447  22308963.1324   22308963.2864   22308964.9854
       558.5674
 -22142466.86849 -17244655.05948  20872837.6454   20872837.8344   20872839.9034
     -1746.2794
 10  1  4  1  2 30.0000000  0  9G28G12G09G18G22G26G27G17G15
  -6933388.73547  -5352752.86846  24271268.3444   24271267.4894   24271269.2964
     -3062.8834
 -16000305.93048 -12453587.02747  22633385.7724   22633386.1304   22633388.3814
      3051.1544
 -26195122.06949 -20193781.64848  20344701.6554   20344701.4394   20344704.1384
      1605.8624
 -13206097.67548 -10250643.49647  22890331.1124   22890330.6254   22890333.7054
      -351.9824
  -5586915.62847  -4338617.27646  24237345.7194   24237345.9054   24237346.6004
      1378.7324
  -4337051.77647  -3092169.57746  23825306.8024   23825307.4544   23825310.3894
      3653.1224
 -21090068.98849 -16417344.07348  21096413.9374   21096413.5214   21096416.4484
       770.7244
 -14870967.63448 -11552813.66947  22305825.8994   22305826.8484   22305827.7684
       540.1874
 -22089851.05049 -17203655.72148  20882850.0184   20882850.3864   20882852.2014
     -1761.8464
 10  1  4  1  3  0.0000000  0  9G28G12G09G18G22G26G27G17G15
  -6841464.91047  -5281123.91446  24288760.0064   24288759.0894   24288762.0244
     -3065.7974
 -16091700.68348 -12524803.70247  22615993.9994   22615993.5414   22615996.7594
      3041.5854
 -26243129.17549 -20231189.78348  20335566.0334   20335565.6794   20335568.5994
      1594.4344
 -13195273.27748 -10242208.90047  22892391.0234   22892390.3614   22892393.9714
      -369.9914
  -5628032.80947  -4370656.64146  24229522.6404   24229521.2814   24229522.2104
      1362.2044
  -4446568.66847  -3177507.39146  23804466.0954   23804466.7664   23804469.5984
      3647.8544
 -21113099.11049 -16435289.61848  21092031.3244   21092031.1964   21092034.0144
       764.3854
 -14886891.49048 -11565221.86247  22302795.5794   22302796.1314   22302797.9014
       521.3134
 -22036757.46249 -17162284.09748  20892953.5244   20892953.9404   20892955.7224
     -1777.8344
 10  1  4  1  3 30.0000000  0  9G28G12G09G18G22G26G27G17G15
  -6749465.03747  -5209435.71146  24306267.7904   24306267.0654   24306269.8314
     -3068.5204
 -16182812.55548 -12595799.94547  22598655.5884   22598655.9874   22598657.7904
      3031.7014
 -26290798.76749 -20268334.92148  20326494.9794   20326494.6834   20326497.1484
      1582.6284
 -13183906.51248 -10233351.68247  22894554.2234   22894553.4554   22894555.9094
      -388.4654
  -5668657.61947  -4402312.32846  24221788.9894   24221790.0184   24221790.8534
      1345.3464
  -4555923.39347  -3262718.85146  23783656.4814   23783656.2764   23783660.3814
      3642.1314
 -21135945.51649 -16453092.00448  21087683.6804   21087683.6974   21087686.4744
       757.8094
 -14902255.21248 -11577193.58747  22299872.0594   22299872.1394   22299873.8984
       502.1424
 -21983190.07149 -17120543.27948  20903147.1944   20903147.3954   20903149.2344
     -1794.1984
 10  1  4  1  4  0.0000000  0  9G28G12G09G18G22G26G27G17G15
  -6657383.47447  -5137683.84246  24323789.9154   24323789.8134   24323791.5844
     -3070.4044
 -16273632.91948 -12666569.05547  22581373.4864   22581373.9544   22581375.9304
      3022.7764
 -26338123.00849 -20305210.95748  20317489.2604   20317489.1734   20317491.9484
      1571.9824
 -13171991.26048 -10224067.07147  22896822.2694   22896821.4624   22896823.5724
      -406.0404
  -5708782.02847  -4433578.08846  24214156.7594   24214155.0264   24214155.5974
      1329.4054
  -4665106.41247  -3347796.48346  23762879.1964   23762879.2384   23762881.7034
      3636.8764
 -21158600.85049 -16470745.51648  21083372.7774   21083372.4274   21083374.9754
       752.2254
 -14917051.00748 -11588722.77547  22297056.4804   22297056.7954   22297058.4384
       483.9184
 -21929143.03949 -17078428.71048  20913431.8474   20913432.2634   20913434.1804
     -1809.2414
 10  1  4  1  4 30.0000000  0  9G28G12G09G18G22G26G27G17G15
  -6565228.60247  -5065874.86646  24341327.2804   24341327.3244   24341328.4324
     -3072.9304
 -16364167.30848 -12737115.32147  22564145.2264   22564145.9454   22564147.4074
      3013.1094
 -26385107.65349 -20341822.36948  20308548.5384   20308548.4064   20308551.0134
      1560.4794
 -13159535.30348 -10214361.14346  22899192.4134   22899191.7224   22899193.9484
      -423.9324
  -5748411.46347  -4464458.18546  24206610.1044   24206613.5934   24206614.6934
      1312.7034
  -4774121.75747  -3432743.49146  23742135.8194   23742136.1224   23742139.3474
      3631.1154
 -21181071.33349 -16488254.98148  21079096.4964   21079096.3754   21079099.1884
       746.0494
 -14931284.73848 -11599813.98547  22294348.0074   22294348.2684   22294350.2584
       465.2114
 -21874624.09049 -17035946.41548  20923806.4444   20923806.8194   20923808.5734
     -1825.0454
 10  1  4  1  5  0.0000000  0  9G28G12G09G18G22G26G27G17G15
  -6472998.61747  -4994007.34246  24358877.7064   24358876.7594   24358877.9534
     -3075.5244
 -16454410.62748 -12807434.78947  22546972.5844   22546973.1314   22546974.7194
      3003.3214
 -26431747.95449 -20378165.45648  20299673.0514   20299672.9084   20299675.4394
      1548.9844
 -13146536.01248 -10204231.83447  22901665.7734   22901665.9524   22901667.6214
      -442.1474
  -5787541.34747  -4494948.97346  24199170.5114   24199168.2214   24199168.4124
      1295.9984
  -4882963.55847  -3517555.25646  23721422.2474   23721421.7524   23721423.8284
      3625.2004
 -21203353.09349 -16505617.38748  21074856.5314   21074856.2044   21074859.1284
       739.5924
 -14944951.95348 -11610463.76247  22291747.0614   22291747.3094   22291748.8244
       446.1944
 -21819630.79449 -16993094.49548  20934271.3344   20934271.4504   20934273.5684
     -1840.9804
 10  1  4  1  5 30.0000000  0  9G28G12G09G18G22G26G27G17G15
  -6380697.23947  -4922084.19646  24376442.1374   24376441.4854   24376443.4984
     -3078.1914
 -16544363.31348 -12877527.77347  22529855.0434   22529855.4854   22529857.0134
      2993.6604
 -26478044.85449 -20414240.96348  20290863.1074   20290862.9314   20290865.4854
      1537.5224
 -13132996.27248 -10193681.39746  22904242.5534   22904241.6674   22904244.0564
      -460.1584
  -5826172.36047  -4525051.08546  24191817.1454   24191816.3184   24191815.7994
      1279.3244
  -4991630.72047  -3602230.95246  23700744.3884   23700746.1604   23700747.6184
      3619.1604
 -21225447.42449 -16522833.74848  21070652.0724   21070651.7534   21070654.6334
       733.3454
 -14958053.96848 -11620673.11847  22289253.9554   22289254.2184   22289256.2234
       427.2804
 -21764166.16549 -16949875.30548  20944825.9364   20944826.1774   20944828.2344
     -1856.6654
 10  1  4  1  6  0.0000000  0  9G28G12G09G18G22G26G27G17G15
  -6288326.20247  -4850106.75646  24394020.3994   24394019.3724   24394020.0694
     -3080.1024
 -16634024.31648 -12947393.46747  22512792.5824   22512792.9904   22512795.6604
      2983.7174
 -26523997.53749 -20450048.24848  20282118.5974   20282118.2724   20282120.6784
      1525.9574
 -13118917.02748 -10182710.57847  22906921.7404   22906922.2504   22906922.6464
      -478.2424
  -5864303.59747  -4554763.75346  24184560.3954   24184559.2124   24184559.6384
      1262.6004
  -5100120.98447  -3686768.80646  23680098.4514   23680099.0934   23680101.8764
      3613.1884
 -21247353.95849 -16539903.76848  21066483.3864   21066483.2584   21066485.9004
       726.9654
 -14970590.01048 -11630441.45547  22286868.3474   22286868.3194   22286870.1114
       408.2854
 -21708230.98949 -16906289.45448  20955470.1044   20955470.3544   20955472.3134
     -1872.4394
 10  1  4  1  6 30.0000000  0  9G28G12G09G18G22G26G27G17G15
  -6195882.63447  -4778072.79946  24411611.0354   24411610.6484   24411612.2384
     -3082.7224
 -16723387.74248 -13017027.29547  22495787.6804   22495788.1974   22495789.3894
      2973.7324
 -26569600.68449 -20485583.17148  20273440.6554   20273440.5594   20273442.8134
      1514.1234
 -13104294.94448 -10171316.76047  22909704.2584   22909704.7234   22909706.6014
      -496.6444
  -5901929.61347  -4584082.70946  24177399.3104   24177400.5064   24177400.9244
      1245.7094
  -5208427.23747  -3771163.25946  23659489.1224   23659488.9584   23659493.6674
      3607.0364
 -21269068.08549 -16556823.86548  21062351.1664   21062351.1904   21062354.0334
       720.4644
 -14982554.71448 -11639764.59947  22284591.5044   22284591.6724   22284593.6204
       389.1564
 -21651822.25849 -16862334.60448  20966204.2784   20966204.4434   20966206.5214
     -1888.3164
 10  1  4  1  7  0.0000000  0  9G28G12G09G18G22G26G27G17G15
  -6103374.52247  -4705988.54046  24429215.2354   24429213.9684   24429215.7254
     -3084.5784
 -16812458.59248 -13086433.13847  22478838.4674   22478838.4254   22478840.4044
      2964.2174
 -26614859.35149 -20520849.66748  20264828.1594   20264827.9894   20264830.7184
      1503.0404
 -13089137.73348 -10159505.96947  22912589.0474   22912588.9024   22912590.9604
      -513.9874
  -5939056.00647  -4613012.39346  24170336.6014   24170335.3674   24170336.1874
      1229.2304
  -5316553.30747  -3855417.33046  23638913.2984   23638914.6504   23638916.7244
      3601.3874
 -21290595.89349 -16573598.78148  21058254.7394   21058254.2404   21058257.3074
       714.6874
 -14993953.75348 -11648646.95947  22282422.2514   22282422.3034   22282424.2114
       370.7064
 -21594947.49549 -16818016.60948  20977027.1254   20977027.6374   20977029.3974
     -1903.4794
 10  1  4  1  7 30.0000000  0  9G28G12G09G18G22G26G27G17G15
  -6010799.46547  -4633852.12046  24446831.3464   24446830.0684   24446832.1284
     -3086.5934
 -16901231.22548 -13155606.60247  22461945.0204   22461945.6104   22461947.1114
      2954.0594
 -26659768.14249 -20555843.53548  20256282.2834   20256282.3914   20256284.8474
      1491.1904
 -13073441.65448 -10147275.29747  22915575.5934   22915575.1124   22915576.8454
      -532.2174
  -5975677.46447  -4641548.59946  24163365.5044   24163365.6194   24163367.8434
      1212.4714
  -5424492.19547  -3939525.53946  23618373.7474   23618374.0524   23618377.3644
      3594.9044
 -21311932.41949 -16590224.64548  21054194.5044   21054194.3704   21054197.5134
       708.1214
 -15004782.30748 -11657084.79047  22280361.6924   22280361.7984   22280363.5934
       351.3914
 -21537603.48249 -16773332.96648  20987939.2234   20987939.4564   20987941.6844
     -1919.2064
 10  1  4  1  8  0.0000000  0  9G28G12G09G18G22G26G27G17G15
  -5918161.09247  -4561666.37746  24464459.7914   24464458.0604   24464463.0624
     -3088.4794
 -16989706.37848 -13224548.26747  22445109.3544   22445108.9704   22445111.1704
      2944.8484
 -26704328.48049 -20590565.87848  20247802.6904   20247802.5094   20247805.3014
      1480.1704
 -13057209.98448 -10134627.25147  22918663.9044   22918663.2584   22918665.2944
      -549.4364
  -6011794.72447  -4669691.92246  24156493.2384   24156494.2694   24156495.0994
      1196.0574
  -5532243.42247  -4023487.51746  23597868.5944   23597869.6494   23597872.1174
      3588.9644
 -21333079.44749 -16606702.84848  21050170.5804   21050170.4214   21050173.0184
       702.3904
 -15015041.83848 -11665079.23247  22278409.5474   22278409.1824   22278411.5294
       333.1344
 -21479793.08449 -16728285.90348  20998940.2724   20998940.6784   20998942.6634
     -1934.1594
 10  1  4  1  8 30.0000000  0  9G28G12G09G18G22G26G27G17G15
  -5825458.20947  -4489430.37146  24482100.1454   24482100.2204   24482102.6124
     -3091.1814
 -17077880.36248 -13293255.24647  22428329.3584   22428329.9584   22428331.9644
      2934.0544
 -26748536.85949 -20625013.96348  20239390.3134   20239390.1734   20239392.5634
      1467.7454
 -13040441.20648 -10121560.69247  22921856.4014   22921853.8884   22921856.9954
      -567.6684
  -6047404.17747  -4697439.56546  24149718.7104   24149716.7524   24149718.0644
      1178.6104
  -5639801.49347  -4107298.99446  23577401.6334   23577402.1354   23577404.7794
      3581.8334
 -21354034.13949 -16623031.17548  21046182.8384   21046182.6054   21046185.3334
       695.2784
 -15024728.88848 -11672627.57647  22276566.2614   22276566.8604   22276568.0784
       313.2794
 -21421515.09049 -16682874.47948  21010030.2254   21010030.5754   21010032.4434
     -1950.3874
 10  1  4  1  9  0.0000000  0  9G28G12G09G18G22G26G27G17G15
  -5732695.75247  -4417147.94146  24499752.5634   24499752.2444   24499753.1654
     -3093.3154
 -17165754.81248 -13361728.83747  22411607.9734   22411607.7124   22411610.3234
      2923.9844
 -26792395.28349 -20659189.36148  20231044.3024   20231044.0934   20231046.6744
      1455.7894
 -13023139.67148 -10108079.00047  22925147.4294   22925145.6154   22925148.9734
      -585.8494
  -6082508.39747  -4724793.49846  24143036.8524   24143037.5534   24143037.3444
      1161.5144
  -5747167.09247  -4190960.49246  23556970.8424   23556971.7954   23556973.8284
      3575.2084
 -21374799.19349 -16639211.73648  21042231.4954   21042231.1744   21042234.0224
       688.7284
 -15033846.10248 -11679731.89447  22274831.0604   22274831.4164   22274833.0524
       294.1354
 -21362773.89049 -16637102.11748  21021208.3044   21021208.4664   21021210.6424
     -1966.0414
 10  1  4  1  9 30.0000000  0 10G30G28G12G09G18G22G26G27G17G15
  -2333509.23846  -1797227.72945  25447530.0854   25447530.4484   25447533.1034
      3708.8854
  -5639874.60147  -4344819.77846  24517415.6884   24517416.0014   24517417.2114
     -3095.5224
 -17253327.94748 -13429967.63947  22394943.6744   22394943.5194   22394946.0244
      2913.6154
 -26835901.97349 -20693090.67748  20222765.1524   20222765.0044   20222767.6614
      1443.8414
 -13005306.02948 -10094182.67846  22928541.4014   22928540.8484   22928544.3064
      -603.8794
  -6117105.68847  -4751752.45746  24136453.4304   24136454.1014   24136454.6844
      1144.4234
  -5854336.94247  -4274469.42946  23536576.9844   23536577.4734   23536579.5484
      3568.4904
 -21395373.48049 -16655243.63848  21038316.2194   21038315.9554   21038318.5104
       682.1304
 -15042392.17148 -11686391.16147  22273204.8484   22273204.7584   22273207.2324
       274.7914
 -21303569.94749 -16590969.17548  21032474.4494   21032474.6294   21032476.7044
     -1981.7354
 10  1  4  1 10  0.0000000  0 10G30G28G12G09G18G22G26G27G17G15
  -2444751.27956  -1883909.77755  25426359.0184   25426364.2004   25426365.4964
      3706.4414
  -5546996.34547  -4272447.12446  24535089.9284   24535089.0304   24535091.2044
     -3096.7874
 -17340598.19748 -13497970.42847  22378336.3974   22378336.6544   22378339.1274
      2903.6574
 -26879056.15149 -20726717.30748  20214553.1854   20214552.8544   20214555.5044
      1432.2564
 -12986941.26848 -10079872.50346  22932036.2154   22932036.4294   22932037.7934
      -621.5614
  -6151195.01647  -4778315.56146  24129967.2004   24129966.9884   24129967.8314
      1127.4504
  -5961308.25747  -4357823.67846  23516219.7884   23516219.6984   23516222.9984
      3562.0404
 -21415756.57849 -16671126.57248  21034437.5354   21034437.4034   21034440.0054
       675.8524
 -15050366.31948 -11692604.77547  22271687.0144   22271687.4844   22271689.4384
       255.9594
 -21243904.54049 -16544476.65448  21043828.3554   21043828.9004   21043830.3424
     -1996.8674
 10  1  4  1 10 30.0000000  0 10G30G28G12G09G18G22G26G27G17G15
  -2555938.49746  -1970549.10045  25405203.3104   25405201.0594   25405205.4754
      3705.2114
  -5454060.55347  -4200029.64846  24552775.4724   24552774.4644   24552775.5574
     -3098.3504
 -17427562.38548 -13565734.72647  22361787.8074   22361787.4214   22361790.0904
      2893.3404
 -26921854.64849 -20760066.78048  20206408.8644   20206408.7854   20206411.2834
      1420.3474
 -12968044.22348 -10065147.55646  22935632.1824   22935631.4234   22935634.3724
      -639.0534
  -6184773.46947  -4804480.60646  24123578.5174   24123577.4444   24123577.6684
      1110.6214
  -6068076.33647  -4441019.57346  23495903.0464   23495902.6514   23495906.2904
      3555.1694
 -21435945.76549 -16686858.40448  21030595.5404   21030595.1584   21030598.4334
       669.3904
 -15057766.05648 -11698370.79847  22270278.9384   22270279.1864   22270281.3204
       236.7504
 -21183776.66949 -16497623.77148  21055270.2734   21055270.5714   21055272.4884
     -2012.2824
 10  1  4  1 11  0.0000000  0 10G30G28G12G09G18G22G26G27G17G15
  -2667070.03016  -2057145.13555  25384057.920                    25384055.0864
      3701.812
  -5361069.09847  -4127568.77946  24570471.3504   24570470.5314   24570473.3004
     -3100.8304
 -17514219.65848 -13633259.85847  22345296.9084   22345297.7244   22345299.6564
      2883.1994
 -26964296.83849 -20793138.61248  20198332.4534   20198332.2684   20198334.6184
      1408.4994
 -12948617.19248 -10050009.63246  22939329.0674   22939328.6284   22939330.6194
      -656.4064
  -6217840.43947  -4830247.08946  24117283.5724   24117283.7934   24117285.4924
      1093.5034
  -6174638.80047  -4524055.23146  23475625.6824   23475625.0424   23475627.2834
      3548.5234
 -21455941.11949 -16702439.20048  21026790.4874   21026790.4574   21026792.9294
       663.0354
 -15064591.33148 -11703689.19247  22268980.5024   22268980.4814   22268982.5754
       217.8804
 -21123188.27949 -16450412.04248  21066799.8194   21066800.1664   21066802.1644
     -2027.4594
 10  1  4  1 11 30.0000000  0 10G30G28G12G09G18G22G26G27G17G15
  -2778148.24156  -2143699.46355  25362916.0884   25362920.1764   25362922.8234
      3704.7794
  -5268027.31247  -4055068.70246  24588176.5624   24588175.8904   24588177.7364
     -3102.0014
 -17600571.86748 -13700547.28047  22328865.5304   22328865.5214   22328867.8994
      2873.4734
 -27006385.26549 -20825934.78548  20190323.2434   20190323.2944   20190325.8314
      1397.1894
 -12928664.32848 -10034461.96246  22943125.8244   22943124.6494   22943127.3084
      -673.7144
  -6250398.75847  -4855617.22146  24111088.0804   24111089.0154   24111088.9984
      1076.9094
  -6280996.68547  -4606931.46446  23455385.5684   23455386.3014   23455388.9364
      3541.9484
 -21475745.85849 -16717871.46148  21023021.7414   21023021.6134   21023024.3444
       657.0784
 -15070845.14648 -11708562.28747  22267790.5724   22267790.5944   22267792.3514
       199.0334
 -21062143.54949 -16402844.72048  21078416.3284   21078416.7094   21078418.6024
     -2042.3174
 10  1  4  1 12  0.0000000  0 10G30G28G12G09G18G22G26G27G17G15
  -2889168.23446  -2230208.52945  25341788.4074   25341788.7624   25341794.1364
      3698.9764
  -5174933.69747  -3982528.23946  24605891.4964   24605890.5684   24605891.2804
     -3104.8224
 -17686615.15048 -13767593.97547  22312491.7834   22312492.5384   22312493.5724
      2862.1944
 -27048115.65649 -20858451.96848  20182382.1524   20182381.7964   20182384.8074
      1384.3164
 -12908183.70548 -10018503.04446  22947023.2814   22947022.2054   22947023.6144
      -692.3344
  -6282444.69447  -4880588.05246  24104989.6124   24104990.9074   24104990.2114
      1058.7564
  -6387143.84047  -4689643.50246  23435186.8144   23435187.0014   23435189.4294
      3534.0684
 -21495356.10649 -16733152.17148  21019290.0394   21019289.8114   21019292.6244
       649.6974
 -15076524.18748 -11712987.50747  22266709.7684   22266709.9214   22266711.7254
       179.0024
 -21000640.96749 -16354920.63448  21090119.8154   21090120.1554   21090122.3844
     -2058.3904
 10  1  4  1 12 30.0000000  0 10G30G28G12G09G18G22G26G27G17G15
  -3000125.32946  -2316668.55345  25320677.6834   25320677.7744   25320684.2254
      3698.0874
  -5081786.05447  -3909945.67446  24623616.3354   24623614.9034   24623616.5864
     -3105.6164
 -17772344.32548 -13834395.90347  22296177.9694   22296178.0464   22296180.5254
      2852.4794
 -27089483.12249 -20890686.35748  20174510.3174   20174510.1074   20174512.6434
      1373.0434
 -12887173.20748 -10002131.25846  22951021.8994   22951020.1004   22951022.6604
      -709.1994
  -6313973.36147  -4905155.86846  24098990.4314   24098990.5314   24098990.9234
      1042.7554
  -6493074.16947  -4772186.59146  23415028.8634   23415028.7144   23415030.8024
      3527.6204
 -21514767.55149 -16748277.96748  21015596.2074   21015595.8724   21015598.9084
       643.8724
 -15081623.67848 -11716961.12747  22265739.1374   22265739.7724   22265741.0214
       160.5194
 -20938678.02349 -16306637.82748  21101911.1034   21101911.2354   21101913.2164
     -2072.9174
 10  1  4  1 13  0.0000000  0 10G30G28G12G09G18G22G26G27G17G15
  -3111027.23146  -2403085.56745  25299574.3874   25299573.5494   25299575.5474
      3694.7224
  -4988595.10747  -3837329.36646  24641349.6994   24641349.8604   24641352.1004
     -3107.6254
 -17857767.50748 -13900959.40447  22279922.5874   22279922.5594   22279924.8924
      2841.7274
 -27130496.28749 -20922644.66748  20166705.7414   20166705.6844   20166708.2504
      1360.5554
 -12865643.49547  -9985354.89846  22955117.9664   22955116.7604   22955120.1204
      -727.0734
  -6344993.42747  -4929327.35546  24093087.6084   24093088.0034   24093088.2724
      1024.8194
  -6598793.90447  -4854565.56746  23394911.0944   23394912.1634   23394914.1584
      3519.9124
 -21533989.42749 -16763256.05148  21011938.4174   21011938.2904   21011941.0654
       636.8714
 -15086152.79548 -11720490.30547  22264877.3404   22264877.1674   22264879.3744
       140.8454
 -20876265.45249 -16258004.65948  21113787.8144   21113788.0984   21113789.9634
     -2088.5634
 10  1  4  1 13 30.0000000  0 10G30G28G12G09G18G22G26G27G17G15
  -3221864.13546  -2489451.97145  25278480.7464   25278481.6954   25278485.9184
      3693.4874
  -4895353.92347  -3764673.92046  24659092.8314   24659092.1764   24659092.6074
     -3108.6724
 -17942875.11148 -13967276.99747  22263727.2294   22263727.1894   22263728.9774
      2831.6284
 -27171145.73049 -20954319.55148  20158970.4424   20158970.3684   20158972.7554
      1348.9364
 -12843587.31448  -9968168.29346  22959314.9194   22959314.0944   22959318.4194
      -744.0094
  -6375495.57147  -4953095.25846  24087282.4294   24087284.5124   24087283.5384
      1007.9844
  -6704292.33847  -4936772.09846  23374834.6944   23374834.9064   23374837.7004
      3512.6744
 -21553012.66949 -16778079.35548  21008318.4424   21008318.2334   21008320.9894
       630.7214
 -15090102.55848 -11723568.02847  22264125.6484   22264125.9034   22264127.5094
       121.9584
 -20813395.91249 -16209015.41148  21125751.2784   21125751.6844   21125753.5874
     -2103.3004
 10  1  4  1 14  0.0000000  0 10G30G28G12G09G18G22G26G27G17G15
  -3332640.59047  -2575771.26045  25257401.8124   25257400.6424   25257404.0044
      3690.9224
  -4802070.08847  -3691985.22346  24676844.8504   24676844.0114   24676845.7534
     -3110.5784
 -18027672.01348 -14033352.48647  22247590.5954   22247590.7624   22247592.7814
      2820.8494
 -27211436.40549 -20985714.88448  20151303.4134   20151303.2074   20151305.6764
      1336.4544
 -12821011.94848  -9950577.11746  22963611.2274   22963611.5904   22963612.7524
      -761.8514
  -6405484.95347  -4976463.62846  24081577.9194   24081576.6304   24081577.4864
       990.6034
  -6809572.25047  -5018808.36046  23354800.9474   23354801.6644   23354804.2434
      3505.0264
 -21571842.80149 -16792752.18248  21004734.9544   21004734.9074   21004737.6774
       623.8394
 -15093478.48048 -11726198.61247  22263483.2634   22263483.4364   22263484.9154
       102.3784
 -20750076.68949 -16159675.76148  21137800.6814   21137800.8864   21137802.8254
     -2118.7724
 10  1  4  1 14 30.0000000  0 10G30G28G12G09G18G22G26G27G17G15
  -3443351.30147  -2662039.34245  25236334.6414   25236336.0854   25236337.2914
      3689.4204
  -4708741.22647  -3619261.46846  24694604.0194   24694603.0374   24694604.4774
     -3111.3114
 -18112152.31948 -14099181.28247  22231514.7034   22231515.0364   22231516.6794
      2810.8244
 -27251363.24549 -21016826.69948  20143705.3934   20143705.3054   20143707.8084
      1324.8744
 -12797914.80748  -9932579.35546  22968007.1364   22968005.6814   22968007.6054
      -778.5194
  -6434956.74447  -4999428.65646  24075968.2544   24075967.5604   24075969.8404
       973.7984
  -6914627.16847  -5100669.31246  23334809.7074   23334810.1474   23334812.7154
      3498.1614
 -21590475.43349 -16807271.11248  21001189.2644   21001189.2244   21001192.2534
       617.8804
 -15096276.38248 -11728378.78447  22262950.9694   22262950.8314   22262953.0274
        83.6054
 -20686304.98049 -16109983.52148  21149936.1024   21149936.4014   21149938.6384
     -2133.2174
 10  1  4  1 15  0.0000000  0 10G30G28G12G09G18G22G26G27G17G15
  -3553996.60947  -2748256.51645  25215278.9324   25215278.8034   25215282.0934
      3686.7724
  -4615370.61347  -3546505.17446  24712372.5784   24712371.6164   24712372.6654
     -3113.3284
 -18196317.10248 -14164764.21247  22215498.4084   22215498.6644   22215500.3824
      2799.8224
 -27290927.10349 -21047655.68248  20136176.9194   20136176.7604   20136179.3044
      1312.3964
 -12774298.94847  -9914177.42846  22972500.3284   22972499.8974   22972503.3084
      -796.1644
  -6463912.27647  -5021991.40846  24070459.5174   24070459.3034   24070458.9844
       956.0864
  -7019456.20347  -5182354.24846  23314861.1854   23314861.3934   23314864.6244
      3490.1244
 -21608911.95349 -16821637.23448  20997680.9374   20997680.9774   20997683.7374
       610.9114
 -15098497.85048 -11730109.79247  22262528.2174   22262528.3234   22262530.0214
        64.0584
 -20622084.26849 -16059941.41348  21162156.9074   21162157.0234   21162159.1934
     -2148.5544
 10  1  4  1 15 30.0000000  0 10G30G28G12G09G18G22G26G27G17G15
  -3664574.62447  -2834421.19745  25194235.7574   25194236.0234   25194238.6124
      3684.6554
  -4521958.92847  -3473716.88146  24730148.5414   24730147.7684   24730148.0064
     -3114.7884
 -18280164.28348 -14230099.65847  22199542.7004   22199542.9294   22199544.8544
      2789.2514
 -27330126.47349 -21078200.65248  20128717.4604   20128717.2344   20128719.5644
      1300.2934
 -12750165.11948  -9895371.87446  22977093.6074   22977092.0164   22977094.7464
      -813.2704
  -6492350.49247  -5044151.05646  24065049.3444   24065047.6404   24065046.6504
       939.0554
  -7124055.74747  -5263860.35346  23294956.8054   23294957.3734   23294960.4054
      3482.5874
 -21627150.98549 -16835849.47048  20994210.3014   20994210.0324   20994212.9524
       604.3974
 -15100141.57348 -11731390.60847  22262215.4964   22262215.7194   22262217.1594
        44.8864
 -20557414.93649 -16009549.73248  21174463.1284   21174463.5654   21174465.5004
     -2163.3974
 10  1  4  1 16  0.0000000  0 10G30G28G12G09G18G22G26G27G17G15
  -3775085.41347  -2920533.59745  25173206.1044   25173207.0104   25173209.8344
      3682.0464
  -4428509.44047  -3400899.10146  24747931.0254   24747930.2934   24747932.7354
     -3116.2934
 -18363694.27948 -14295187.94147  22183647.6014   22183647.6034   22183649.5044
      2778.2534
 -27368961.43649 -21108461.66048  20121327.4224   20121327.2974   20121329.4704
      1287.6484
 -12725516.20648  -9876164.93646  22981783.3504   22981782.8684   22981785.0344
      -831.0214
  -6520271.77147  -5065907.88746  24059734.1784   24059733.3254   24059734.3564
       921.5614
  -7228424.67847  -5345186.75846  23275095.6894   23275096.6334   23275099.4774
      3474.1254
 -21645193.76549 -16849908.77448  20990776.7664   20990776.5604   20990779.5844
       597.3034
 -15101208.67048 -11732222.10047  22262012.5314   22262012.3384   22262014.7974
        25.1684
 -20492300.07949 -15958810.88248  21186853.9894   21186854.1314   21186856.2664
     -2178.6484
 10  1  4  1 16 30.0000000  0 10G30G28G12G09G18G22G26G27G17G15
  -3885523.97147  -3006589.57845  25152191.4414   25152191.2464   25152195.3564
      3680.0004
  -4335019.68247  -3328049.96646  24765721.8574   24765721.5024   24765722.6354
     -3117.0944
 -18446902.16048 -14360025.23147  22167813.9414   22167813.7934   22167815.3564
      2768.0544
 -27407427.27849 -21138435.04048  20114007.5924   20114007.4494   20114009.7254
      1275.8134
 -12700350.18447  -9856555.05546  22986572.0294   22986572.2024   22986574.4824
      -847.4894
  -6547671.50647  -5087258.29546  24054522.9434   24054519.4204   24054519.8844
       904.4854
  -7332556.42247  -5426328.34646  23255279.8804   23255279.2104   23255282.4794
      3466.7494
 -21663035.99849 -16863811.81448  20987381.6254   20987381.5624   20987384.4994
       591.2454
 -15101695.59548 -11732601.51547  22261919.6154   22261919.5324   22261921.8404
         6.4804
 -20426737.17149 -15907722.90848  21199329.9554   21199330.3544   21199332.4624
     -2192.9564
 10  1  4  1 17  0.0000000  0 10G30G28G12G09G18G22G26G27G17G15
  -3995893.50147  -3092591.84245  25131188.7244   25131188.8034   25131190.8044
      3678.1194
  -4241496.22047  -3255174.55246  24783518.8844   24783517.5924   24783520.6914
     -3118.0114
 -18529791.68248 -14424614.44847  22152040.1974   22152040.2204   22152042.2304
      2757.6454
 -27445528.21149 -21168124.08048  20106757.1784   20106757.2274   20106759.5754
      1264.0634
 -12674673.25048  -9836547.08446  22991459.6574   22991458.2044   22991460.8674
      -864.3174
  -6574554.58447  -5108206.17146  24049405.1574   24049403.9424   24049404.5454
       887.5264
  -7436453.15547  -5507286.79846  23235510.0194   23235509.6274   23235513.3954
      3459.4124
 -21680682.01049 -16877561.95348  20984023.7584   20984023.5804   20984026.3904
       585.0474
 -15101606.51748 -11732532.09447  22261936.4174   22261936.8464   22261939.3184
       -12.5454
 -20360732.70649 -15856290.86348  21211890.5824   21211890.6704   21211892.6504
     -2207.3064
 10  1  4  1 17 30.0000000  0 10G30G28G12G09G18G22G26G27G17G15
  -4106189.74247  -3178536.90146  25110200.5844   25110200.0184   25110204.0124
      3675.1314
  -4147937.56147  -3182271.71146  24801322.3974   24801321.7584   24801325.2314
     -3119.1424
 -18612358.38948 -14488952.12447  22136328.3054   22136328.6324   22136330.2704
      2746.5784
 -27483260.06749 -21197525.52448  20099577.0764   20099576.8494   20099579.4914
      1251.4084
 -12648483.79948  -9816139.74046  22996442.8224   22996441.8994   22996444.6684
      -881.7594
  -6600916.73147  -5128748.10646  24044387.7754   24044387.6584   24044388.8914
       869.8974
  -7540108.81047  -5588057.39046  23215784.6424   23215785.0834   23215787.5304
      3450.8474
 -21698128.15349 -16891156.34848  20980703.9354   20980703.5954   20980706.5794
       578.0644
 -15100938.28348 -11732011.38747  22262063.6974   22262063.8394   22262065.5934
       -32.0514
 -20294284.76849 -15804513.25048  21224535.3164   21224535.1664   21224537.1264
     -2222.4594
 10  1  4  1 18  0.0000000  0 10G30G28G12G09G18G22G26G27G17G15
  -4216412.86847  -3264425.06346  25089224.1644   25089225.3144   25089226.5374
      3672.8724
  -4054346.07747  -3109343.29446  24819132.0524   24819131.5184   24819134.9714
     -3119.8304
 -18694602.73348 -14553038.61147  22120677.7054   22120677.4444   22120680.0754
      2736.1214
 -27520622.92649 -21226639.43648  20092467.3064   20092467.1984   20092469.5034
      1239.2824
 -12621784.47748  -9795335.07746  23001522.8994   23001522.4634   23001525.1764
      -898.4634
  -6626759.01347  -5148884.95946  24039467.9204   24039470.7944   24039471.0554
       852.9544
  -7643522.22747  -5668639.23046  23196106.1954   23196105.3554   23196107.1534
      3443.3114
 -21715375.28249 -16904595.66848  20977421.8644   20977421.6594   20977424.1374
       571.6134
 -15099691.98048 -11731040.23647  22262300.8344   22262301.0904   22262302.6604
       -50.9744
 -20227396.30849 -15752392.37548  21237263.4174   21237263.9294   21237265.7644
     -2236.8624
 10  1  4  1 18 30.0000000  0 10G30G28G12G09G18G22G26G27G17G15
  -4326561.84447  -3350255.39446  25068264.4454   25068264.3804   25068268.0054
      3670.0024
  -3960724.12747  -3036391.14946  24836947.6284   24836947.5344   24836947.9034
     -3121.4664
 -18776524.00548 -14616873.35047  22105088.7794   22105088.8024   22105091.3954
      2724.8854
 -27557616.89349 -21255465.89948  20085427.3974   20085427.4224   20085429.9934
      1226.6914
 -12594577.63048  -9774134.96046  23006700.6824   23006700.2034   23006701.9714
      -915.6134
  -6652080.50247  -5168615.98646  24034651.7914   24034651.2674   24034651.2394
       834.9824
  -7746691.29947  -5749030.68346  23176473.0474   23176474.4644   23176476.6064
      3434.4164
 -21732423.70449 -16917880.15248  20974177.6274   20974177.3374   20974179.9544
       564.7344
 -15097868.49448 -11729619.33047  22262648.0644   22262648.8554   22262649.7714
       -70.6184
 -20160069.07949 -15699929.60348  21250075.4094   21250075.6304   21250077.7664
     -2251.7024
 10  1  4  1 19  0.0000000  0 10G30G28G12G09G18G22G26G27G17G15
  -4436630.66347  -3436023.30546  25047319.1454   25047320.2324   25047322.4964
      3667.5724
  -3867068.19646  -2963412.52646  24854769.8564   24854770.0594   24854773.1554
     -3122.1764
 -18858116.40448 -14680451.83547  22089562.0984   22089562.4764   22089563.8314
      2714.3194
 -27594235.82949 -21284000.13248  20078459.0614   20078459.0214   20078461.4414
      1214.3724
 -12566860.09448  -9752536.91846  23011975.3234   23011974.9474   23011976.5184
      -932.1784
  -6676877.04847  -5187937.98746  24029934.3504   24029932.7854   24029933.6754
       817.9614
  -7849608.05647  -5829225.55346  23156889.1264   23156889.0284   23156891.4014
      3426.2914
 -21749267.77949 -16931005.40748  20970972.4584   20970972.3954   20970974.8754
       558.0304
 -15095462.14248 -11727744.24047  22263105.7624   22263106.1134   22263107.4954
       -89.8284
 -20092300.22049 -15647122.70348  21262971.4864   21262971.6654   21262973.5484
     -2266.3034
 10  1  4  1 19 30.0000000  0 10G30G28G12G09G18G22G26G27G17G15
  -4546623.66847  -3521732.14046  25026387.6434   25026388.8464   25026391.2284
      3664.6474
  -3773385.90046  -2890413.36546  24872596.5334   24872595.5634   24872598.7704
     -3122.8554
 -18939384.58548 -14743777.68347  22074097.2644   22074097.9464   22074099.3964
      2703.2074
 -27630484.59549 -21312245.91648  20071561.1074   20071560.9204   20071563.4474
      1201.8384
 -12538638.93948  -9730546.42246  23017346.1024   23017344.5084   23017347.3504
      -949.2364
  -6701153.91247  -5206855.02946  24025312.9894   24025312.5984   24025313.2594
       800.1634
  -7952275.93947  -5909226.46346  23137351.2354   23137351.6014   23137354.5994
      3417.8124
 -21765912.80249 -16943975.55248  20967804.7594   20967804.6174   20967807.6694
       551.2444
 -15092478.93748 -11725419.65747  22263673.4284   22263673.3144   22263675.2794
      -109.3154
 -20024096.52749 -15593976.97448  21275950.1744   21275950.2844   21275952.5064
     -2280.9044
 10  1  4  1 20  0.0000000  0 10G30G28G12G09G18G22G26G27G17G15
  -4656537.51747  -3607379.30246  25005472.4704   25005472.2414   25005474.6224
      3662.1994
  -3679676.56946  -2817393.12846  24890429.0184   24890429.0934   24890432.9184
     -3124.6464
 -19020325.50548 -14806848.53247  22058694.8464   22058694.9344   22058696.8814
      2692.5634
 -27666360.25349 -21340200.97248  20064734.1444   20064733.9914   20064736.6374
      1189.5684
 -12509913.99147  -9708163.35646  23022811.9014   23022812.1004   23022814.1954
      -966.0874
  -6724908.74147  -5225365.29546  24020792.3824   24020792.4624   24020793.6004
       783.1114
  -8054689.91747  -5989029.53546  23117862.8944   23117863.4484   23117866.4034
      3409.3644
 -21782356.44949 -16956788.78448  20964675.7724   20964675.4444   20964678.5344
       544.6754
 -15088916.87148 -11722644.01347  22264351.3724   22264351.2334   22264353.2914
      -128.3054
 -19955457.80849 -15540492.26248  21289011.6704   21289012.0864   21289014.1054
     -2295.1584
 10  1  4  1 20 30.0000000  0 10G30G28G12G09G18G22G26G27G17G15
  -4766368.53847  -3692961.86046  24984571.4114   24984571.9484   24984576.3774
      3659.9844
  -3585939.32846  -2744351.14746  24908267.5754   24908266.5404   24908269.2684
     -3124.6964
 -19100935.54248 -14869661.54147  22043355.3204   22043355.5384   22043357.3044
      2681.5294
 -27701859.45749 -21367862.68248  20057978.8974   20057978.7844   20057981.4594
      1177.0154
 -12480684.46447  -9685387.13546  23028373.2674   23028373.5364   23028376.1624
      -982.5604
  -6748137.70347  -5243465.78246  24016371.1494   24016373.8754   24016374.2854
       765.4904
  -8156845.00947  -6068630.89546  23098423.5674   23098424.7574   23098426.2204
      3400.9754
 -21798595.75749 -16969442.79048  20961585.4224   20961585.5874   20961588.2204
       538.0434
 -15084773.62448 -11719415.50247  22265139.9564   22265140.6744   22265141.9794
      -147.8724
 -19886382.88849 -15486667.65548  21302156.2184   21302156.6384   21302158.7774
     -2309.6784
 10  1  4  1 21  0.0000000  0 10G30G28G12G09G18G22G26G27G17G15
  -4876120.24947  -3778482.66946  24963686.7814   24963686.6494   24963690.7364
      3656.8464
  -3492180.56246  -2671292.38445  24926108.2704   24926108.1884   24926108.8174
     -3126.1724
 -19181218.54648 -14932219.72947  22028078.0014   22028078.1164   22028079.8474
      2670.2284
 -27736986.31649 -21395234.25248  20051294.6184   20051294.3904   20051296.9484
      1164.2954
 -12450957.03447  -9662222.92346  23034030.5134   23034028.6534   23034032.7834
      -999.5304
  -6770845.92747  -5261160.50846  24012052.1024   24012052.0204   24012052.7934
       747.8794
  -8258743.24747  -6148032.10146  23079032.2414   23079032.3844   23079035.3924
      3391.7774
 -21814635.25049 -16981941.09148  20958533.2924   20958533.1424   20958536.0684
       530.9694
 -15080054.07048 -11715737.91147  22266037.8444   22266038.0064   22266040.1304
      -167.2584
 -19816878.72749 -15432508.57448  21315382.3264   21315382.7454   21315384.7054
     -2324.2334
 10  1  4  1 21 30.0000000  0 10G30G28G12G09G18G22G26G27G17G15
  -4985776.95847  -3863929.43246  24942820.0054   24942820.2114   24942822.8624
      3652.6924
  -3398387.15147  -2598206.61645  24943956.7544   24943956.5744   24943957.2594
     -3127.7554
 -19261159.08248 -14994511.05147  22012865.7624   22012866.1414   22012867.8244
      2658.0654
 -27771725.35749 -21422303.63048  20044683.8444   20044683.8184   20044686.4444
      1150.6064
 -12420718.84147  -9638660.71546  23039785.0004   23039783.8674   23039786.5064
     -1017.3864
  -6793018.74447  -5278438.02646  24007833.1564   24007831.9414   24007832.8374
       729.1344
  -8360367.46147  -6227219.77046  23059694.3464   23059693.9564   23059697.7864
      3381.9034
 -21830459.82149 -16994271.92248  20955522.0754   20955521.9774   20955524.6824
       522.9114
 -15074743.52148 -11711599.81747  22267048.4084   22267048.8684   22267050.1124
      -187.8964
 -19746932.17349 -15378004.77348  21328692.7984   21328693.0414   21328694.9794
     -2339.8664
 10  1  4  1 22  0.0000000  0 10G30G28G12G09G18G22G26G27G17G15
  -5095359.05247  -3949318.07846  24921967.2954   24921967.8644   24921970.2224
      3651.2674
  -3304582.43047  -2525112.03046  24961808.0244   24961809.0754   24961809.2184
     -3127.2104
 -19340777.77248 -15056551.58147  21997714.5694   21997715.0814   21997716.7924
      2648.7074
 -27806097.56049 -21449087.15748  20038143.0924   20038142.9074   20038145.3014
      1139.6464
 -12389993.36047  -9614718.80146  23045631.5814   23045630.3854   23045633.6384
     -1032.3984
  -6814677.25847  -5295314.78446  24003709.7254   24003711.1714   24003710.8874
       713.4604
  -8461736.66547  -6306208.74346  23040404.3394   23040404.6744   23040407.5994
      3374.6634
 -21846090.89449 -17006451.97948  20952547.5484   20952547.3554   20952549.7154
       517.7964
 -15068863.77148 -11707018.18047  22268167.2494   22268167.2744   22268169.2594
      -205.4924
 -19676567.22149 -15323174.94448  21342082.6694   21342082.9684   21342085.3174
     -2352.5904
 10  1  4  1 22 30.0000000  0 10G30G28G12G09G18G22G26G27G17G15
  -5204853.64646  -4034638.51946  24901130.1754   24901132.7404   24901134.4454
      3648.1074
  -3210756.18447  -2452000.63346  24979662.1334   24979662.4974   24979664.7034
     -3127.4874
 -19420062.11748 -15118331.57347  21982627.3734   21982627.8954   21982629.3014
      2637.4244
 -27840090.36749 -21475575.05048  20031674.5284   20031674.2544   20031676.6384
      1126.8704
 -12358770.87147  -9590389.61746  23051572.5304   23051572.2484   23051575.8084
     -1048.7364
  -6835809.59347  -5311781.53246  23999689.0314   23999689.4464   23999690.6624
       695.6054
  -8562836.59347  -6384987.91646  23021165.5074   23021166.5744   23021167.0214
      3365.6584
 -21861516.27349 -17018471.75848  20949612.2994   20949612.0994   20949614.8924
       510.9064
 -15062403.58748 -11701984.26247  22269396.7914   22269397.0084   22269398.5254
      -224.8534
 -19605772.58649 -15268010.29848  21355554.4724   21355555.0024   21355556.5994
     -2366.7204
 10  1  4  1 23  0.0000000  0 10G30G28G12G09G18G22G26G27G17G15
  -5314260.96346  -4119890.93846  24880311.6014   24880310.7404   24880313.8694
      3645.3614
  -3116911.40247  -2378874.82245  24997520.3504   24997519.2364   24997520.2844
     -3128.3844
 -19499012.71248 -15179851.50647  21967603.6444   21967604.0084   21967605.9554
      2626.1964
 -27873704.24349 -21501767.68348  20025277.8804   20025277.6264   20025280.2674
      1114.1714
 -12327054.48948  -9565675.58446  23057608.9544   23057607.8764   23057609.1804
     -1065.3154
  -6856416.73647  -5327839.05446  23995770.1974   23995767.8284   23995768.4094
       678.1984
  -8663665.64647  -6463555.99046  23001977.9554   23001978.9264   23001981.4114
      3356.5174
 -21876736.97649 -17030332.04348  20946715.5864   20946715.2954   20946718.5514
       503.9664
 -15055364.24448 -11696499.05147  22270736.1494   22270736.0064   22270738.1674
      -244.2724
 -19534551.87949 -15212513.64748  21369107.3474   21369107.5354   21369109.6584
     -2381.0224
 10  1  4  1 23 30.0000000  0 10G30G28G12G09G18G22G26G27G17G15
  -5423580.04247  -4205074.62646  24859509.0894   24859508.2064   24859511.7824
      3643.1634
  -3023049.74747  -2305735.83845  25015381.3024   25015380.0134   25015380.5224
     -3128.8054
 -19577628.47248 -15241110.53447  21952643.4604   21952643.6254   21952645.8734
      2615.2344
 -27906938.22249 -21527664.28548  20018953.8084   20018953.6964   20018956.1174
      1101.7864
 -12294845.94548  -9540578.04246  23063737.5484   23063735.9484   23063739.1014
     -1081.3874
  -6876498.54747  -5343487.23146  23991947.3844   23991946.2784   23991946.1464
       661.0144
  -8764221.24147  -6541910.97346  22982843.0314   22982843.7184   22982846.3454
      3347.5814
 -21891752.64849 -17042032.56548  20943858.3804   20943858.1154   20943860.7174
       497.4544
 -15047745.98448 -11690562.73847  22272185.9864   22272186.0394   22272187.9264
      -263.3814
 -19462906.87949 -15156686.37848  21382741.0224   21382741.2074   21382743.1854
     -2394.8714
 10  1  4  1 24  0.0000000  0 10G30G28G12G09G18G22G26G27G17G15
  -5532809.59946  -4290188.57246  24838722.4044   24838722.0054   24838725.5824
      3639.2444
  -2929172.85747  -2232585.01145  25033245.5554   25033246.0544   25033246.5324
     -3129.5374
 -19655908.57848 -15302108.02047  21937747.4004   21937747.6424   21937749.3644
      2603.6064
 -27939791.67149 -21553264.36848  20012701.9704   20012701.9554   20012704.1824
      1088.4444
 -12262147.49447  -9515098.74646  23069959.8594   23069958.7814   23069962.3204
     -1098.2714
  -6896055.47247  -5358726.37446  23988225.4194   23988224.2954   23988226.1394
       642.7634
  -8864501.05047  -6620051.06146  22963760.5334   22963760.3834   22963763.7114
      3337.7444
 -21906563.07049 -17053573.15148  20941039.9504   20941039.6974   20941042.6014
       489.9714
 -15039549.26448 -11684175.66647  22273745.7244   22273745.8104   22273747.3264
      -283.0764
 -19390839.64949 -15100530.09748  21396455.0754   21396455.3294   21396457.1844
     -2409.5754
 10  1  4  1 24 30.0000000  0 10G30G28G12G09G18G22G26G27G17G15
  -5641947.41946  -4375231.01146  24817955.0774   24817955.9314   24817958.4934
      3635.5474
  -2835281.25547  -2159422.68245  25051112.9064   25051114.6734   25051114.7944
     -3130.2264
 -19733851.28648 -15362842.59847  21922915.3814   21922915.3624   21922917.3504
      2591.9504
 -27972262.66349 -21578566.44048  20006522.8284   20006522.8034   20006525.3014
      1075.6024
 -12228960.00247  -9489238.38146  23076275.1274   23076274.6154   23076277.7054
     -1114.8354
  -6915085.87447  -5373555.26546  23984601.2574   23984603.6854   23984604.5384
       625.0014
  -8964501.34247  -6697973.36146  22944731.6594   22944731.0154   22944733.5744
      3328.3364
 -21921166.76649 -17064952.65348  20938260.9114   20938260.5944   20938263.7034
       482.9324
 -15030773.61648 -11677337.49047  22275415.4224   22275415.5144   22275417.1034
      -302.5814
 -19318350.89749 -15044045.36148  21410249.1384   21410249.4924   21410251.6564
     -2423.6414
 10  1  4  1 25  0.0000000  0 10G30G28G12G09G18G22G26G27G17G15
  -5750987.59346  -4460197.34746  24797203.9364   24797205.1274   24797208.7824
      3632.2954
  -2741371.58047  -2086246.27945  25068982.9484   25068983.4304   25068984.5964
     -3130.9354
 -19811450.73448 -15423309.68847  21908148.5934   21908148.4754   21908150.9804
      2580.5994
 -28004346.01349 -21603566.45048  20000417.5684   20000417.5054   20000420.1284
      1062.6114
 -12195280.61948  -9462994.71546  23082684.8164   23082684.9244   23082686.4104
     -1131.2544
  -6933584.86247  -5387970.06446  23981082.7884   23981081.8074   23981082.3474
       607.0534
  -9064214.54747  -6775671.94946  22925756.6324   22925756.3304   22925760.5124
      3318.7674
 -21935558.55849 -17076167.03848  20935522.5154   20935522.1524   20935525.1604
       475.8574
 -15021414.42548 -11670044.60147  22277196.4094   22277196.6434   22277198.2544
      -322.0014
 -19245438.04149 -14987230.15148  21424124.0694   21424124.3154   21424126.3194
     -2437.8484
 10  1  4  1 25 30.0000000  0 10G30G28G12G09G18G22G26G27G17G15
  -5859940.55047  -4545095.74646  24776471.8034   24776471.8034   24776476.7644
      3629.5314
  -2647456.77047  -2013065.93045  25086854.8804   25086854.7854   25086855.3154
     -3131.0164
 -19888717.71548 -15483517.71947  21893445.0994   21893445.3054   21893447.0594
      2569.6764
 -28036052.13549 -21628272.51548  19994383.9214   19994384.0304   19994386.4644
      1050.1544
 -12161122.89047  -9436378.33346  23089184.1914   23089183.8344   23089187.2044
     -1147.0234
  -6951563.76147  -5401979.61646  23977661.1814   23977661.2864   23977661.7624
       590.2524
  -9163649.57047  -6853153.75746  22906834.7004   22906834.1794   22906837.7054
      3309.4434
 -21949749.47849 -17087224.89448  20932821.7664   20932821.7204   20932824.5234
       469.2084
 -15011483.24448 -11662306.00647  22279086.5664   22279086.5764   22279088.5704
      -341.0354
 -19172113.74349 -14930094.33948  21438076.9784   21438077.2704   21438079.4084
     -2451.4564
 10  1  4  1 26  0.0000000  0 10G30G28G12G09G18G22G26G27G17G15
  -5968794.46647  -4629916.98146  24755758.1024   24755757.1954   24755760.8634
      3627.0424
  -2553528.22147  -1939874.85746  25104728.4714   25104729.0654   25104731.2454
     -3130.6184
 -19965641.14548 -15543458.05447  21878807.1364   21878807.1444   21878809.0704
      2558.7684
 -28067369.98549 -21652676.03348  19988424.4414   19988424.4784   19988426.9244
      1037.8284
 -12126478.26747  -9409382.55546  23095777.0814   23095776.4874   23095779.0174
     -1162.4214
  -6969012.09047  -5415575.70946  23974342.3024   23974341.1464   23974341.6154
       573.4564
  -9262793.22247  -6930408.54546  22887967.9714   22887967.1484   22887971.1774
      3300.1254
 -21963728.77449 -17098117.84848  20930161.6244   20930161.2104   20930164.3484
       462.8094
 -15000970.17948 -11654113.99947  22281086.8584   22281087.5634   22281088.6794
      -359.8164
 -19098369.27749 -14872631.12448  21452110.3874   21452110.5424   21452112.6194
     -2464.8784
 10  1  4  1 26 30.0000000  0 10G30G28G12G09G18G22G26G27G17G15
  -6077553.67147  -4714664.41646  24735062.1934   24735062.7864   24735066.1604
      3624.3994
  -2459592.72747  -1866678.40646  25122603.4784   25122601.7984   25122606.2714
     -3131.4014
 -20042225.40548 -15603134.10047  21864233.7454   21864233.7794   21864235.7604
      2547.3094
 -28098304.34349 -21676780.72148  19982537.8284   19982537.7174   19982540.2614
      1024.9394
 -12091354.29647  -9382013.23446  23102460.3234   23102460.4534   23102463.3594
     -1178.5364
  -6985935.53347  -5428762.77846  23971121.0014   23971121.9274   23971121.3934
       555.6734
  -9361648.35847  -7007438.51746  22869156.8924   22869157.1814   22869158.2334
      3290.4164
 -21977501.37549 -17108849.74848  20927540.7474   20927540.5834   20927543.4454
       455.6774
 -14989881.03048 -11645473.09047  22283197.2914   22283197.8564   22283199.0374
      -379.0124
 -19024212.00549 -14814846.23748  21466221.7404   21466222.3974   21466224.2074
     -2478.7164
 10  1  4  1 27  0.0000000  0 10G30G28G12G09G18G22G26G27G17G15
  -6186213.03947  -4799334.06146  24714383.8684   24714385.4784   24714387.0454
      3621.0594
  -2365648.21347  -1793474.94446  25140481.2694   25140480.6244   25140480.2514
     -3131.3244
 -20118466.03648 -15662542.38247  21849725.5634   21849725.8914   21849727.6514
      2535.9574
 -28128850.43449 -21700582.86448  19976725.1634   19976725.0084   19976727.4764
      1012.0584
 -12055749.50247  -9354269.25146  23109236.1884   23109236.2144   23109237.6334
     -1194.6554
  -7002329.83147  -5441537.59046  23968001.6784   23968000.7724   23968001.5704
       538.1064
  -9460208.33547  -7084238.49446  22850401.3284   22850400.3554   22850403.1824
      3280.5554
 -21991063.28449 -17119417.47048  20924960.0564   20924960.1844   20924962.6444
       448.9334
 -14978212.35548 -11636380.60647  22285417.6934   22285417.7384   22285419.2934
      -398.4044
 -18949640.19549 -14756738.33148  21480412.3904   21480412.7884   21480414.6374
     -2492.3224
 10  1  4  1 27 30.0000000  0 10G30G28G12G09G18G22G26G27G17G15
  -6294772.98646  -4883926.21546  24693725.2074   24693726.2204   24693728.0724
      3616.9204
  -2271697.29946  -1720266.46646  25158358.2694   25158358.3514   25158362.5944
     -3132.1534
 -20194363.48248 -15721683.23948  21835282.9094   21835282.9434   21835284.9294
      2523.9274
 -28159008.81349 -21724082.89748  19970986.2724   19970985.8934   19970988.7474
       998.5124
 -12019666.61347  -9326152.71146  23116102.6274   23116101.0104   23116104.0394
     -1211.1434
  -7018196.67847  -5453901.33846  23964981.8954   23964982.3684   23964981.2304
       519.6394
  -9558471.89747  -7160807.49246  22831702.7514   22831701.6914   22831704.6844
      3270.2384
 -22004415.46449 -17129821.76548  20922419.3894   20922419.4704   20922421.9434
       441.2944
 -14965966.05148 -11626838.02547  22287748.1534   22287748.5174   22287749.8974
      -418.1154
 -18874657.04349 -14698309.89848  21494681.2144   21494681.8254   21494683.5834
     -2506.5354
 10  1  4  1 28  0.0000000  0 10G30G28G12G09G18G22G26G27G17G15
  -6403233.45447  -4968440.89346  24673087.0274   24673086.6134   24673090.0634
      3613.4194
  -2177742.37746  -1647054.89146  25176238.8384   25176236.7134   25176238.6654
     -3131.9054
 -20269917.86349 -15780556.77648  21820905.3564   21820905.5604   21820907.4034
      2512.8054
 -28188779.73749 -21747281.01448  19965321.0464   19965320.9224   19965323.4354
       985.9334
 -11983109.08347  -9297666.33446  23123059.5154   23123058.9004   23123062.4804
     -1226.4884
  -7033537.13147  -5465854.95146  23962064.5834   23962062.9064   23962062.5084
       502.8804
  -9656437.56247  -7237144.37346  22813060.6044   22813060.0264   22813062.9074
      3260.5064
 -22017558.48549 -17140063.07948  20919918.3034   20919918.0174   20919921.1664
       434.7544
 -14953143.37648 -11616846.31747  22290188.1434   22290188.2254   22290189.8174
      -437.1144
 -18799265.70249 -14639563.39748  21509027.7184   21509028.3744   21509030.1094
     -2519.7104
 10  1  4  1 28 30.0000000  0 10G30G28G12G09G18G22G26G27G17G15
  -6511588.83447  -5052873.69646  24652467.1254   24652467.0884   24652472.2724
      3609.6164
  -2083780.83546  -1573838.16045  25194119.1594   25194117.2284   25194118.0824
     -3132.4274
 -20345124.27748 -15839159.16248  21806593.8784   21806593.8814   21806595.9754
      2500.8334
 -28218157.85349 -21770173.04548  19959730.5034   19959730.2884   19959732.8434
       972.4504
 -11946074.58947  -9268808.29046  23130106.6084   23130107.2534   23130108.0264
     -1242.5704
  -7048346.69547  -5477394.87846  23959243.8314   23959245.0284   23959244.8584
       484.8844
  -9754098.13148  -7313243.49146  22794476.1744   22794475.4484   22794478.8684
      3249.8994
 -22030487.46849 -17150137.60648  20917457.9244   20917457.7144   20917460.4264
       427.0514
 -14939740.62548 -11606402.59947  22292738.4944   22292739.2784   22292740.0854
      -456.6644
 -18723463.18449 -14580496.50048  21523452.5544   21523452.8124   21523454.7444
     -2533.8264
 10  1  4  1 29  0.0000000  0 10G30G28G12G09G18G22G26G27G17G15
  -6619848.17447  -5137231.64846  24631865.9804   24631865.8144   24631870.2484
      3606.5734
  -1989824.23146  -1500625.28745  25211997.6774   25211997.0014   25211999.1374
     -3131.9284
 -20419991.84149 -15897497.51848  21792346.9344   21792347.3374   21792349.0314
      2489.3004
 -28247152.74149 -21792766.45848  19954212.9584   19954212.7904   19954215.2894
       959.4864
 -11908575.59647  -9239588.29146  23137243.2114   23137241.5984   23137243.9524
     -1258.1704
  -7062635.46247  -5488528.96546  23956525.4274   23956524.2604   23956525.3664
       466.4964
  -9851461.18847  -7389110.80547  22775948.0874   22775949.1064   22775951.4524
      3239.7464
 -22043212.05449 -17160052.85948  20915036.5594   20915036.2514   20915039.4904
       420.0684
 -14925768.58148 -11595515.27847  22295397.3664   22295397.4464   22295399.5154
      -475.8544
 -18647261.55549 -14521118.61748  21537953.1954   21537953.3224   21537955.6404
     -2547.3024
 10  1  4  1 29 30.0000000  0 10G30G28G12G09G18G22G26G27G17G15
  -6727997.17947  -5221503.61946  24611287.2684   24611286.2054   24611289.7224
      3603.2304
  -1895860.91945  -1427407.21345  25229877.3194   25229878.6284   25229879.8414
     -3131.7254
 -20494506.97648 -15955561.24448  21778167.0994   21778167.6594   21778169.4564
      2478.2074
 -28275750.37049 -21815050.31948  19948771.1594   19948770.8684   19948773.4594
       946.8554
 -11870600.87047  -9209997.56746  23144468.9854   23144467.5494   23144470.2844
     -1273.3824
  -7076390.73447  -5499247.38546  23953907.3494   23953907.5304   23953908.5154
       449.8594
  -9948510.97447  -7464734.00446  22757479.6664   22757480.1954   22757483.5154
      3229.9624
 -22055718.80249 -17169798.37348  20912656.5154   20912656.3024   20912659.0574
       413.4054
 -14911214.54648 -11584174.46347  22298166.9584   22298167.0034   22298168.9504
      -494.6364
 -18570650.23249 -14461421.48748  21552531.8994   21552532.1284   21552534.0354
     -2560.2554
 10  1  4  1 30  0.0000000  0  9G30G12G09G18G22G26G27G17G15
  -6836038.95547  -5305692.04546  24590726.8814   24590726.4774   24590729.7794
      3599.3484
 -20568672.97449 -16013352.91748  21764054.0124   21764054.3664   21764056.3234
      2466.3784
 -28303954.55449 -21837027.60148  19943404.1204   19943403.8024   19943406.2214
       933.4574
 -11832156.67647  -9180041.04646  23151784.1964   23151784.5614   23151787.0234
     -1289.4054
  -7089616.44147  -5509553.12746  23951388.6984   23951390.6354   23951391.9434
       431.8534
 -10045248.69448  -7540114.03546  22739071.2904   22739072.5964   22739074.6964
      3219.3234
 -22068011.44749 -17179377.05448  20910317.4304   20910317.2094   20910319.9104
       406.0914
 -14896083.15248 -11572383.75847  22301046.3804   22301046.7414   22301048.3054
      -514.1454
 -18493634.54649 -14401409.26748  21567187.5044   21567187.9084   21567189.7194
     -2573.9284
 10  1  4  1 30 30.0000000  0  9G30G12G09G18G22G26G27G17G15
  -6943972.45947  -5389796.08646  24570187.9484   24570187.4684   24570191.1264
      3596.0764
 -20642489.13149 -16070871.98348  21750007.0564   21750007.4034   21750009.4594
      2454.8884
 -28331764.59449 -21858697.75748  19938111.9254   19938111.8524   19938114.4054
       920.5394
 -11793245.74947  -9149720.84346  23159189.0084   23159188.5974   23159190.1414
     -1304.4944
  -7102312.96447  -5519446.53346  23948976.1514   23948975.3554   23948976.3264
       415.0594
 -10141672.00348  -7615249.06347  22720722.8214   22720723.2814   22720725.9384
      3209.1414
 -22080089.69749 -17188788.67448  20908019.1034   20908018.7644   20908021.5734
       399.2654
 -14880375.28548 -11560143.84947  22304035.1184   22304035.5824   22304036.9374
      -533.0714
 -18416217.06449 -14341083.96348  21581919.5164   21581919.9104   21581922.0194
     -2587.0994
 10  1  4  1 31  0.0000000  0 10G30G12G09G18G22G26G01G27G17G15
  -7051799.95047  -5473817.52646  24549668.8954   24549669.1694   24549671.6514
      3592.4764
 -20715958.57949 -16128120.91048  21736026.5654   21736026.8274   21736028.7384
      2443.1724
 -28359183.06149 -21880062.79148  19932894.2344   19932894.1724   19932896.7894
       907.5054
 -11753873.25148  -9119040.99146  23166682.5784   23166681.3774   23166683.2934
     -1319.9604
  -7114483.97947  -5528930.47546  23946660.6464   23946659.1644   23946659.6914
       397.0894
 -10237781.68847  -7690139.71246  22702433.6344   22702433.6174   22702436.3064
      3198.3794
   -505115.40247   -386113.62146  25018913.1574   25018913.4384   25018916.6834
      3515.3064
 -22091956.68949 -17198035.67748  20905760.6594   20905760.7894   20905763.4594
       392.0224
 -14864094.96748 -11547457.87647  22307133.4794   22307133.6854   22307134.7664
      -552.1184
 -18338402.91149 -14280449.55848  21596727.1784   21596727.0644   21596729.2924
     -2600.4224
 10  1  4  1 31 30.0000000  0 10G30G12G09G18G22G26G01G27G17G15
  -7159516.06047  -5557752.16546  24529171.6534   24529172.1064   24529173.0894
      3588.1734
 -20789075.79949 -16185095.38648  21722112.7304   21722113.2134   21722115.2694
      2430.5854
 -28386204.70449 -21901118.61548  19927752.3564   19927752.2034   19927754.5734
       893.5024
 -11714037.32447  -9088000.00546  23174261.6314   23174263.0204   23174263.9694
     -1336.3584
  -7126125.36947  -5538001.68746  23944447.1674   23944444.5074   23944444.4354
       378.7544
 -10333570.61948  -7764780.43547  22684206.0214   22684206.5114   22684207.5254
      3186.9824
   -610517.54547   -468245.14146  24998855.5554   24998855.7714   24998858.8804
      3511.0874
 -22103607.45349 -17207114.18948  20903543.6714   20903543.4214   20903546.1104
       384.1344
 -14847238.25448 -11534322.76647  22310340.9074   22310341.0964   22310342.8634
      -572.1034
 -18260189.76149 -14219504.24848  21611610.6404   21611610.8104   21611612.7594
     -2614.5274
 10  1  4  1 32  0.0000000  0 10G30G12G09G18G22G26G01G27G17G15
  -7267121.06247  -5641600.23246  24508694.8894   24508694.5644   24508697.6494
      3585.0634
 -20861841.75349 -16241796.13148  21708265.8534   21708265.9024   21708267.9364
      2419.9324
 -28412830.21649 -21921865.76448  19922685.5474   19922685.5134   19922687.9154
       881.1014
 -11673741.65347  -9056600.78646  23181931.2694   23181930.4514   23181932.1714
     -1350.7254
  -7137238.74747  -5546661.47146  23942330.8104   23942329.6644   23942330.2204
       361.4424
 -10429037.65648  -7839170.32347  22666038.8234   22666040.1454   22666041.9524
      3176.9884
   -715816.39147   -550296.19546  24978818.4814   24978819.7244   24978822.4504
      3508.4754
 -22115043.06249 -17216025.05148  20901367.4444   20901367.3564   20901370.0554
       377.7254
 -14829807.54548 -11520740.38247  22313657.8634   22313658.1244   22313659.4154
      -590.4634
 -18181581.30549 -14158250.90648  21626569.0244   21626569.4654   21626571.8174
     -2626.2674
 10  1  4  1 32 30.0000000  0 10G30G12G09G18G22G26G01G27G17G15
  -7374612.24347  -5725359.62546  24488239.9024   24488239.2064   24488241.4874
      3581.6694
 -20934253.98749 -16298221.23248  21694486.4124   21694486.1874   21694488.2914
      2408.0594
 -28439057.58549 -21942302.67448  19917694.7014   19917694.6464   19917697.0704
       867.9074
 -11632986.72347  -9024843.72246  23189685.8234   23189684.1364   23189687.8124
     -1365.7624
  -7147822.75847  -5554908.76846  23940317.6144   23940314.4234   23940316.6114
       344.4894
 -10524178.38648  -7913305.95247  22647934.5574   22647935.4714   22647937.3384
      3166.2244
   -821009.37347   -632264.70946  24958800.4494   24958800.7584   24958804.6644
      3505.4834
 -22126261.59349 -17224766.75648  20899232.9154   20899232.8034   20899235.3624
       370.6414
 -14811801.60948 -11506709.77147  22317084.7424   22317084.9834   22317086.1624
      -609.4874
 -18102577.65749 -14096689.62848  21641603.2484   21641603.5974   21641605.3854
     -2639.6864
 10  1  4  1 33  0.0000000  0 10G30G12G09G18G22G26G01G27G17G15
  -7481989.59747  -5809030.29146  24467806.2354   24467806.5454   24467809.3774
      3577.0994
 -21006313.00949 -16354371.10448  21680773.8274   21680773.8334   21680776.2364
      2395.6384
 -28464887.18849 -21962429.63448  19912779.5594   19912779.5684   19912782.0164
       853.8254
 -11591776.12147  -8992731.58746  23197527.6724   23197527.3304   23197527.6044
     -1381.7904
  -7157878.64147  -5562744.52746  23938399.3564   23938401.6214   23938401.8974
       326.4234
 -10618991.56248  -7987186.34747  22629892.1624   22629891.8874   22629893.8684
      3154.3494
   -926096.49447   -714150.77346  24938802.9674   24938803.4064   24938806.4414
      3500.5994
 -22137263.60949 -17233339.75148  20897138.9634   20897138.9694   20897141.7394
       362.5924
 -14793222.52248 -11492232.54647  22320620.0434   22320620.5164   22320621.5414
      -629.4704
 -18023181.97949 -14034822.86848  21656711.5164   21656711.7184   21656713.9064
     -2653.6584
 10  1  4  1 33 30.0000000  0 10G30G12G09G18G22G26G01G27G17G15
  -7589251.83647  -5892611.27646  24447395.4664   24447395.5254   24447399.5564
      3573.6084
 -21078018.08549 -16410245.16748  21667128.7294   21667128.7424   21667131.1274
      2384.0624
 -28490317.91649 -21982245.78548  19907940.1224   19907940.1834   19907942.4364
       840.7984
 -11550111.83847  -8960265.91146  23205456.7084   23205454.8344   23205458.7144
     -1396.4804
  -7167406.59547  -5570168.96446  23936586.0304   23936588.2574   23936588.5684
       308.6054
 -10713473.98047  -8060809.00047  22611912.4974   22611912.9864   22611915.9754
      3143.8334
  -1031076.18847   -795953.13946  24918826.3694   24918826.2874   24918829.3174
      3497.2834
 -22148048.59549 -17241743.63448  20895086.6974   20895086.3774   20895089.0954
       355.6094
 -14774070.77348 -11477309.09947  22324264.6444   22324264.3084   22324266.2274
      -648.0954
 -17943396.03349 -13972652.00448  21671894.4264   21671894.6034   21671896.5324
     -2666.1004
 10  1  4  1 34  0.0000000  0 11G30G28G12G09G18G22G26G01G27G17G15
  -7696396.27647  -5976100.46046  24427006.7184   24427006.7664   24427010.0064
      3569.3984
   -178245.54717                  25390773.124
     -3130.535
 -21149366.71349 -16465841.48848  21653551.5524   21653551.8204   21653553.5984
      2371.9464
 -28515347.41449 -22001749.28648  19903177.2034   19903177.0404   19903179.7104
       827.2524
 -11507994.32647  -8927447.06846  23213470.5054   23213471.2464   23213473.3234
     -1411.8164
  -7176405.14047  -5577180.81146  23934876.6014   23934877.1594   23934876.8274
       290.8414
 -10807621.37847  -8134170.60047  22593996.7394   22593996.8554   22593999.5714
      3132.2114
  -1135946.00846   -877669.87846  24898870.8114   24898870.4634   24898873.4294
      3493.0074
 -22158614.38849 -17249976.71148  20893076.2084   20893075.9754   20893078.5884
       348.2484
 -14754345.52448 -11461938.76647  22328017.9854   22328017.7874   22328019.6554
      -667.3504
 -17863220.36349 -13910177.45648  21687151.4144   21687151.7754   21687153.5744
     -2679.3004
 10  1  4  1 34 30.0000000  0 11G30G28G12G09G18G22G26G01G27G17G15
  -7803423.80347  -6059498.52446  24406638.9964   24406640.5994   24406644.4384
      3565.7704
    -84339.206 7                  25408646.239
     -3130.235
 -21220360.58749 -16521161.38248  21640042.0124   21640042.0064   21640044.0944
      2360.4294
 -28539977.17149 -22020941.29948  19898490.1974   19898490.2894   19898492.7804
       814.2514
 -11465428.58947  -8894278.95246  23221571.0424   23221571.5834   23221572.5404
     -1426.2024
  -7184876.81147  -5583782.15746  23933261.6574   23933263.0144   23933265.5794
       273.6074
 -10901433.35548  -8207270.84147  22576145.0914   22576145.7574   22576147.4574
      3121.3854
  -1240707.04346   -959301.85746  24878933.6624   24878934.8394   24878937.9584
      3490.4514
 -22168962.90949 -17258040.48748  20891106.8554   20891106.8574   20891109.3964
       341.2914
 -14734049.65448 -11446123.79447  22331880.2614   22331880.2384   22331881.9724
      -686.2864
 -17782658.88249 -13847402.28148  21702481.6654   21702482.1804   21702483.8814
     -2691.5934
 10  1  4  1 35  0.0000000  0 11G30G28G12G09G18G22G26G01G27G17G15
  -7910331.50647  -6142803.23346  24386295.7964   24386297.2314   24386300.1904
      3561.5694
      9555.08147    -35506.13045  25426512.8304   25426512.8494   25426516.1364
     -3129.5344
 -21290997.02249 -16576202.75048  21626600.2624   21626600.4544   21626602.5584
      2348.7734
 -28564204.73749 -22039819.91648  19893879.9974   19893879.8784   19893882.4174
       801.0254
 -11422414.78547  -8860761.71846  23229756.0614   23229756.5164   23229756.2764
     -1440.9224
  -7192820.33247  -5589971.95846  23931752.2504   23931752.2624   23931753.0534
       256.1234
 -10994905.13548  -8280105.99047  22558357.2144   22558358.6674   22558361.9154
      3110.3444
  -1345356.41746  -1040846.84946  24859020.2624   24859020.4084   24859021.7354
      3486.0854
 -22179091.85349 -17265933.16648  20889179.4834   20889179.0374   20889181.7344
       334.0454
 -14713182.15348 -11429863.40247  22335851.2004   22335851.7204   22335852.9014
      -704.8444
 -17701712.14449 -13784326.90248  21717885.2354   21717885.4284   21717887.6104
     -2704.4504
 10  1  4  1 35 30.0000000  0 11G30G28G12G09G18G22G26G01G27G17G15
  -8017119.12547  -6226014.35846  24365974.7694   24365976.9944   24365977.6594
      3557.4784
    103435.08047     37647.09845  25444378.2214   25444377.6014   25444378.8404
     -3129.2794
 -21361276.50149 -16630965.97048  21613226.6464   21613226.5234   21613228.4964
      2336.3964
 -28588030.05249 -22058385.09248  19889346.1994   19889346.0434   19889348.3734
       787.2254
 -11378955.91647  -8826897.66146  23238026.1774   23238025.5154   23238028.3014
     -1456.5034
  -7200236.55347  -5595750.84746  23930341.5044   23930340.8494   23930341.3724
       238.0854
 -11088035.26148  -8352674.91247  22540635.6244   22540636.2394   22540638.2224
      3098.3114
  -1449893.78546  -1122304.53546  24839126.8944   24839128.2124   24839131.5794
      3482.5704
 -22189001.41149 -17273654.89148  20887293.8044   20887293.6004   20887296.4304
       326.3214
 -14691744.76148 -11413158.92547  22339930.3504   22339930.7594   22339932.2334
      -724.7134
 -17620383.25449 -13720953.74948  21733361.6734   21733361.9484   21733363.7824
     -2717.2274
 10  1  4  1 36  0.0000000  0 11G30G28G12G09G18G22G26G01G27G17G15
  -8123784.37547  -6309130.15646  24345677.0734   24345678.5954   24345679.7464
      3553.4244
    197300.52847    110788.96045  25462239.6814   25462239.8864   25462238.5614
     -3129.0664
 -21431197.01749 -16685449.47748  21599920.9464   21599921.3074   21599923.5254
      2324.5174
 -28611451.25349 -22076635.37248  19884889.2764   19884888.9614   19884891.4974
       773.7454
 -11335053.43947  -8792687.91746  23246380.4554   23246380.5654   23246379.5394
     -1470.9284
  -7207125.03447  -5601118.52746  23929032.3784   23929030.8864   23929030.6684
       220.7864
 -11180819.56548  -8424974.37947  22522979.8184   22522980.2704   22522982.2144
      3086.6744
  -1554316.91747  -1203673.20646  24819257.3644   24819257.4854   24819260.1554
      3478.6554
 -22198690.08249 -17281204.49948  20885450.0254   20885449.7514   20885452.4444
       319.0784
 -14669737.05748 -11396010.05747  22344118.4654   22344118.8474   22344120.2994
      -743.2004
 -17538672.52749 -13657283.05848  21748910.8074   21748910.9844   21748912.6554
     -2730.2774
 10  1  4  1 36 30.0000000  0 11G30G28G12G09G18G22G26G01G27G17G15
  -8230327.01347  -6392150.37846  24325402.0414   24325401.5804   24325405.9044
      3549.1374
    291149.46546    183918.03845  25480098.8594   25480096.7314   25480100.5664
     -3128.3304
 -21500758.80149 -16739653.45248  21586683.7414   21586683.8764   21586685.9434
      2312.4924
 -28634468.55349 -22094570.92848  19880509.2554   19880509.1074   19880511.6374
       760.2814
 -11290710.22647  -8758134.74946  23254818.9814   23254817.3814   23254820.3604
     -1485.6874
  -7213486.78647  -5606075.74146  23927820.4504   23927820.0454   23927820.2524
       202.9654
 -11273256.19648  -8497002.92347  22505389.8374   22505390.1034   22505392.2334
      3075.2204
  -1658625.08047  -1284952.30646  24799407.8524   24799407.7124   24799410.4394
      3474.9534
 -22208158.03349 -17288582.11848  20883648.4754   20883648.1794   20883650.7214
       311.6594
 -14647160.48348 -11378417.90947  22348414.4814   22348414.5594   22348416.1744
      -762.3144
 -17456583.08249 -13593317.26148  21764531.8404   21764532.4064   21764534.1214
     -2742.7254
 10  1  4  1 37  0.0000000  0 11G30G28G12G09G18G22G26G01G27G17G15
  -8336746.03747  -6475074.29546  24305151.7144   24305152.6684   24305154.9534
      3544.8414
    384980.43247    257033.05945  25497953.9374   25497951.8944   25497954.9084
     -3127.8794
 -21569961.39549 -16793577.53548  21573514.9974   21573515.2024   21573517.0524
      2300.4464
 -28657081.34049 -22112191.27348  19876206.1614   19876206.1004   19876208.4994
       746.6484
 -11245928.98247  -8723240.28246  23263339.4464   23263340.2324   23263341.3304
     -1500.5774
  -7219322.12647  -5610622.78446  23926709.8364   23926708.5444   23926709.9214
       185.4404
 -11365342.24848  -8568758.27847  22487866.1804   22487866.2694   22487869.1864
      3063.2764
  -1762817.44447  -1366141.16546  24779581.5674   24779580.2634   24779583.4714
      3470.8924
 -22217404.86149 -17295787.43248  20881888.7824   20881888.5874   20881891.4654
       304.1544
 -14624016.10848 -11360383.32947  22352818.7024   22352819.1054   22352820.5934
      -781.3354
 -17374117.15948 -13529058.10448  21780224.5494   21780225.2014   21780226.7834
     -2755.4614
 10  1  4  1 37 30.0000000  0 11G30G28G12G09G18G22G26G01G27G17G15
  -8443039.79947  -6557900.60346  24284924.3074   24284926.0054   24284928.6484
      3541.1144
    478792.54246    330133.41545  25515805.5044   25515806.6524   25515809.4194
     -3126.6214
 -21638803.47649 -16847220.69248  21560414.9484   21560415.2064   21560417.0984
      2288.7964
 -28679288.27049 -22129495.37448  19871980.3954   19871980.3364   19871982.7344
       733.4994
 -11200711.54547  -8688005.89946  23271944.9694   23271944.9284   23271946.6324
     -1514.3654
  -7224630.89147  -5614759.50846  23925697.8154   23925698.9574   23925699.8184
       167.9284
 -11457074.83448  -8640238.21447  22470410.1784   22470409.9384   22470413.1554
      3051.9944
  -1866893.28747  -1447239.22046  24759775.2224   24759776.2564   24759778.7344
      3467.3674
 -22226429.76749 -17302819.82148  20880171.3144   20880171.2084   20880174.2214
       297.1004
 -14600304.06648 -11341906.39947  22357331.0934   22357331.6444   22357332.4344
      -799.9074
 -17291275.96748 -13464506.53248  21795988.5604   21795989.1924   21795990.9124
     -2767.5814
 10  1  4  1 38  0.0000000  0 11G30G28G12G09G18G22G26G01G27G17G15
  -8549205.33047  -6640626.99346  24264722.1314   24264722.0674   24264725.7404
      3536.7484
    572586.07447    403219.25345  25533654.8134   25533652.3164   25533656.2394
     -3126.3294
 -21707282.72949 -16900581.13348  21547383.6454   21547383.9104   21547385.7634
      2276.6374
 -28701086.87649 -22146481.29748  19867832.1904   19867832.1604   19867834.5864
       720.0174
 -11155058.46247  -8652432.06246  23280631.1544   23280631.9194   23280634.2364
     -1528.9454
  -7229412.07347  -5618485.10146  23924789.0114   23924788.9454   23924788.8504
       150.5784
 -11548449.36748  -8711439.14147  22453022.1164   22453021.6894   22453025.7394
      3040.1644
  -1970848.71947  -1528243.47346  24739992.9524   24739995.0704   24739996.8444
      3463.2774
 -22235230.48049 -17309677.51348  20878496.6484   20878496.5814   20878499.2804
       289.8684
 -14576023.88048 -11322986.76147  22361951.1764   22361951.6104   22361952.9884
      -818.4294
 -17208059.82748 -13399662.79248  21811824.1264   21811824.3074   21811826.5694
     -2779.8604
 10  1  4  1 38 30.0000000  0 11G30G28G12G09G18G22G26G01G27G17G15
  -8655242.42147  -6723253.28746  24244543.3444   24244544.2004   24244547.6724
      3531.9524
    666359.203 6    476289.21545  25551498.475                    25551504.6084
     -3125.790
 -21775399.44849 -16953659.08548  21534421.3984   21534421.5444   21534423.7594
      2264.0534
 -28722477.25149 -22163149.11648  19863761.5934   19863761.5594   19863764.1664
       705.8234
 -11108973.31447  -8616521.55446  23289401.5234   23289403.1954   23289403.4084
     -1543.8554
  -7233666.85247  -5621800.52346  23923979.9464   23923979.7984   23923979.6914
       132.6234
 -11639464.13048  -8782359.73147  22435702.7814   22435703.4194   22435704.8824
      3027.1024
  -2074684.01047  -1609154.07246  24720234.5844   24720234.6224   24720238.5644
      3458.7284
 -22243807.17449 -17316360.64648  20876864.6644   20876864.4724   20876867.2354
       281.8054
 -14551177.65248 -11303626.06147  22366679.4824   22366679.4714   22366681.1744
      -837.9794
 -17124471.89348 -13334529.33848  21827730.5554   21827730.4574   21827732.7014
     -2792.8394
 10  1  4  1 39  0.0000000  0 11G30G28G12G09G18G22G26G01G27G17G15
  -8761150.98847  -6805779.43646  24224390.0984   24224389.6314   24224393.2444
      3528.1064
    760109.30646    549341.19445  25569338.7484   25569340.9124   25569339.8554
     -3125.0294
 -21843154.13249 -17006454.92448  21521528.1944   21521528.2774   21521530.2894
      2252.2974
 -28743459.86749 -22179499.19948  19859768.7994   19859768.5394   19859771.1664
       692.3964
 -11062459.34347  -8580276.89546  23298253.5214   23298252.6334   23298255.9434
     -1557.8344
  -7237396.94547  -5624707.12746  23923271.3804   23923269.6284   23923271.3074
       115.4574
 -11730117.33848  -8852998.58747  22418451.7374   22418452.4074   22418454.7604
      3015.6104
  -2178399.04847  -1689970.97846  24700497.5994   24700497.6814   24700501.6594
      3455.0924
 -22252160.43049 -17322869.67148  20875275.0214   20875274.9314   20875277.5054
       274.5124
 -14525766.50748 -11283825.16147  22371514.9664   22371515.2804   22371516.8304
      -856.6194
 -17040515.56648 -13269108.82848  21843706.8944   21843707.1074   21843709.1244
     -2804.7784
 10  1  4  1 39 30.0000000  0 11G30G28G12G09G18G22G26G01G27G17G15
  -8866927.72447  -6888202.84946  24204260.4094   24204261.9014   24204265.1654
      3523.3544
    853837.31346    622376.06445  25587174.1804   25587173.9034   25587178.8884
     -3124.3774
 -21910544.02149 -17058966.50248  21508704.1504   21508704.0874   21508706.3394
      2239.9564
 -28764031.70449 -22195529.19648  19855853.9404   19855853.7994   19855856.3764
       678.5984
 -11015516.77147  -8543698.26846  23307186.2164   23307184.6934   23307188.1804
     -1572.3514
  -7240600.49847  -5627203.40946  23922660.0764   23922659.3964   23922660.7744
        97.8214
 -11820404.25448  -8923352.00747  22401270.7854   22401270.7624   22401272.9464
      3003.0804
  -2281990.53647  -1770691.65546  24680784.5994   24680785.5614   24680789.2964
      3450.9034
 -22260287.76349 -17329202.65248  20873728.4844   20873728.1614   20873730.7454
       266.8974
 -14499789.67248 -11263583.46547  22376458.4564   22376458.6044   22376459.6064
      -875.5404
 -16956190.50248 -13203400.99048  21859753.3634   21859753.8954   21859755.5574
     -2817.2194
 10  1  4  1 40  0.0000000  0 11G30G28G12G09G18G22G26G01G27G17G15
  -8972574.95747  -6970525.36346  24184157.0664   24184157.6274   24184161.1284
      3518.8954
    947538.76746    695390.06445  25605005.8004   25605003.5734   25605007.3624
     -3122.9574
 -21977571.84349 -17111195.95048  21495949.2604   21495949.4654   21495951.4634
      2227.8924
 -28784195.20949 -22211241.01248  19852017.1284   19852016.9754   19852019.5014
       664.9764
 -10968151.22447  -8506790.06846  23316199.6664   23316200.4054   23316202.3974
     -1586.2554
  -7243281.23747  -5629292.27746  23922149.7754   23922149.7084   23922151.7064
        80.3854
 -11910325.05748  -8993420.16947  22384159.6384   22384159.7984   22384162.1564
      2990.7794
  -2385460.31047  -1851317.45146  24661096.1614   24661095.2304   24661099.1364
      3446.6204
 -22268191.81649 -17335361.64648  20872224.3234   20872224.1014   20872226.7454
       259.3934
 -14473251.46748 -11242904.33747  22381508.1204   22381508.6714   22381510.3404
      -894.4084
 -16871502.22848 -13137410.13148  21875868.9504   21875869.2434   21875871.8314
     -2829.3304
 10  1  4  1 40 30.0000000  0 11G30G28G12G09G18G22G26G01G27G17G15
  -9078087.03747  -7052742.57946  24164079.3614   24164080.1304   24164082.2274
      3514.1684
   1041216.798 6    768385.93645  25622831.900                    25622833.9504
     -3122.655
 -22044232.99449 -17163139.68648  21483264.0794   21483263.9194   21483266.4424
      2215.1544
 -28803945.48349 -22226630.83048  19848258.6624   19848258.5394   19848261.1194
       650.7304
 -10920361.15247  -8469551.07346  23325293.9944   23325293.3644   23325295.6054
     -1600.9144
  -7245435.65847  -5630971.06246  23921737.2774   23921739.3214   23921740.3504
        62.3914
 -11999873.05048  -9063197.81747  22367118.9704   22367119.3024   22367122.1514
      2978.0254
  -2488803.42947  -1931844.56446  24641430.4864   24641430.8414   24641432.6324
      3442.0954
 -22275867.56149 -17341342.74348  20870763.5964   20870763.3244   20870766.1524
       251.2984
 -14446148.52648 -11221785.14947  22386665.8764   22386665.8944   22386667.9534
      -913.6124
 -16786448.08748 -13071134.17348  21892054.2184   21892054.6934   21892056.5634
     -2841.9704
 10  1  4  1 41  0.0000000  0 10G30G12G09G18G22G26G01G27G17G15
  -9183465.05847  -7134855.29846  24144027.2304   24144027.2354   24144029.6934
      3510.4074
 -22110528.41249 -17214798.44248  21470648.6324   21470648.8534   21470650.7164
      2203.6694
 -28823283.86049 -22241699.69148  19844578.6944   19844578.6864   19844581.1204
       637.6894
 -10872150.91647  -8431984.65946  23334468.1914   23334468.0944   23334469.4404
     -1613.8744
  -7247066.21547  -5632241.65046  23921429.9494   23921429.9694   23921430.9424
        45.5434
 -12089047.31048  -9132684.23947  22350150.0434   22350150.5684   22350152.3474
      2966.3054
  -2592020.50347  -2012273.46246  24621788.8394   24621789.7104   24621792.3184
      3438.3144
 -22283316.55949 -17347147.15348  20869346.2514   20869345.9474   20869348.3354
       244.4924
 -14418484.02448 -11200228.38647  22391930.2194   22391930.3374   22391931.6704
      -931.4254
 -16701032.58448 -13004576.64348  21908308.2324   21908308.3224   21908310.6634
     -2853.2824
 10  1  4  1 41 30.0000000  0 10G30G12G09G18G22G26G01G27G17G15
  -9288708.63347  -7216863.28346  24123998.9704   24123999.0534   24124003.0414
      3505.5054
 -22176458.42549 -17266172.45948  21458102.3734   21458102.6034   21458104.6364
      2191.2854
 -28842210.42549 -22256447.66048  19840977.2744   19840977.1044   19840979.5764
       623.7144
 -10823523.60447  -8394093.28346  23343722.0134   23343721.1584   23343723.5814
     -1628.1174
  -7248174.26847  -5633105.09346  23921222.7554   23921217.8934   23921219.5124
        27.9224
 -12177846.11648  -9201878.11447  22333251.8124   22333251.0714   22333254.3344
      2953.4624
  -2695111.51547  -2092604.12546  24602171.2874   24602170.9164   24602173.9314
      3434.1024
 -22290539.23349 -17352775.21048  20867971.7304   20867971.5624   20867974.1594
       236.6234
 -14390259.58148 -11178235.31247  22397300.9234   22397301.4044   22397302.2024
      -950.4154
 -16615259.15648 -12937740.20448  21924629.9724   21924630.5464   21924632.4114
     -2865.2934
 10  1  4  1 42  0.0000000  0 10G30G12G09G18G22G26G01G27G17G15
  -9393814.82947  -7298764.20746  24103998.7984   24103998.1654   24104002.1114
      3500.9394
 -22242020.88349 -17317260.07748  21445626.3174   21445626.6664   21445628.4504
      2178.8844
 -28860722.39349 -22270872.56548  19837454.4624   19837454.2334   19837456.7794
       609.7004
 -10774480.00747  -8355877.50546  23353054.5444   23353052.7274   23353055.6034
     -1642.1914
  -7248758.61547  -5633560.43546  23921109.3614   23921107.2724   23921107.7664
        10.2194
 -12266264.85348  -9270775.81047  22316426.4884   22316425.5764   22316429.1814
      2940.5724
  -2798073.88447  -2172834.54046  24582578.0334   24582577.7574   24582580.6174
      3429.3484
 -22297533.14449 -17358225.00648  20866640.9064   20866640.6324   20866643.5984
       228.8844
 -14361474.46648 -11155805.34147  22402778.7174   22402778.6474   22402780.3694
      -969.2634
 -16529127.44648 -12870624.58947  21941020.6674   21941021.1494   21941023.1184
     -2877.4754
 10  1  4  1 42 30.0000000  0 10G30G12G09G18G22G26G01G27G17G15
  -9498781.13047  -7380556.14746  24084023.9174   24084023.3744   24084026.1214
      3496.7144
 -22307214.15949 -17368060.01848  21433220.3704   21433220.5714   21433222.4064
      2167.0624
 -28878817.99949 -22284973.03948  19834011.1524   19834010.8724   19834013.4504
       596.3584
 -10725021.25847  -8317338.24046  23362465.8874   23362464.4534   23362468.5614
     -1655.3014
  -7248818.50347  -5633607.12446  23921097.1584   23921096.2984   23921096.7424
        -6.5464
 -12354299.51748  -9339374.24747  22299673.9024   22299673.6834   22299676.4464
      2928.1814
  -2900904.82547  -2252962.56246  24563009.9104   24563010.4484   24563012.7734
      3425.3044
 -22304296.56249 -17363495.20748  20865353.7814   20865353.6434   20865356.3494
       221.7334
 -14332128.50848 -11132938.35247  22408363.0234   22408363.4634   22408365.2634
      -987.4894
 -16442638.42948 -12803230.55247  21957479.0594   21957479.2494   21957481.3344
     -2888.8134
 10  1  4  1 43  0.0000000  0 10G30G12G09G18G22G26G01G27G17G15
  -9603610.44547  -7462241.31846  24064075.2324   24064075.5694   24064079.1704
      3491.6644
 -22372040.81549 -17418574.28348  21420884.4714   21420884.4354   21420886.1654
      2154.4724
 -28896500.38949 -22298751.52248  19830646.3304   19830645.8454   19830648.4374
       582.2554
 -10675153.93247  -8278480.58346  23371955.4024   23371955.7724   23371957.0414
     -1669.1314
  -7248358.32747  -5633248.58446  23921184.1724   23921183.8374   23921185.6644
       -24.1284
 -12441951.05648  -9407674.14247  22282994.3024   22282994.2914   22282997.2884
      2915.0414
  -3003607.10447  -2332990.35446  24543466.3404   24543466.6614   24543470.7324
      3421.0864
 -22310832.73249 -17368588.32548  20864109.6984   20864109.7654   20864112.5944
       213.8424
 -14302226.72148 -11109638.25847  22414053.3084   22414053.2904   22414054.5384
     -1006.1594
 -16355798.01148 -12735562.69447  21974004.5204   21974004.8704   21974006.8144
     -2900.8214
 10  1  4  1 43 30.0000000  0 10G30G12G09G18G22G26G01G27G17G15
  -9708296.62747  -7543814.98146  24044154.0114   24044154.5804   24044158.0694
      3487.6424
 -22436496.24349 -17468799.27748  21408618.9894   21408618.9914   21408620.8124
      2142.6734
 -28913764.30249 -22312203.91448  19827360.7554   19827360.6424   19827363.1494
       568.8274
 -10624875.87247  -8239302.89146  23381522.8654   23381522.4764   23381525.2294
     -1682.2064
  -7247374.21047  -5632481.76646  23921372.5674   23921371.1274   23921372.3654
       -41.0914
 -12529212.00748  -9475669.67247  22266389.0834   22266389.4424   22266392.2664
      2902.6044
  -3106174.79747  -2412913.25646  24523948.4334   24523949.5184   24523951.0594
      3417.0034
 -22317136.35949 -17373500.24248  20862910.3874   20862910.1584   20862912.6934
       206.5464
 -14271765.49048 -11085902.22947  22419849.6964   22419850.2364   22419851.4844
     -1024.3724
 -16268603.98648 -12667619.29847  21990596.8784   21990597.0084   21990598.6604
     -2911.8994
 10  1  4  1 44  0.0000000  0 10G30G12G09G18G22G26G01G27G17G15
  -9812843.15047  -7625279.81946  24024259.6424   24024259.8944   24024263.5734
      3482.7144
 -22500583.99649 -17518737.77248  21396423.1804   21396423.3294   21396425.1144
      2130.2084
 -28930613.02949 -22325332.79348  19824154.7384   19824154.5304   19824156.9304
       554.7074
 -10574193.58747  -8199810.22746  23391167.4444   23391167.3114   23391170.7454
     -1695.9094
  -7245870.77547  -5631310.30546  23921660.3794   23921657.4954   23921658.8934
       -58.6174
 -12616083.90648  -9543362.04647  22249857.9164   22249858.0854   22249860.4614
      2889.1874
  -3208610.89047  -2492733.60646  24504455.6374   24504454.8334   24504458.3344
      3412.3564
 -22323210.92149 -17378233.66648  20861754.4364   20861754.2564   20861756.9694
       198.6854
 -14240750.06348 -11061734.36147  22425751.7264   22425751.8964   22425753.8654
     -1043.0794
 -16181062.36148 -12599405.04747  22007255.3964   22007255.5994   22007257.6534
     -2923.6954
 10  1  4  1 44 30.0000000  0 10G30G12G09G18G22G26G01G27G17G15
  -9917244.99747  -7706631.91246  24004392.5034   24004392.7304   24004396.1424
      3477.5434
 -22564299.63049 -17568386.30148  21384298.6704   21384298.7384   21384300.4364
      2117.8064
 -28947041.85349 -22338134.46848  19821028.3594   19821028.5174   19821030.6854
       540.8894
 -10523105.72547  -8160001.50346  23400889.3634   23400888.2234   23400890.5064
     -1709.2754
  -7243845.05747  -5629731.85246  23922045.0544   23922042.2414   23922043.0104
       -75.9304
 -12702560.16348  -9610746.13347  22233402.4064   22233402.3454   22233405.3634
      2876.1154
  -3310910.62947  -2572447.69146  24484987.6774   24484987.7014   24484991.2854
      3408.1584
 -22329052.27049 -17382785.36448  20860642.8404   20860642.6774   20860645.3044
       191.0644
 -14209177.44248 -11037132.30647  22431759.7614   22431759.8894   22431761.7024
     -1061.4104
 -16093171.46048 -12530918.62747  22023980.4124   22023980.9354   22023982.8004
     -2935.2314
 10  1  4  1 45  0.0000000  0 10G30G12G09G18G22G26G01G27G17G15
 -10021502.94447  -7787871.87046  23984553.3914   23984554.4464   23984556.0994
      3472.5174
 -22627644.31849 -17617745.77448  21372244.3824   21372244.9384   21372246.4704
      2105.0334
 -28963052.19649 -22350610.05548  19817981.9214   19817981.7694   19817984.1184
       526.4154
 -10471617.10447  -8119880.49446  23410687.6654   23410688.1654   23410688.9384
     -1723.1414
  -7241299.90948  -5627748.67946  23922530.3094   23922527.4584   23922527.5844
       -93.7574
 -12788640.08248  -9677821.38647  22217021.7094   22217021.0264   22217024.9524
      2862.3934
  -3413075.13647  -2652056.41446  24465547.0834   24465546.8244   24465550.3364
      3403.1054
 -22334661.85849 -17387156.46748  20859575.4604   20859575.4174   20859577.8804
       182.7964
 -14177051.31348 -11012098.95347  22437872.8974   22437873.4964   22437875.3124
     -1080.3604
 -16004935.57548 -12462163.39347  22040771.2424   22040771.4064   22040773.7014
     -2947.1744
 10  1  4  1 45 30.0000000  0 10G30G12G09G18G22G26G01G27G17G15
 -10125614.65747  -7868997.87246  23964741.3774   23964741.6354   23964744.5484
      3467.5304
 -22690616.76449 -17666815.19148  21360261.3304   21360261.2684   21360263.3504
      2092.8034
 -28978642.18449 -22362758.09148  19815014.9914   19815014.7374   19815017.6414
       512.5204
 -10419728.84547  -8079448.09246  23420559.9464   23420561.6494   23420562.7354
     -1736.4064
  -7238234.51647  -5625360.09546  23923113.3284   23923110.0054   23923110.9954
      -110.8994
 -12874319.84148  -9744584.83447  22200717.5354   22200717.4394   22200720.8094
      2849.1814
  -3515102.02847  -2731557.88546  24446131.9524   24446131.6494   24446133.9274
      3398.2744
 -22340037.91149 -17391345.60048  20858552.4354   20858552.3684   20858555.3624
       175.1824
 -14144371.39648 -10986634.07247  22444091.8084   22444092.3524   22444093.4374
     -1098.7964
 -15916355.83248 -12393140.22147  22057627.4524   22057627.9834   22057629.7184
     -2958.4334
 10  1  4  1 46  0.0000000  0 10G30G12G09G18G22G26G01G27G17G15
 -10229579.72847  -7950009.63546  23944957.1084   23944958.0014   23944960.9654
      3463.2004
 -22753217.01949 -17715594.58748  21348348.6484   21348348.9744   21348350.7474
      2080.2554
 -28993811.63649 -22374578.44048  19812128.4064   19812128.1464   19812130.7364
       498.5144
 -10367444.31147  -8038706.88946  23430511.1674   23430509.8284   23430513.1344
     -1749.7134
  -7234650.48547  -5622567.37246  23923792.1434   23923792.6094   23923793.2684
      -128.0064
 -12959597.09948  -9811034.64247  22184489.3154   22184490.1744   22184492.1704
      2835.8944
  -3616990.82247  -2810951.74846  24426742.3174   24426742.8624   24426746.5104
      3393.7334
 -22345180.26549 -17395352.62648  20857573.8664   20857573.7274   20857576.3564
       167.3684
 -14111139.47448 -10960739.05847  22450415.7644   22450415.7264   22450417.4954
     -1117.0504
 -15827434.65348 -12323850.98747  22074548.7594   22074548.9314   22074551.2074
     -2969.9074
 10  1  4  1 46 30.0000000  0 10G30G12G09G18G22G26G01G27G17G15
 -10333397.68347  -8030906.75246  23925201.8184   23925201.7424   23925205.6164
      3458.2194
 -22815445.62349 -17764084.38348  21336506.9864   21336507.2304   21336509.0074
      2068.0744
 -29008560.91749 -22386071.38248  19809321.8184   19809321.6414   19809324.1694
       484.6944
 -10314766.90447  -7997659.55246  23440534.9414   23440534.2514   23440534.6994
     -1762.4984
  -7230549.16347  -5619371.57646  23924574.0544   23924573.6534   23924574.5154
      -145.2424
 -13044470.10348  -9877169.44447  22168339.0804   22168338.2384   22168342.8764
      2822.3204
  -3718741.13347  -2890237.69146  24407380.0764   24407380.9174   24407383.1454
      3389.6794
 -22350089.10649 -17399177.69748  20856639.5734   20856639.4784   20856642.5324
       159.7574
 -14077357.47948 -10934415.42047  22456844.5434   22456844.5444   22456846.1294
     -1135.2314
 -15738175.35448 -12254298.28547  22091534.1794   22091534.3274   22091536.3274
     -2980.7904
 10  1  4  1 47  0.0000000  0 10G30G12G09G18G22G26G01G27G17G15
 -10437065.53947  -8111686.90546  23905474.5854   23905474.7264   23905477.0754
      3453.0184
 -22877299.77049 -17812282.40948  21324736.7604   21324736.7084   21324738.3544
      2055.3494
 -29022887.26549 -22397234.76948  19806595.4774   19806595.4204   19806597.7044
       470.3494
 -10261697.21447  -7956306.55046  23450633.8004   23450633.1614   23450636.0164
     -1775.8264
  -7225929.64947  -5615771.99146  23925452.6384   23925452.6114   23925453.8844
      -162.6174
 -13128934.12948  -9942985.56147  22152265.7054   22152266.1154   22152267.8824
      2808.5054
  -3820350.09047  -2969413.52546  24388045.0484   24388045.6304   24388048.8574
      3384.4064
 -22354761.99949 -17402818.91648  20855750.3624   20855750.3704   20855753.0494
       151.6404
 -14043025.10648 -10907662.91047  22463377.5964   22463377.9464   22463379.4104
     -1153.7564
 -15648578.26348 -12184482.37047  22108583.9014   22108584.1544   22108585.9344
     -2992.3344
 10  1  4  1 47 30.0000000  0 10G30G12G09G18G22G26G01G27G17G15
 -10540583.71047  -8192350.44346  23885775.1484   23885775.4254   23885779.3574
      3448.0744
 -22938780.98849 -17860189.83948  21313036.9094   21313037.2364   21313039.1264
      2043.0974
 -29036791.46849 -22408069.20948  19803949.6704   19803949.4444   19803951.9644
       456.3624
 -10208239.34247  -7914651.08746  23460806.3024   23460806.2884   23460808.1354
     -1788.2134
  -7220794.24747  -5611770.41046  23926431.8584   23926429.6694   23926431.2854
      -180.0184
 -13212988.00648 -10008482.09047  22136270.7684   22136270.7454   22136273.6144
      2794.8104
  -3921818.30747  -3048479.69246  24368736.4944   24368736.3804   24368739.6304
      3379.8124
 -22359199.94749 -17406277.05848  20854906.0074   20854905.7864   20854908.4754
       143.9084
 -14008145.17448 -10880483.73747  22470015.0304   22470015.5064   22470016.9024
     -1171.7634
 -15558646.93248 -12114406.00947  22125697.1914   22125697.4994   22125699.2454
     -3003.3964
 10  1  4  1 48  0.0000000  0 10G30G12G09G18G22G26G01G27G17G15
 -10643948.72847  -8272894.63246  23866105.6754   23866105.5004   23866108.8274
      3442.8544
 -22999885.98549 -17907804.09548  21301409.1664   21301409.2434   21301411.1934
      2030.4314
 -29050270.28449 -22418572.17448  19801384.6974   19801384.5734   19801387.1744
       442.1294
 -10154393.55247  -7872693.32046  23471052.8044   23471052.7264   23471054.4684
     -1801.5664
  -7215141.20047  -5607365.49046  23927507.6804   23927505.9284   23927505.9704
      -197.5154
 -13296626.43048 -10073654.87647  22120355.4184   22120355.0744   22120357.2574
      2780.6814
  -4023142.07947  -3127433.29146  24349454.9204   24349456.0864   24349457.7474
      3374.7964
 -22363399.80349 -17409549.68048  20854106.6584   20854106.4944   20854109.4184
       135.9344
 -13972716.05948 -10852876.61947  22476756.8364   22476756.8604   22476758.3754
     -1190.0624
 -15468381.11948 -12044069.01347  22142874.0084   22142873.9844   22142876.1964
     -3014.5854
 10  1  4  1 48 30.0000000  0 10G30G12G09G18G22G26G01G27G17G15
 -10747161.72947  -8353320.34846  23846464.5894   23846465.0994   23846467.5494
      3437.5444
 -23060616.82649 -17955126.79948  21289852.3424   21289852.6434   21289854.4204
      2017.7234
 -29063325.66349 -22428745.19248  19798900.3774   19798899.9674   19798902.7304
       427.7534
 -10100164.65747  -7830437.05746  23481371.4944   23481371.4644   23481373.3514
     -1814.4514
  -7208973.84847  -5602559.78846  23928676.0304   23928678.2394   23928680.5174
      -214.2184
 -13379849.28848 -10138503.85847  22104518.0804   22104518.0654   22104520.9344
      2766.7644
  -4124322.77647  -3206275.39046  24330201.4494   24330202.0924   24330204.4534
      3369.7494
 -22367363.43049 -17412638.22248  20853352.3894   20853352.3164   20853355.4214
       127.7954
 -13936741.69548 -10824844.64247  22483602.5424   22483602.8184   22483603.7694
     -1208.6374
 -15377785.45848 -11973474.99347  22160113.9694   22160114.0804   22160115.7304
     -3025.7184
 10  1  4  1 49  0.0000000  0 11G30G14G12G09G18G22G26G01G27G17G15
 -10850219.80747  -8433625.36546  23826853.7104   23826854.7964   23826855.9654
      3432.7064
   -318590.98817                  25070065.929
      3549.643
 -23120971.19249 -18002156.15448  21278367.4104   21278367.8354   21278369.2224
      2005.3204
 -29075955.01849 -22438586.24148  19796497.0824   19796496.9684   19796499.2924
       413.7684
 -10045553.72347  -7787883.09546  23491763.9544   23491763.7554   23491764.9664
     -1827.1674
  -7202291.32147  -5597352.66746  23929951.2144   23929950.1254   23929951.3454
      -231.4704
 -13462651.81248 -10203025.31747  22088761.2084   22088761.4004   22088765.1174
      2752.9284
  -4225357.53047  -3285003.77046  24310974.5404   24310975.0154   24310978.0344
      3365.2774
 -22371088.42249 -17415540.81248  20852643.6724   20852643.3664   20852646.2314
       120.0244
 -13900221.48748 -10796387.32447  22490552.1904   22490552.8834   22490553.5204
     -1226.5884
 -15286860.22148 -11902624.15947  22177416.2974   22177416.5324   22177418.7954
     -3036.3474
 10  1  4  1 49 30.0000000  0 11G30G14G12G09G18G22G26G01G27G17G15
 -10953124.30347  -8513810.71246  23807271.6084   23807272.7594   23807275.0974
      3427.4054
   -425042.430 7                  25049808.985
      3546.963
 -23180951.12649 -18048893.74448  21266953.6264   21266953.7884   21266955.5264
      1992.9774
 -29088160.17949 -22448096.75648  19794174.5004   19794174.4034   19794176.7994
       399.6344
  -9990565.92947  -7745035.46046  23502228.3914   23502228.3234   23502228.9304
     -1839.4034
  -7195096.88347  -5591746.63946  23931320.3164   23931320.4424   23931320.8314
      -248.0274
 -13545033.95548 -10267219.19047  22073084.3324   22073085.1494   22073088.1554
      2738.8584
  -4326247.49847  -3363619.32646  24291776.2794   24291776.7154   24291779.6394
      3360.3914
 -22374576.49649 -17418258.79248  20851979.8724   20851979.6334   20851982.5964
       112.2224
 -13863159.31348 -10767507.70047  22497604.9214   22497605.0124   22497606.4894
     -1244.6054
 -15195610.66948 -11831520.62047  22194780.6214   22194781.0274   22194782.8614
     -3047.1244
 10  1  4  1 50  0.0000000  0 11G30G14G12G09G18G22G26G01G27G17G15
 -11055870.26147  -8593872.51446  23787720.0584   23787720.5294   23787722.4614
      3421.9844
   -531390.29247   -345783.56345  25029570.6824   25029570.3034   25029571.5684
      3543.1794
 -23240552.41449 -18095336.28948  21255611.7034   21255611.9184   21255613.8194
      1980.3034
 -29099936.41349 -22457273.03848  19791933.6364   19791933.4844   19791936.0794
       385.4414
  -9935199.95947  -7701893.15546  23512762.8414   23512763.4494   23512765.3734
     -1851.8794
  -7187387.63747  -5585739.46646  23932788.1794   23932786.0804   23932786.9244
      -265.6784
 -13626989.03148 -10331080.28447  22057488.8714   22057488.5664   22057491.9804
      2724.6574
  -4426988.04547  -3442118.44446  24272605.3594   24272606.0494   24272608.8134
      3355.0424
 -22377823.32549 -17420788.78948  20851362.0344   20851361.8954   20851364.8724
       104.2334
 -13825552.48648 -10738203.66447  22504761.3504   22504761.5514   22504762.6544
     -1262.4254
 -15104034.55848 -11760162.61447  22212206.9004   22212207.5134   22212208.7924
     -3058.0734
 10  1  4  1 50 30.0000000  0 11G30G14G12G09G18G22G26G01G27G17G15
 -11158459.78547  -8673812.40846  23768197.2244   23768196.2394   23768201.5424
      3416.9744
   -637635.71847   -428572.20045  25009353.0434   25009354.2134   25009354.5574
      3539.3134
 -23299777.84349 -18141485.94848  21244341.5624   21244341.4114   21244343.5114
      1967.7754
 -29111286.51649 -22466117.26848  19789773.5844   19789773.3874   19789776.0104
       370.9904
  -9879461.99847  -7658460.98846  23523369.6064   23523369.7654   23523374.0534
     -1864.0714
  -7179167.41847  -5579334.13746  23934354.1734   23934351.5874   23934352.5564
      -282.8334
 -13708517.31548 -10394608.81747  22041974.5524   22041974.2264   22041978.1424
      2710.2344
  -4527581.18947  -3520502.70446  24253463.9374   24253464.2624   24253466.6974
      3350.9384
 -22380831.28849 -17423132.65648  20850789.6704   20850789.2304   20850792.4294
        96.0194
 -13787405.68848 -10708478.88147  22512020.1414   22512020.3884   22512022.2154
     -1280.7334
 -15012137.73448 -11688554.70847  22229694.5654   22229695.1274   22229696.7334
     -3068.7234
 10  1  4  1 51  0.0000000  0 11G30G14G12G09G18G22G26G01G27G17G15
 -11260890.83047  -8753628.81346  23748705.4564   23748706.1744   23748709.5734
      3411.2604
   -743775.53747   -511278.59645  24989155.4414   24989154.5334   24989156.3194
      3536.0674
 -23358626.12849 -18187341.73648  21233143.0544   21233143.1124   21233145.3134
      1955.0394
 -29122208.75249 -22474628.09548  19787695.2314   19787694.8804   19787697.6224
       356.6264
  -9823353.09447  -7614739.78046  23534048.0054   23534045.9784   23534050.4694
     -1876.7924
  -7170436.44147  -5572530.79846  23936014.9824   23936011.8524   23936013.0134
      -299.5044
 -13789615.32648 -10457802.07847  22026542.4094   22026541.4704   22026544.7844
      2695.5714
  -4628024.90847  -3598770.54446  24234349.1554   24234349.9554   24234352.4104
      3345.5404
 -22383598.96949 -17425289.28748  20850263.0224   20850262.8704   20850265.6194
        88.0094
 -13748719.40448 -10678333.71747  22519382.1254   22519382.1404   22519383.7684
     -1298.7164
 -14919921.23948 -11616697.70247  22247242.5464   22247243.2704   22247244.7484
     -3079.4394
 10  1  4  1 51 30.0000000  0 11G30G14G12G09G18G22G26G01G27G17G15
 -11363162.28347  -8833320.86346  23729244.1684   23729243.4484   23729246.5324
      3406.1094
   -849807.53846   -593900.98245  24968977.5014   24968976.9944   24968980.8844
      3532.0204
 -23417096.74049 -18232903.23348  21222016.2954   21222016.5504   21222018.4424
      1942.3314
 -29132702.23349 -22482804.82948  19785698.3514   19785698.0364   19785700.7044
       342.1144
  -9766876.25047  -7570731.87146  23544795.3594   23544793.9274   23544797.3794
     -1889.2464
  -7161195.58847  -5565330.20046  23937768.1134   23937770.4374   23937772.2644
      -317.2244
 -13870280.27948 -10520657.88947  22011192.6764   22011192.7104   22011194.8564
      2681.2524
  -4728317.84747  -3676920.89746  24215264.7694   24215264.7604   24215267.4384
      3340.0794
 -22386125.67149 -17427258.14748  20849782.1984   20849782.0634   20849784.7034
        79.7244
 -13709495.09748 -10647769.31547  22526845.9214   22526845.5954   22526848.9534
     -1317.0324
 -14827387.12848 -11544593.20347  22264851.2004   22264851.6734   22264853.7254
     -3090.2104
 10  1  4  1 52  0.0000000  0 11G30G14G12G09G18G22G26G01G27G17G15
 -11465271.39547  -8912886.42046  23709813.3424   23709813.6544   23709816.0644
      3400.9444
   -955727.66046   -676436.16945  24948823.3414   24948824.5984   24948825.1794
      3528.7554
 -23475187.99549 -18278169.12248  21210962.0394   21210962.0764   21210964.3174
      1930.0064
 -29142764.95849 -22490645.90748  19783783.5074   19783783.3714   19783785.6864
       328.2614
  -9710032.66647  -7526438.17846  23555612.2804   23555612.0264   23555614.5124
     -1901.0014
  -7151444.41847  -5557731.93546  23939626.6014   23939627.1224   23939626.5914
      -333.4644
 -13950508.13948 -10583173.09947  21995924.9364   21995925.6904   21995927.5924
      2667.1324
  -4828458.05847  -3754952.21746  24196208.3054   24196208.8344   24196211.4404
      3334.9254
 -22388409.20049 -17429037.52148  20849347.7234   20849347.3424   20849350.1484
        72.0474
 -13669732.32048 -10616785.32747  22534412.9444   22534413.2774   22534414.4714
     -1334.2814
 -14734536.34748 -11472241.95247  22282520.1514   22282520.1654   22282522.5324
     -3100.2144
 10  1  4  1 52 30.0000000  0 11G30G14G12G09G18G22G26G01G27G17G15
 -11567216.62047  -8992324.23446  23690414.0054   23690413.8574   23690417.4914
      3395.4914
  -1061533.18246   -758882.08245  24928688.0364   24928686.5894   24928691.6034
      3524.8964
 -23532898.32149 -18323138.18548  21199980.0934   21199980.2734   21199982.1414
      1917.3374
 -29152395.84749 -22498150.48748  19781950.7334   19781950.6324   19781953.3044
       313.8934
  -9652824.23147  -7481860.18846  23566499.3164   23566497.6434   23566499.5294
     -1913.1324
  -7141183.03047  -5549736.08846  23941580.2704   23941578.8924   23941579.2514
      -350.4024
 -14030295.45648 -10645345.04347  21980742.3814   21980742.3804   21980745.8864
      2652.1854
  -4928443.61947  -3832863.02746  24177182.1644   24177182.6204   24177184.9554
      3330.2524
 -22390448.39749 -17430626.50648  20848959.7024   20848959.6714   20848962.2634
        63.8984
 -13629432.30348 -10585382.70747  22542081.5894   22542081.9014   22542083.1434
     -1352.2224
 -14641370.68748 -11399645.34147  22300248.8534   22300249.4484   22300251.3724
     -3110.7414
 10  1  4  1 53  0.0000000  0 11G30G14G12G09G18G22G26G01G27G17G15
 -11669000.31747  -9071636.22346  23671045.5624   23671044.6824   23671048.5584
      3390.0954
  -1167225.28346   -841239.60945  24908576.4974   24908575.7514   24908576.8784
      3520.9814
 -23590231.44149 -18367813.31848  21189069.8364   21189070.0904   21189072.0294
      1904.5934
 -29161597.89149 -22505320.90648  19780199.6104   19780199.6224   19780201.8324
       299.3624
  -9595257.50347  -7437003.01946  23577453.8514   23577452.0854   23577455.1824
     -1925.2374
  -7130416.61547  -5541346.68146  23943627.4954   23943628.7604   23943629.1284
      -367.2004
 -14109643.26148 -10707174.50547  21965643.0604   21965643.6404   21965645.4364
      2637.3644
  -5028277.05747  -3910655.33446  24158184.6834   24158184.4774   24158187.1424
      3325.0194
 -22392246.24449 -17432027.42548  20848617.4754   20848617.2854   20848620.2954
        55.7064
 -13588600.03948 -10553565.35047  22549851.8524   22549852.1784   22549852.6774
     -1370.2994
 -14547896.08948 -11326807.99647  22318036.5914   22318036.7374   22318039.0284
     -3121.0284
 10  1  4  1 53 30.0000000  0 11G30G14G12G09G18G22G26G01G27G17G15
 -11770616.88547  -9150817.95946  23651708.6494   23651709.1584   23651711.6644
      3384.3394
  -1272796.79146   -923503.18545  24888486.8994   24888486.8014   24888490.3774
      3516.5074
 -23647182.08049 -18412190.41948  21178232.7144   21178232.9044   21178234.5924
      1891.6744
 -29170365.48449 -22512152.78948  19778531.3134   19778531.0194   19778533.5184
       284.6564
  -9537330.30847  -7391864.96346  23588474.8824   23588475.3494   23588477.5204
     -1937.1364
  -7119140.97947  -5532560.51046  23945772.6844   23945773.6994   23945774.8424
      -384.7344
 -14188543.95748 -10768655.57147  21950628.8994   21950628.6624   21950632.0484
      2622.0934
  -5127952.55347  -3988324.56146  24139216.7184   24139217.1804   24139220.0444
      3319.8194
 -22393797.11549 -17433235.89848  20848322.4564   20848322.5474   20848325.0034
        47.2244
 -13547231.98448 -10521330.49147  22557723.9194   22557724.2964   22557725.4814
     -1388.1314
 -14454109.82048 -11253727.79847  22335883.4684   22335884.1204   22335885.8404
     -3131.7944
 10  1  4  1 54  0.0000000  0 11G30G14G12G09G18G22G26G01G27G17G15
 -11872069.77547  -9229872.13146  23632402.6964   23632402.7194   23632405.6004
      3378.7614
  -1378250.04946  -1005674.61645  24868419.9274   24868418.5774   24868419.5714
      3513.1504
 -23703754.57049 -18456272.87048  21167467.3354   21167467.3754   21167469.0864
      1879.4244
 -29178702.64149 -22518649.26748  19776944.7134   19776944.4804   19776947.1604
       270.5344
  -9479050.04647  -7346451.79646  23599565.8484   23599565.6284   23599567.2984
     -1948.8754
  -7107361.82647  -5523381.97946  23948015.7004   23948015.8534   23948015.5574
      -401.8634
 -14266999.59648 -10829789.83847  21935698.9644   21935698.9734   21935701.0994
      2607.6814
  -5227473.52747  -4065873.37346  24120278.6474   24120278.7404   24120280.5494
      3314.8674
 -22395105.37449 -17434255.32148  20848073.2814   20848073.1694   20848075.8204
        39.4064
 -13505334.22748 -10488682.87347  22565696.4674   22565696.6034   22565698.2274
     -1405.4494
 -14360018.91448 -11180410.21347  22353788.5544   22353788.8054   22353790.5874
     -3141.7234
 10  1  4  1 54 30.0000000  0 11G30G14G12G09G18G22G26G01G27G17G15
 -11973355.36247  -9308795.94446  23613127.3374   23613129.3134   23613132.0814
      3372.8364
  -1483580.10546  -1087750.01345  24848377.1824   24848376.5264   24848378.3414
      3508.3624
 -23759946.03749 -18500058.40848  21156774.2134   21156774.5044   21156776.3314
      1866.2284
 -29186606.27149 -22524807.93248  19775440.8084   19775440.5594   19775443.1964
       255.8564
  -9420417.11847  -7300763.82446  23610723.7954   23610724.3474   23610726.4004
     -1960.3494
  -7095078.04847  -5513810.24446  23950353.0264   23950352.2384   23950354.4624
      -417.9264
 -14345004.81448 -10890573.11647  21920855.1984   21920855.0654   21920857.4354
      2592.1334
  -5326836.64047  -4143299.17546  24101370.6264   24101370.3534   24101373.3924
      3309.1474
 -22396167.77849 -17435083.16748  20847871.4654   20847871.0164   20847873.8234
        30.8914
 -13462906.02548 -10455621.92747  22573770.4764   22573770.6364   22573771.8164
     -1423.6194
 -14265623.20548 -11106855.11947  22371751.3894   22371751.4954   22371753.6384
     -3152.0364
 10  1  4  1 55  0.0000000  0 11G30G14G12G09G18G22G26G01G27G17G15
 -12074476.00747  -9387591.23646  23593885.0404   23593886.2614   23593888.3964
      3367.4094
  -1588788.38946  -1169730.48745  24828355.0014   24828353.9864   24828356.6194
      3504.5324
 -23815759.61949 -18543549.49148  21146153.1974   21146153.5494   21146155.1464
      1853.7094
 -29194078.93149 -22530630.78048  19774018.7664   19774018.4664   19774020.9584
       241.5874
  -9361437.72447  -7254805.87246  23621947.7614   23621944.8964   23621949.4354
     -1971.9674
  -7082293.71347  -5503848.44946  23952783.9434   23952785.1854   23952785.5224
      -435.0784
 -14422560.49748 -10951006.11447  21906096.8054   21906097.7404   21906099.8624
      2577.3254
  -5426044.14747  -4220603.72346  24082491.7094   24082491.8164   24082494.8154
      3304.1214
 -22396986.97549 -17435721.50548  20847715.3434   20847715.1544   20847718.2304
        22.8164
 -13419952.14248 -10422151.36647  22581944.5194   22581944.6214   22581945.9204
     -1440.7614
 -14170928.23748 -11033066.83547  22389771.3954   22389771.9204   22389773.3234
     -3161.6084
 10  1  4  1 55 30.0000000  0 11G30G14G12G09G18G22G26G01G27G17G15
 -12175424.64947  -9466252.50346  23574675.1724   23574675.4804   23574679.5704
      3361.7284
  -1693866.30446  -1251609.38745  24808361.0094   24808360.0154   24808363.8134
      3499.8934
 -23871189.03249 -18586741.21648  21135605.4724   21135605.8224   21135607.2004
      1840.8064
 -29201114.18049 -22536112.78948  19772679.8964   19772680.0284   19772682.4144
       226.8694
  -9302108.87047  -7208575.62246  23633238.1904   23633236.5544   23633238.3294
     -1983.8264
  -7069004.42847  -5493493.17346  23955314.2144   23955314.4914   23955316.3554
      -452.0604
 -14499658.12248 -11011082.17247  21891425.6654   21891425.6444   21891428.2994
      2561.9984
  -5525089.23047  -4297781.69946  24063643.5304   24063644.4844   24063647.3204
      3298.2324
 -22397556.50449 -17436165.29348  20847607.0244   20847606.8264   20847609.5134
        14.4594
 -13376468.33748 -10388267.87347  22590218.7754   22590218.4404   22590220.4994
     -1458.5884
 -14075930.49348 -10959042.62647  22407848.4964   22407848.9894   22407850.6294
     -3172.0364
 10  1  4  1 56  0.0000000  0 11G30G14G12G09G18G22G26G01G27G17G15
 -12276200.05947  -9544778.76846  23555498.3144   23555498.7324   23555501.5514
      3356.3084
  -1798811.71246  -1333385.00746  24788388.7594   24788388.7344   24788392.7214
      3495.8464
 -23926233.85449 -18629633.25948  21125130.7864   21125131.0914   21125132.6164
      1828.3574
 -29207711.42749 -22541253.49848  19771424.5284   19771424.1984   19771426.9374
       212.6024
  -9242432.89947  -7162074.89446  23644592.5854   23644592.6414   23644594.1604
     -1994.8854
  -7055211.19247  -5482745.22146  23957939.4704   23957937.5314   23957939.7254
      -468.1174
 -14576294.83348 -11070799.08847  21876842.3914   21876841.6594   21876845.0324
      2546.7374
  -5623971.04047  -4374832.47446  24044827.7994   24044828.2654   24044830.5834
      3293.2514
 -22397875.81549 -17436414.11248  20847546.2804   20847546.1414   20847549.0394
         6.4134
 -13332456.25748 -10353972.74047  22598594.0644   22598594.2194   22598596.1294
     -1475.7934
 -13980632.31748 -10884784.31147  22425983.1374   22425983.8684   22425985.4334
     -3181.4334
 10  1  4  1 56 30.0000000  0 11G30G14G12G09G18G22G26G01G27G17G15
 -12376805.17747  -9623172.33646  23536354.0814   23536355.0964   23536358.0304
      3350.5104
  -1903625.83746  -1415058.35146  24768443.6874   24768442.6334   24768444.2004
      3491.5204
 -23980897.88749 -18672228.57348  21114728.6214   21114728.7304   21114730.5124
      1815.6124
 -29213874.29749 -22546055.72848  19770251.7994   19770251.6924   19770254.1884
       198.0764
  -9182416.53447  -7115308.91146  23656014.2434   23656013.0814   23656015.4934
     -2006.2544
  -7040919.16447  -5471608.59946  23960659.7484   23960660.6084   23960660.2264
      -484.5024
 -14652472.04348 -11130157.94947  21862346.2304   21862346.1104   21862348.8074
      2531.4254
  -5722692.21447  -4451758.08346  24026041.8304   24026042.4854   24026044.6684
      3287.9614
 -22397947.92049 -17436470.30048  20847532.4624   20847532.3094   20847535.0684
        -1.8124
 -13287921.31248 -10319270.17847  22607069.1544   22607069.1154   22607070.4104
     -1493.4284
 -13885039.82948 -10810296.66447  22444174.0164   22444174.3704   22444176.0574
     -3191.2304
 10  1  4  1 57  0.0000000  0 11G30G14G12G09G18G22G26G01G27G17G15
 -12477236.61047  -9701430.56246  23517242.7404   23517243.0994   23517246.3874
      3345.1294
  -2008304.01647  -1496625.76946  24748524.9834   24748524.9594   24748526.9054
      3487.5364
 -24035178.61149 -18714525.21448  21104399.1034   21104399.5574   21104400.9714
      1803.3594
 -29219599.87549 -22550517.21748  19769162.1854   19769162.3134   19769164.7204
       183.8984
  -9122060.37247  -7068278.17446  23667500.2034   23667499.0794   23667500.8844
     -2017.1074
  -7026127.29647  -5460082.47646  23963475.8164   23963472.9394   23963473.6314
      -500.8834
 -14728184.65948 -11189154.78447  21847938.4824   21847938.3994   21847941.2034
      2516.2134
  -5821249.51147  -4528555.98346  24007286.7574   24007287.2964   24007290.3404
      3282.8584
 -22397769.89249 -17436331.57948  20847566.4624   20847566.1074   20847568.8254
        -9.6024
 -13242862.84548 -10284159.67447  22615643.2694   22615643.8114   22615644.6544
     -1510.2504
 -13789153.35548 -10735579.93247  22462420.6074   22462420.5474   22462422.6774
     -3200.7294
 10  1  4  1 57 30.0000000  0 11G30G14G12G09G18G22G26G01G27G17G15
 -12577493.47647  -9779552.77946  23498164.9654   23498164.0334   23498167.7034
      3338.8494
  -2112844.05447  -1578085.53646  24728631.8854   24728631.3244   24728633.0344
      3482.1674
 -24089075.67949 -18756522.90248  21094142.9724   21094143.1494   21094144.8394
      1789.9964
 -29224887.28549 -22554637.27148  19768156.0674   19768155.8864   19768158.6924
       168.7904
  -9061367.36047  -7020984.95546  23679048.8614   23679048.9854   23679051.7124
     -2028.9024
  -7010836.58447  -5448167.63946  23966382.1464   23966384.9374   23966383.9554
      -518.0334
 -14803430.28448 -11247787.72147  21833619.6174   21833620.0534   21833621.9844
      2500.2474
  -5919642.06447  -4605225.52846  23988562.8074   23988564.2584   23988566.8904
      3276.7194
 -22397341.33849 -17435997.64248  20847647.7974   20847647.9814   20847650.3964
       -18.5964
 -13197282.35248 -10248642.40347  22624316.8214   22624316.7434   22624319.2204
     -1528.0924
 -13692974.94648 -10660635.72147  22480722.7004   22480722.9794   22480724.7514
     -3210.9294
 10  1  4  1 58  0.0000000  0 11G30G14G12G09G18G22G26G01G27G17G15
 -12677576.44147  -9857539.49346  23479118.9754   23479119.8124   23479122.5564
      3333.0524
  -2217245.32246  -1659437.16546  24708764.3654   24708764.5304   24708765.1174
      3477.4654
 -24142590.50049 -18798222.73748  21083959.2254   21083959.6664   21083961.4014
      1777.2154
 -29229737.94749 -22558417.00348  19767232.9494   19767232.8714   19767235.3474
       154.2194
  -9000342.11247  -6973432.86546  23690660.4634   23690661.4464   23690663.9794
     -2040.0014
  -6995050.11747  -5435866.53746  23969388.4484   23969387.5164   23969388.0664
      -534.9454
 -14878208.26048 -11306056.26647  21819390.1384   21819390.4244   21819392.6234
      2484.4984
  -6017870.62847  -4681767.28646  23969870.7714   23969870.8244   23969874.5574
      3271.5054
 -22396663.38849 -17435469.36848  20847776.8854   20847776.7834   20847779.6364
       -26.9544
 -13151183.23048 -10212721.00647  22633089.1444   22633089.3004   22633090.6804
     -1545.4134
 -13596508.74848 -10585467.25747  22499079.5614   22499079.9374   22499081.9384
     -3220.5764
 10  1  4  1 58 30.0000000  0 11G30G14G12G09G18G22G26G01G27G17G15
 -12777481.88447  -9935387.87146  23460108.3024   23460108.6524   23460110.5744
      3327.5824
  -2321502.77546  -1740676.72546  24688924.0484   24688922.7404   24688925.2874
      3473.1694
 -24195720.25649 -18839622.51648  21073849.0584   21073849.0294   21073851.1074
      1764.9864
 -29234148.82149 -22561854.04448  19766393.7024   19766393.6354   19766396.0314
       140.0554
  -8938984.74847  -6925621.94446  23702338.1774   23702337.1144   23702339.5144
     -2050.1644
  -6978766.78547  -5423178.25146  23972485.8714   23972486.2374   23972486.9564
      -550.9864
 -14952513.17248 -11363956.18847  21805250.2554   21805250.6544   21805253.0284
      2469.3194
  -6115931.56147  -4758178.42346  23951210.8764   23951210.8044   23951214.6754
      3266.1264
 -22395732.79849 -17434744.23448  20847953.9804   20847953.6414   20847956.6094
       -34.9764
 -13104564.77848 -10176394.93447  22641960.3904   22641961.3704   22641962.1954
     -1562.3044
 -13499754.70148 -10510074.49747  22517491.2884   22517490.9884   22517493.4554
     -3229.5344
 10  1  4  1 59  0.0000000  0 11G30G14G12G09G18G22G26G01G27G17G15
 -12877210.89547 -10013098.76546  23441129.8774   23441129.5194   23441134.0284
      3321.2154
  -2425616.53447  -1821804.29646  24669112.3964   24669112.1444   24669112.7264
      3467.8974
 -24248467.13349 -18880723.95748  21063811.5664   21063811.9664   21063813.3714
      1751.6074
 -29238121.29649 -22564949.47548  19765637.7594   19765637.5924   19765640.3394
       125.0324
  -8877300.34547  -6877556.18146  23714075.8554   23714076.5404   23714077.3004
     -2061.6494
  -6961989.93547  -5410105.43146  23975680.1254   23975680.0614   23975679.9594
      -567.5594
 -15026344.61848 -11421487.18147  21791200.5544   21791200.5324   21791203.2364
      2452.9734
  -6213826.07047  -4834459.87346  23932582.0374   23932582.4584   23932585.9794
      3260.3784
 -22394551.06249 -17433823.40148  20848178.8594   20848179.1374   20848181.5964
       -43.7904
 -13057430.88648 -10139667.21447  22650929.7004   22650929.7264   22650931.2384
     -1579.7344
 -13402717.79948 -10434461.33047  22535956.6264   22535957.5914   22535959.3974
     -3239.4314
 10  1  4  1 59 30.0000000  0 11G30G14G12G09G18G22G26G01G27G17G15
 -12976759.75547 -10090669.26946  23422186.9754   23422187.4194   23422189.6554
      3315.4654
  -2529581.30047  -1902815.77546  24649328.6494   24649327.6154   24649329.0214
      3463.0984
 -24300828.17249 -18921524.74048  21053847.6804   21053847.8354   21053849.6184
      1739.0904
 -29241651.94149 -22567700.62648  19764965.9054   19764965.8854   19764968.0644
       110.5284
  -8815289.03747  -6829235.69846  23725876.9414   23725875.9614   23725877.6074
     -2072.2874
  -6944718.30447  -5396647.00646  23978967.1604   23978964.6234   23978966.8524
      -583.8254
 -15099697.29448 -11478645.08947  21777241.6724   21777242.1414   21777244.8444
      2437.3594
  -6311550.25047  -4910608.58446  23913985.4874   23913985.7824   23913988.9224
      3254.9144
 -22393114.96449 -17432704.36148  20848452.2144   20848451.9324   20848454.5154
       -51.9444
 -13009780.33148 -10102536.90147  22659997.1004   22659997.5364   22659999.3204
     -1596.6884
 -13305396.71848 -10358626.72447  22554476.4994   22554476.2814   22554478.4174
     -3248.4894
                            4  1
RINEX FILE SPLICE; other post-header comments skipped       COMMENT
 10  1  4  2  0  0.0000000  0 11G30G14G12G09G18G22G26G01G27G17G15
 -13076131.17747 -10168101.51246  23403276.6244   23403277.9284   23403279.3784
      3309.6774
  -2633398.29447  -1983712.13746  24629573.6584   24629572.1134   24629573.9464
      3457.8374
 -24352806.57649 -18962027.37148  21043956.5144   21043956.5704   21043958.4214
      1726.5574
 -29244743.99149 -22570110.01848  19764377.4754   19764377.4064   19764379.7914
        96.0254
  -8752957.47047  -6780665.68046  23737738.2104   23737737.3054   23737740.3614
     -2083.1094
  -6926956.60747  -5382806.75146  23982347.3754   23982346.2804   23982346.1604
      -599.7314
 -15172572.49548 -11535430.95347  21763374.3814   21763374.6644   21763376.8344
      2421.4934
  -6409107.17547  -4986626.97546  23895421.3674   23895421.9014   23895423.5024
      3249.3234
 -22391427.50349 -17431389.45848  20848773.2664   20848773.0774   20848775.6924
       -60.2324
 -12961618.62348 -10065008.29347  22669162.1314   22669162.3504   22669164.2724
     -1613.6214
 -13207797.98948 -10282575.77847  22573048.5124   22573048.8044   22573051.0754
     -3257.6704
 10  1  4  2  0 30.0000000  0 11G30G14G12G09G18G22G26G01G27G17G15
 -13175320.32147 -10245391.74046  23384401.6724   23384401.4554   23384405.2604
      3303.5254
  -2737061.20047  -2064488.41846  24609846.6684   24609844.7894   24609847.2824
      3452.9644
 -24404398.53449 -19002228.86648  21034138.8924   21034139.1484   21034140.7114
      1713.4764
 -29247393.38449 -22572174.48048  19763873.3994   19763873.0574   19763875.7794
        81.0254
  -8690304.79747  -6731845.42846  23749659.5734   23749658.9974   23749661.5394
     -2093.8284
  -6908702.47147  -5368582.74346  23985816.7674   23985818.0414   23985820.3884
      -616.7714
 -15244963.47548 -11591839.50147  21749598.5224   21749599.0434   21749601.7304
      2405.1064
  -6506492.05947  -5062511.29446  23876889.3434   23876889.8774   23876893.0194
      3243.4194
 -22389483.92449 -17429874.97648  20849143.2044   20849142.9334   20849145.8464
       -68.9794
 -12912943.67548 -10027079.75947  22678424.8444   22678425.0984   22678426.8674
     -1630.9704
 -13109920.14648 -10206307.33347  22591674.1814   22591674.6654   22591676.5624
     -3267.0864
 10  1  4  2  1  0.0000000  0 11G30G14G12G09G18G22G26G01G27G17G15
 -13274328.98047 -10322541.32546  23365560.9724   23365560.6734   23365565.2924
      3297.1944
  -2840570.52846  -2145145.05146  24590149.8254   24590147.0304   24590150.6224
      3447.7754
 -24455606.58349 -19042131.21748  21024394.3604   21024394.6064   21024396.2654
      1700.3234
 -29249602.42549 -22573895.81448  19763452.9804   19763452.9714   19763455.4694
        66.1554
  -8627336.17947  -6682778.99246  23761643.2894   23761640.3254   23761643.6094
     -2104.3904
  -6889960.15547  -5353978.37046  23989388.0284   23989384.2804   23989385.2734
      -632.9364
 -15316870.67248 -11647871.07347  21735915.1774   21735914.9564   21735917.6584
      2388.8254
  -6603706.55947  -5138262.86146  23858389.8984   23858391.0184   23858393.6914
      3237.5174
 -22387286.53449 -17428162.72848  20849561.2094   20849561.0534   20849564.1374
       -77.6184
 -12863759.92948  -9988754.76047  22687784.3144   22687784.5044   22687785.9884
     -1648.1314
 -13011768.61048 -10129825.62447  22610351.8894   22610352.9454   22610354.4024
     -3276.5674
 10  1  4  2  1 30.0000000  0 11G30G14G12G09G18G22G26G01G27G17G15
 -13373154.63947 -10399548.30346  23346754.9134   23346755.2464   23346758.0284
      3291.1934
  -2943922.33947  -2225678.93746  24570481.5414   24570482.1634   24570484.1674
      3442.4794
 -24506429.10649 -19081733.15948  21014722.9784   21014722.9264   21014725.0704
      1687.8344
 -29251368.87049 -22575272.26848  19763116.7694   19763116.4874   19763119.3554
        51.6364
  -8564053.52047  -6633467.83046  23773684.7164   23773684.3594   23773687.3214
     -2114.3624
  -6870729.36147  -5338993.34946  23993044.7844   23993046.9154   23993046.8864
      -648.9264
 -15388290.13848 -11703522.60847  21722324.5014   21722324.3764   21722327.3444
      2372.6874
  -6700748.22947  -5213879.75446  23839923.7324   23839924.2794   23839926.6354
      3231.9224
 -22384833.33749 -17426251.14748  20850028.1594   20850027.9084   20850030.6694
       -85.8964
 -12814067.98148  -9950033.75747  22697240.1414   22697240.1174   22697242.5644
     -1664.6574
 -12913344.29748 -10053131.36447  22629081.6664   22629081.9894   22629084.0514
     -3285.2204
 10  1  4  2  2  0.0000000  0 11G30G14G12G09G18G22G26G01G27G17G15
 -13471792.56447 -10476409.00246  23327984.6854   23327984.4634   23327987.9484
      3284.7634
  -3047110.46847  -2306085.26546  24550846.5844   24550846.5674   24550847.0114
      3436.6514
 -24556862.04949 -19121031.52648  21005125.9034   21005126.0044   21005127.7854
      1674.5344
 -29252688.49449 -22576300.54948  19762865.5874   19762865.6194   19762868.0364
        36.4734
  -8500455.69747  -6583911.11446  23785787.7574   23785787.0544   23785788.4564
     -2124.9104
  -6851007.83847  -5323625.93746  23996800.0734   23996797.0414   23996799.9904
      -665.5024
 -15459215.38748 -11758789.02347  21708827.8834   21708828.1154   21708830.7944
      2355.9584
  -6797612.32247  -5289358.26646  23821491.1784   23821492.1584   23821493.5244
      3225.7534
 -22382119.69449 -17424136.62048  20850544.5094   20850544.3944   20850547.2944
       -94.9224
 -12763865.43348  -9910914.89247  22706793.3824   22706793.0934   22706795.1824
     -1681.9544
 -12814645.55748  -9976223.25947  22647863.1784   22647862.8694   22647865.6854
     -3294.4134
 10  1  4  2  2 30.0000000  0 11G30G14G12G09G18G22G26G01G27G17G15
 -13570248.11347 -10553127.58046  23309248.9704   23309249.8204   23309252.1924
      3278.8424
  -3150138.57747  -2386366.91546  24531241.3954   24531241.0764   24531241.2764
      3431.6394
 -24606911.92249 -19160031.40548  20995601.8924   20995602.0834   20995603.7514
      1661.8584
 -29253567.10649 -22576985.18548  19762698.3784   19762698.2784   19762700.9644
        21.8854
  -8436551.94647  -6534116.00146  23797946.7334   23797947.0924   23797950.3034
     -2134.9874
  -6830803.68147  -5307882.46646  24000642.1654   24000642.2584   24000642.6564
      -681.5764
 -15529650.43448 -11813673.47847  21695424.6534   21695425.5024   21695426.8344
      2339.6644
  -6894304.38047  -5364702.72946  23803091.6894   23803091.5764   23803095.1164
      3220.3984
 -22379151.79349 -17421823.97148  20851109.1274   20851109.1264   20851111.8034
      -103.2564
 -12713160.72948  -9871404.72047  22716442.2184   22716442.1974   22716444.3954
     -1698.5564
 -12715681.00748  -9899108.03047  22666695.5544   22666696.0304   22666697.9214
     -3303.1594
 10  1  4  2  3  0.0000000  0 11G30G14G12G09G18G22G26G01G27G17G15
 -13668516.83748 -10629700.58946  23290549.7074   23290550.8874   23290552.5644
      3272.3264
  -3253001.35447  -2466519.72746  24511665.8394   24511664.7814   24511666.7624
      3425.8544
 -24656575.04349 -19198729.91248  20986151.1014   20986151.3574   20986152.8524
      1648.8704
 -29254000.76449 -22577323.10448  19762616.0824   19762615.7744   19762618.2204
         6.9914
  -8372342.54147  -6484082.69646  23810166.1544   23810164.8134   23810168.1064
     -2145.6834
  -6810114.87247  -5291761.32746  24004581.9494   24004577.8824   24004579.4444
      -697.9994
 -15599589.41748 -11868171.37847  21682115.4464   21682116.1504   21682118.3674
      2322.9864
  -6990819.96847  -5439909.66546  23784724.9664   23784725.7544   23784727.9614
      3213.9184
 -22375925.52849 -17419310.00248  20851723.2804   20851723.2064   20851725.8544
      -112.0444
 -12661952.57248  -9831502.26047  22726186.9754   22726186.7314   22726188.3904
     -1715.3864
 -12616450.28848  -9821785.39647  22685578.7664   22685578.9674   22685580.9194
     -3312.1174
 10  1  4  2  3 30.0000000  0 11G30G14G12G09G18G22G26G01G27G17G15
 -13766597.59647 -10706127.15046  23271885.1294   23271885.3924   23271888.7404
      3265.7794
  -3355696.16347  -2546541.64246  24492123.6694   24492124.5324   24492124.9084
      3419.7214
 -24705851.17949 -19237126.86748  20976774.2884   20976774.1424   20976775.9074
      1635.6514
 -29253989.00149 -22577313.93848  19762618.1554   19762618.1194   19762620.4224
        -8.1614
  -8307829.44247  -6433812.77446  23822442.7704   23822441.8454   23822443.4084
     -2155.7904
  -6788942.67547  -5275263.54346  24008610.3234   24008609.2844   24008611.0824
      -714.2304
 -15669029.66548 -11922280.67047  21668901.6454   21668901.5964   21668903.9224
      2306.0164
  -7087158.51247  -5514978.64746  23766392.3334   23766392.0434   23766396.0424
      3207.8944
 -22372439.99349 -17416594.00448  20852386.4254   20852386.1684   20852388.8774
      -121.0354
 -12610242.29548  -9791208.53447  22736027.0414   22736027.2874   22736028.0864
     -1732.4244
 -12516955.38648  -9744256.90447  22704511.7584   22704512.0184   22704514.2334
     -3321.3924
 10  1  4  2  4  0.0000000  0 11G30G14G12G09G18G22G26G01G27G17G15
 -13864490.31247 -10782407.17646  23253256.4614   23253256.0184   23253259.9514
      3259.8644
  -3458221.45447  -2626431.47046  24472614.5844   24472613.1954   24472614.3714
      3414.7344
 -24754741.28649 -19275223.02148  20967470.4824   20967470.6994   20967472.4774
      1623.3414
 -29253532.71049 -22576958.38948  19762705.2504   19762704.9764   19762707.4144
       -22.5154
  -8243016.81147  -6383309.44946  23834775.9584   23834774.3784   23834777.0434
     -2165.3424
  -6767289.46247  -5258390.94246  24012730.0634   24012731.1354   24012730.4004
      -729.6754
 -15737969.83048 -11976000.27647  21655782.7234   21655782.6264   21655785.5704
      2289.7284
  -7183319.61647  -5589909.37646  23748094.1754   23748093.8804   23748097.0654
      3202.4464
 -22368695.61549 -17413676.30748  20853098.9664   20853098.9984   20853101.4734
      -129.1174
 -12558032.82948  -9750525.82047  22745962.1094   22745961.9674   22745963.9424
     -1748.5214
 -12417199.74948  -9666525.24147  22723494.9154   22723495.3624   22723497.6234
     -3329.5764
 10  1  4  2  4 30.0000000  0 11G30G14G12G09G18G22G26G01G27G17G15
 -13962191.40648 -10858537.88246  23234664.7494   23234664.3214   23234668.8224
      3253.8994
  -3560572.00146  -2706185.11246  24453135.5134   24453134.4294   24453138.5824
      3409.1214
 -24803242.42049 -19313016.08248  20958241.0964   20958241.3184   20958242.8154
      1610.6744
 -29252628.33549 -22576253.67948  19762877.2444   19762876.9624   19762879.6244
       -37.1334
  -8177905.13447  -6332573.09146  23847166.9984   23847167.1004   23847168.5434
     -2174.9564
  -6745154.28547  -5241142.78046  24016944.3984   24016942.2404   24016942.7324
      -745.2904
 -15806404.75148 -12029326.19147  21642759.8384   21642760.5914   21642762.5114
      2273.1104
  -7279299.66347  -5664698.98546  23729829.0234   23729829.5504   23729832.0974
      3196.8574
 -22364689.16549 -17410554.39948  20853861.4844   20853861.1864   20853863.9244
      -137.4694
 -12505323.69048  -9709453.76447  22755992.2354   22755992.5244   22755994.0294
     -1764.9014
 -12317183.22548  -9588590.29047  22742526.7344   22742527.3774   22742529.8094
     -3337.7284
 10  1  4  2  5  0.0000000  0 11G30G14G12G09G18G22G26G01G27G17G15
 -14059703.03847 -10934520.96146  23216108.6834   23216108.6704   23216111.2184
      3247.1234
  -3662748.47847  -2785803.09746  24433694.3724   24433693.9224   24433695.6614
      3402.5854
 -24851357.52949 -19350508.35648  20949085.2364   20949085.5074   20949086.9534
      1597.2054
 -29251278.53549 -22575201.88348  19763134.0404   19763133.8004   19763136.4224
       -52.5294
  -8112500.58247  -6281608.52246  23859612.5864   23859611.8014   23859614.9904
     -2185.1454
  -6722541.55747  -5223522.48846  24021242.4144   24021243.0224   24021245.4814
      -761.7414
 -15874334.85348 -12082258.74047  21629833.0474   21629833.9704   21629835.4834
      2255.9754
  -7375101.13647  -5739349.44946  23711597.7824   23711598.1974   23711601.6904
      3190.6774
 -22360423.08349 -17407230.17848  20854673.1894   20854673.0094   20854675.8024
      -146.6304
 -12452119.38148  -9667995.85947  22766116.7554   22766116.6884   22766118.2354
     -1781.9494
 -12216911.25048  -9510456.28647  22761608.2284   22761608.3274   22761610.9554
     -3346.7014
 10  1  4  2  5 30.0000000  0 11G30G14G12G09G18G22G26G01G27G17G15
 -14157024.41947 -11010355.79346  23197589.1694   23197588.9774   23197592.9354
      3240.2834
  -3764748.83347  -2865283.87046  24414284.0044   24414282.2024   24414285.1524
      3396.7994
 -24899086.70349 -19387699.90048  20940002.5454   20940002.4354   20940004.4144
      1584.1664
 -29249483.15249 -22573802.88448  19763475.6834   19763475.5474   19763478.1234
       -67.6384
  -8046806.00447  -6230417.94946  23872113.9404   23872112.6534   23872115.9084
     -2195.3234
  -6699453.06347  -5205531.46746  24025638.7264   24025638.5014   24025637.8854
      -777.8024
 -15941757.98248 -12134796.24747  21617002.9974   21617003.2734   21617005.8194
      2238.6484
  -7470723.24147  -5813860.15946  23693402.1234   23693403.2364   23693405.2564
      3184.0904
 -22355896.94349 -17403703.31848  20855534.6424   20855534.4124   20855537.3644
      -155.4844
 -12398422.10548  -9626153.82347  22776335.0284   22776335.3234   22776337.0674
     -1798.3654
 -12116386.70148  -9432125.47747  22780737.5274   22780737.6824   22780739.7364
     -3355.3144
 10  1  4  2  6  0.0000000  0 11G30G14G12G09G18G22G26G01G27G17G15
 -14254151.33947 -11086039.09246  23179106.5194   23179107.3794   23179109.1044
      3234.4194
  -3866567.15646  -2944622.77846  24394908.0714   24394908.2904   24394911.2264
      3391.0194
 -24946426.97249 -19424588.40548  20930993.8604   20930994.1064   20930995.7274
      1571.7234
 -29247238.48249 -22572053.79548  19763902.9494   19763902.7034   19763904.9364
       -82.1344
  -7980821.20647  -6179001.22346  23884669.7134   23884669.7814   23884672.6714
     -2203.9354
  -6675887.50747  -5187168.73146  24030120.9474   24030123.4884   24030123.6494
      -793.3614
 -16008668.56848 -12186934.37547  21604270.8964   21604270.7864   21604273.1654
      2221.9264
  -7566161.89147  -5888227.90946  23675240.6684   23675241.3304   23675244.1754
      3178.7884
 -22351107.07049 -17399970.95348  20856445.9804   20856445.8964   20856448.2094
      -163.9234
 -12344230.74648  -9583926.78547  22786647.2414   22786647.8094   22786648.2114
     -1814.5364
 -12015608.51848  -9353597.02647  22799914.9684   22799915.5554   22799917.5104
     -3363.3614
 10  1  4  2  6 30.0000000  0 11G30G14G12G09G18G22G26G01G27G17G15
 -14351081.68747 -11161569.20546  23160661.3474   23160662.5224   23160664.0894
      3227.6474
  -3968200.15446  -3023817.29346  24375567.6794   24375567.7774   24375570.3424
      3384.9544
 -24993377.06749 -19461172.88048  20922059.7354   20922059.9414   20922061.5914
      1558.5934
 -29244543.23149 -22569953.59648  19764415.6984   19764415.6594   19764418.0554
       -97.2704
  -7914548.03647  -6127359.78846  23897281.6704   23897280.8984   23897285.1264
     -2213.3934
  -6651845.14247  -5168434.43646  24034701.1994   24034697.0864   24034698.2974
      -809.3004
 -16075063.13148 -12238670.39947  21591636.2474   21591636.3144   21591638.3094
      2204.6014
  -7661414.91847  -5962451.03146  23657115.2584   23657114.6304   23657117.6284
      3172.2694
 -22346051.58049 -17396031.61048  20857408.1164   20857407.9614   20857410.6384
      -172.9914
 -12289546.32648  -9541315.54547  22797053.2394   22797053.4244   22797054.9944
     -1831.0534
 -11914578.31748  -9274872.19547  22819140.0964   22819141.0524   22819142.4314
     -3371.8674
 10  1  4  2  7  0.0000000  0 11G30G14G12G09G18G22G26G01G27G17G15
 -14447820.07148 -11236949.75046  23142252.9844   23142252.9164   23142255.9924
      3221.6924
  -4069650.52147  -3102869.47346  24356261.6874   24356262.9624   24356265.2264
      3378.8494
 -25039942.51949 -19497457.63248  20913198.7764   20913198.7774   20913200.3484
      1545.8844
 -29241402.52249 -22567506.29048  19765013.4564   19765013.3154   19765015.7654
      -112.0254
  -7847994.93247  -6075500.22946  23909946.6974   23909945.0444   23909947.8384
     -2222.7884
  -6627332.76747  -5149333.92846  24039361.8094   24039362.0934   24039363.1684
      -824.5874
 -16140944.60748 -12290006.62047  21579099.5174   21579098.8954   21579102.1144
      2187.5824
  -7756487.03047  -6036533.16346  23639023.5724   23639023.5074   23639026.3384
      3166.3344
 -22340735.14549 -17391888.92948  20858419.8524   20858419.7154   20858422.5054
      -181.4034
 -12234376.01548  -9498325.68947  22807551.3324   22807551.6774   22807553.6854
     -1846.9724
 -11813303.86948  -9195957.04647  22838412.1164   22838412.8744   22838414.4034
     -3379.7514
 10  1  4  2  7 30.0000000  0 11G30G14G12G09G18G22G26G01G27G17G15
 -14544360.88447 -11312176.33846  23123881.6174   23123881.6384   23123884.0034
      3214.2754
  -4170911.48647  -3181774.09446  24336994.3564   24336994.4214   24336994.3074
      3371.7204
 -25086118.66749 -19533439.02148  20904411.4534   20904411.8494   20904413.2434
      1532.3974
 -29237811.32149 -22564707.95248  19765696.7244   19765696.5564   19765699.2024
      -127.6154
  -7781160.68747  -6023421.61446  23922663.8374   23922662.8184   23922665.9414
     -2232.6414
  -6602348.14347  -5129865.40246  24044118.6874   24044116.5494   24044117.2834
      -841.1634
 -16206306.38048 -12340937.86947  21566661.1904   21566661.4554   21566664.2384
      2169.7554
  -7851373.01647  -6110470.26547  23620967.4064   23620967.0914   23620970.6404
      3159.4954
 -22335152.93749 -17387539.15748  20859482.0314   20859482.0424   20859484.4924
      -190.8054
 -12178717.42648  -9454955.36047  22818143.3884   22818143.4804   22818145.4964
     -1863.7264
 -11711783.32248  -9116850.12647  22857731.1654   22857731.1464   22857734.0794
     -3388.4674
 10  1  4  2  8  0.0000000  0 11G30G14G12G09G18G22G26G01G27G17G15
 -14640705.43848 -11387249.98946  23105547.7874   23105547.5174   23105551.7184
      3208.4144
  -4271982.93047  -3260531.04546  24317760.8014   24317758.9614   24317762.5364
      3366.1114
 -25131907.52349 -19569118.62448  20895698.1574   20895698.4424   20895699.8914
      1520.1004
 -29233771.48249 -22561560.02248  19766465.4764   19766465.4054   19766467.9204
      -141.8754
  -7714050.52347  -5971127.96346  23935434.9454   23935434.6594   23935437.6604
     -2241.3624
  -6576894.88747  -5110031.73746  24048959.8064   24048961.3344   24048961.3294
      -855.6324
 -16271147.97648 -12391463.78647  21554322.5834   21554322.0954   21554325.1284
      2153.0374
  -7946074.07447  -6184263.26346  23602945.4544   23602946.0214   23602949.4214
      3153.9824
 -22329306.69449 -17382983.64348  20860594.5544   20860594.5714   20860596.9894
      -198.9524
 -12122574.84648  -9411207.89147  22828826.9404   22828827.0814   22828828.3364
     -1879.1994
 -11610021.17648  -9037554.94847  22877095.8394   22877096.3624   22877098.4934
     -3395.8364
 10  1  4  2  8 30.0000000  0 11G30G14G12G09G18G22G26G01G27G17G15
 -14736850.52047 -11462168.21646  23087252.0804   23087251.6824   23087254.5464
      3201.6484
  -4372859.89247  -3339136.44246  24298563.3944   24298563.0544   24298565.2364
      3359.6584
 -25177306.81449 -19604494.68548  20887059.2374   20887059.2974   20887060.7144
      1506.9784
 -29229280.07449 -22558060.22348  19767320.2674   19767319.9404   19767322.4904
      -157.0944
  -7646664.60847  -5918619.46046  23948257.8574   23948257.4854   23948260.1364
     -2250.6094
  -6550972.22747  -5089832.25746  24053894.0274   24053892.7044   24053892.5564
      -872.0964
 -16335464.83048 -12441580.81847  21542083.1514   21542083.3794   21542085.3854
      2135.2834
  -8040586.93647  -6257909.65946  23584961.4244   23584961.5944   23584963.6514
      3147.3864
 -22323192.98449 -17378219.71648  20861757.9764   20861757.7494   20861760.2774
      -208.0794
 -12065947.91448  -9367083.00647  22839602.3474   22839602.3144   22839604.0314
     -1895.4594
 -11508017.86548  -8958071.85547  22896506.4114   22896506.4044   22896508.3374
     -3404.0724
 10  1  4  2  9  0.0000000  0 11G30G14G12G09G18G22G26G01G27G17G15
 -14832797.87848 -11536932.35346  23068994.5474   23068993.8654   23068997.8444
      3194.6544
  -4473542.53547  -3417590.40046  24279405.0594   24279406.2194   24279406.3554
      3352.3694
 -25222319.93649 -19639569.82148  20878493.1684   20878493.3214   20878494.9804
      1493.7504
 -29224339.45149 -22554210.38648  19768260.1944   19768260.3054   19768262.3864
      -172.3644
  -7579008.93647  -5865900.75246  23961134.2114   23961133.1584   23961134.8234
     -2259.9284
  -6524584.35847  -5069270.35246  24058915.8604   24058914.6704   24058916.8794
      -887.7364
 -16399257.23648 -12491289.18947  21529943.7884   21529944.5204   21529946.5084
      2117.5524
  -8134913.36947  -6331410.76147  23567011.3284   23567011.2504   23567014.3704
      3140.8964
 -22316814.09549 -17373249.15448  20862971.7654   20862971.6104   20862974.1544
      -217.3064
 -12008841.05548  -9322584.15147  22850469.7484   22850469.5584   22850471.3954
     -1911.7754
 -11405778.21848  -8878404.60347  22915961.9324   22915961.9864   22915964.3034
     -3412.0644
 10  1  4  2  9 30.0000000  0 11G30G14G12G09G18G22G26G01G27G17G15
 -14928542.15948 -11611538.26446  23050773.8024   23050773.9284   23050777.0424
      3188.0234
  -4574023.72547  -3495887.40846  24260283.7724   24260282.5584   24260283.7434
      3345.9804
 -25266941.15949 -19674339.57948  20870002.2954   20870002.5654   20870003.9814
      1480.8524
 -29218944.91949 -22550006.85548  19769286.8574   19769286.8424   19769289.2404
      -187.4854
  -7511081.90247  -5812970.59346  23974057.7894   23974057.9004   23974061.1054
     -2268.8504
  -6497728.98547  -5048344.10846  24064021.2384   24064025.5444   24064026.3354
      -903.0184
 -16462518.46348 -12540583.65047  21517905.6834   21517905.7754   21517908.5664
      2099.8194
  -8229048.30047  -6404762.61447  23549097.4704   23549097.6684   23549100.5184
      3134.5244
 -22310165.01049 -17368068.05048  20864237.0504   20864236.7164   20864239.5904
      -226.1744
 -11951252.04048  -9277709.58847  22861428.0414   22861428.7804   22861429.9184
     -1927.8114
 -11303300.39948  -8798551.75947  22935462.5634   22935462.6444   22935464.8404
     -3419.8834
 10  1  4  2 10  0.0000000  0 11G30G14G12G09G18G22G26G01G27G17G15
 -15024087.67848 -11685989.28846  23032592.5394   23032593.5404   23032595.6534
      3181.5844
  -4674306.67947  -3574029.95046  24241201.0404   24241201.4234   24241203.5294
      3339.6764
 -25311176.74949 -19708808.85748  20861584.4884   20861584.4534   20861586.2364
      1468.2454
 -29213101.44749 -22545453.50048  19770398.9534   19770398.8264   19770401.2624
      -202.0384
  -7442892.24647  -5759835.81046  23987034.1044   23987034.1204   23987037.0274
     -2277.2144
  -6470413.15047  -5027059.10246  24069221.7084   24069222.1604   24069226.4714
      -917.8554
 -16525251.65448 -12589466.65747  21505968.0254   21505968.5254   21505970.0224
      2082.4514
  -8322996.14247  -6477968.70447  23531220.6844   23531220.1574   23531223.0424
      3128.7004
 -22303250.79049 -17362680.34748  20865552.8344   20865552.6564   20865555.1414
      -234.6814
 -11893188.30948  -9232465.11347  22872477.7274   22872478.3384   22872479.4204
     -1943.1654
 -11200592.47548  -8718519.61447  22955007.7304   22955007.7214   22955010.2864
     -3427.1914
 10  1  4  2 10 30.0000000  0 11G30G14G12G09G18G22G26G01G27G17G15
 -15119430.86247 -11760282.66146  23014449.3434   23014450.3154   23014451.6784
      3174.7274
  -4774386.27047  -3652014.02346  24222155.6714   24222155.2214   24222157.4044
      3332.2844
 -25355023.64749 -19742975.25348  20853240.6204   20853240.6614   20853242.3134
      1454.9954
 -29206806.08549 -22540548.02548  19771596.8744   19771596.8384   19771599.3174
      -217.4904
  -7374440.40947  -5706496.72746  24000061.2234   24000061.0344   24000062.2884
     -2286.2344
  -6442635.77747  -5005414.43446  24074508.0444   24074511.2094   24074508.2844
      -933.6644
 -16587451.50348 -12637934.07047  21494131.6964   21494131.6924   21494134.0654
      2064.3534
  -8416753.38747  -6551026.28747  23513378.6124   23513378.5114   23513381.4794
      3122.0044
 -22296067.84049 -17357083.24448  20866919.5774   20866919.3044   20866922.2924
      -243.8584
 -11834649.18748  -9186850.20247  22883617.4854   22883617.7524   22883619.1084
     -1959.4454
 -11097654.23248  -8638307.99547  22974595.8614   22974596.3514   22974598.0564
     -3435.1904
 10  1  4  2 11  0.0000000  0 11G30G14G12G09G18G22G26G01G27G17G15
 -15214568.71748 -11834416.05546  22996345.2414   22996345.3124   22996348.5034
      3167.6124
  -4874257.81747  -3729835.97346  24203151.2124   24203150.2784   24203152.8844
      3325.3084
 -25398479.91549 -19776837.26848  20844971.0554   20844971.4494   20844972.7184
      1441.9414
 -29200056.29349 -22535288.44648  19772881.2304   19772881.1124   19772883.4534
      -232.7124
  -7305726.91947  -5652953.73646  24013135.7554   24013135.2504   24013137.2704
     -2295.3084
  -6414396.59247  -4983409.92346  24079884.0944   24079880.5334   24079884.0654
      -948.8384
 -16649113.87348 -12685982.66947  21482397.4994   21482397.6414   21482400.2684
      2046.3014
  -8510316.87748  -6623932.87247  23495574.0044   23495574.6414   23495576.6704
      3115.3174
 -22288613.40649 -17351274.59448  20868338.2004   20868338.0064   20868340.4244
      -253.1254
 -11775634.86848  -9140865.01247  22894847.1174   22894847.9044   22894849.2564
     -1975.2684
 -10994485.92948  -8557917.11147  22994228.0994   22994228.3164   22994230.3064
     -3442.8584
 10  1  4  2 11 30.0000000  0 11G30G14G12G09G18G22G26G01G27G17G15
 -15309500.82548 -11908389.10446  22978280.0694   22978280.3974   22978282.2054
      3160.6614
  -4973919.29247  -3807494.23846  24184186.5954   24184186.0324   24184188.4104
      3318.5134
 -25441546.26249 -19810395.45148  20836775.8844   20836775.9754   20836777.8554
      1428.8884
 -29192852.16249 -22529674.83648  19774252.2804   19774252.1404   19774254.5764
      -247.8424
  -7236755.59447  -5599209.85446  24026260.0334   24026261.0334   24026263.7434
     -2303.1554
  -6385697.86047  -4961047.31046  24085343.4494   24085344.1224   24085345.1494
      -964.2914
 -16710237.19948 -12733611.23247  21470766.5594   21470766.8394   21470769.3084
      2028.3624
  -8603686.45647  -6696688.37647  23477806.4244   23477806.5214   23477809.2604
      3108.8904
 -22280887.41349 -17345254.33948  20869808.6024   20869808.4184   20869811.0494
      -262.2254
 -11716147.70348  -9094511.37347  22906167.2664   22906167.0764   22906168.9734
     -1990.8734
 -10891090.88848  -8477349.54947  23013903.5194   23013903.4324   23013906.4054
     -3450.3874
 10  1  4  2 12  0.0000000  0 11G30G14G12G09G18G22G26G01G27G17G15
 -15404228.52848 -11982202.88147  22960254.2524   22960253.2614   22960257.1004
      3154.0884
  -5073370.66747  -3884988.78646  24165261.5284   24165260.2264   24165261.8414
      3311.5054
 -25484224.92349 -19843651.53248  20828654.2604   20828654.4744   20828656.2364
      1416.0514
 -29185195.66449 -22523708.73348  19775709.2174   19775709.0544   19775711.3484
      -262.8004
  -7167531.47147  -5545268.95446  24039434.0004   24039432.4474   24039436.2714
     -2311.6474
  -6356543.62347  -4938329.75346  24090894.4044   24090892.8404   24090893.4674
      -979.6134
 -16770821.19648 -12780819.53847  21459237.6214   21459238.1744   21459239.7744
      2010.4634
  -8696863.61847  -6769293.93447  23460074.8364   23460076.1324   23460078.0474
      3102.6834
 -22272891.39649 -17339023.67548  20871329.9524   20871329.7534   20871332.4584
      -271.1124
 -11656192.03948  -9047792.67147  22917576.4504   22917576.2644   22917577.9944
     -2006.5554
 -10787473.39748  -8396608.64747  23033621.5694   23033621.8624   23033623.9384
     -3457.6764
 10  1  4  2 12 30.0000000  0 11G30G14G12G09G18G22G26G01G27G17G15
 -15498751.25548 -12055856.95647  22942266.6174   22942267.9404   22942268.8084
      3147.2564
  -5172609.17847  -3962317.47546  24146377.4014   24146376.2534   24146378.2794
      3304.2174
 -25526516.23049 -19876605.78848  20820606.5604   20820606.6364   20820608.2904
      1403.1884
 -29177086.97249 -22517390.27148  19777252.3094   19777252.2964   19777254.5924
      -277.8724
  -7098058.15347  -5491133.91246  24052654.4074   24052655.6114   24052657.0474
     -2320.2074
  -6326935.98047  -4915258.90546  24096527.6224   24096525.8614   24096526.3984
      -994.2864
 -16830863.71748 -12827605.91247  21447811.7274   21447811.9554   21447813.9654
      1992.3544
  -8789847.80447  -6841749.12247  23442381.4114   23442381.1414   23442384.1564
      3096.1574
 -22264625.15549 -17332582.45048  20872902.8844   20872902.9954   20872905.7024
      -280.1214
 -11595770.55448  -9000710.99247  22929074.5234   22929074.1894   22929076.1964
     -2021.9524
 -10683636.34948  -8315696.66447  23053381.0124   23053380.9234   23053383.4044
     -3464.7304
 10  1  4  2 13  0.0000000  0 11G30G14G12G09G18G22G26G01G27G17G15
 -15593064.12248 -12129347.48447  22924319.5184   22924319.2354   22924323.0004
      3140.0214
  -5271628.54447  -4039475.42046  24127533.5934   24127533.2814   24127536.3794
      3296.7854
 -25568416.24649 -19909255.14048  20812633.3424   20812633.5374   20812635.0014
      1389.8084
 -29168521.64849 -22510715.99348  19778882.2804   19778882.0694   19778884.3204
      -293.3564
  -7028334.66647  -5436803.94346  24065921.9114   24065921.8064   24065922.5974
     -2328.5234
  -6296872.91647  -4891833.16046  24102249.1654   24102245.2234   24102247.0934
     -1009.8464
 -16890358.90748 -12873965.80247  21436490.6464   21436490.1674   21436492.9794
      1973.7324
  -8882634.15647  -6914050.14447  23424724.1684   23424724.1854   23424727.2214
      3089.3584
 -22256084.28049 -17325927.22248  20874528.4594   20874528.4114   20874530.7914
      -289.5854
 -11534881.24048  -8953264.77347  22940661.3154   22940661.6044   22940663.3864
     -2037.6004
 -10579578.44148  -8234612.57647  23073182.7004   23073183.6434   23073185.2834
     -3472.4704
 10  1  4  2 13 30.0000000  0 11G30G14G12G09G18G22G26G01G27G17G15
 -15687168.89348 -12202675.86247  22906412.3634   22906412.3984   22906414.6884
      3133.1634
  -5370429.44847  -4116463.11746  24108732.0654   24108730.3174   24108734.3034
      3289.4724
 -25609927.95449 -19941601.90748  20804733.8104   20804733.8754   20804735.6824
      1376.9144
 -29159502.45849 -22503688.05548  19780598.4674   19780598.2674   19780600.7884
      -308.5504
  -6958366.88947  -5382283.62146  24079236.9794   24079235.4244   24079239.2164
     -2336.4024
  -6266359.20047  -4868056.28846  24108053.3384   24108051.2114   24108052.4514
     -1024.9514
 -16949307.39748 -12919899.69447  21425273.0874   21425273.8854   21425275.5074
      1955.3274
  -8975224.96347  -6986198.80947  23407104.9874   23407104.6604   23407108.8524
      3082.8004
 -22247271.09049 -17319059.80348  20876205.4334   20876205.2244   20876207.9614
      -298.6114
 -11473529.11948  -8905457.92347  22952335.7334   22952335.7444   22952337.9364
     -2052.8594
 -10475305.44148  -8153360.88847  23093025.0494   23093024.2564   23093027.7314
     -3479.6794
 10  1  4  2 14  0.0000000  0 11G30G14G12G09G18G22G26G01G27G17G15
 -15781062.89148 -12275839.98447  22888544.5944   22888544.8244   22888548.1254
      3126.3324
  -5469007.70947  -4193277.31646  24089973.4924   24089973.2004   24089976.0934
      3282.2444
 -25651049.78349 -19973644.86948  20796908.5604   20796908.8304   20796910.4074
      1364.3584
 -29150027.10849 -22496304.66848  19782401.5274   19782401.4584   19782403.7714
      -323.3524
  -6888156.42447  -5327574.15246  24092597.8604   24092597.8424   24092600.1524
     -2344.2694
  -6235394.83647  -4843928.26846  24113946.4874   24113944.4294   24113946.1794
     -1039.6054
 -17007705.09248 -12965404.39147  21414160.2214   21414160.7344   21414163.2674
      1937.4284
  -9067617.41047  -7058192.89947  23389522.7394   23389522.8764   23389527.1184
      3076.5844
 -22238183.22949 -17311978.35748  20877934.8084   20877934.5874   20877937.3394
      -307.4914
 -11411714.79348  -8857290.91347  22964098.8934   22964099.3904   22964101.0664
     -2068.1254
 -10370817.64648  -8071941.83147  23112908.1844   23112908.4354   23112910.8534
     -3486.3934
 10  1  4  2 14 30.0000000  0 11G30G14G12G09G18G22G26G01G27G17G15
 -15874746.81048 -12348840.41747  22870717.5614   22870717.8094   22870720.4534
      3119.2494
  -5567361.86247  -4269916.91946  24071257.3534   24071257.0824   24071258.2104
      3274.6724
 -25691783.20949 -20005385.17948  20789157.3044   20789157.7264   20789158.9934
      1351.2274
 -29140096.75249 -22488566.73348  19784291.2454   19784291.2174   19784293.4914
      -338.6244
  -6817707.31647  -5272678.72546  24106004.0124   24106003.6214   24106005.9284
     -2352.5464
  -6203983.08447  -4819451.62046  24119924.8054   24119924.8624   24119922.3934
     -1054.4824
 -17065551.27548 -13010479.33547  21403152.3114   21403152.3234   21403154.4404
      1918.8764
  -9159812.13747  -7130032.93147  23371978.8014   23371979.3604   23371982.2734
      3069.5894
 -22228821.14949 -17304683.23348  20879716.2864   20879716.0944   20879718.8564
      -316.7254
 -11349441.61448  -8808766.34947  22975949.2464   22975949.2374   22975951.6004
     -2083.6004
 -10266119.10548  -7990358.55047  23132831.7714   23132832.5694   23132832.9134
     -3493.4294
 10  1  4  2 15  0.0000000  0 11G30G14G12G09G18G22G26G01G27G17G15
 -15968218.65248 -12421675.61047  22852930.1724   22852930.1464   22852933.1124
      3112.1944
  -5665487.82647  -4346378.69346  24052584.5934   24052584.3704   24052587.2344
      3267.0764
 -25732127.27549 -20036822.09648  20781479.9394   20781480.2124   20781481.5614
      1338.3854
 -29129709.99349 -22480473.15948  19786267.7214   19786267.6814   19786270.3124
      -353.7804
  -6747021.78747  -5217599.07946  24119453.4734   24119451.7184   24119456.1904
     -2360.1234
  -6172124.85447  -4794627.05046  24125986.7354   24125986.5054   24125989.9474
     -1069.2164
 -17122842.62748 -13055121.94947  21392250.2104   21392250.3694   21392252.9174
      1900.3834
  -9251807.26047  -7201717.42247  23354472.7074   23354473.0214   23354476.4564
      3063.1654
 -22219183.40449 -17297173.30548  20881550.3064   20881550.1044   20881552.9764
      -325.9394
 -11286710.65248  -8759885.07547  22987886.2354   22987886.4034   22987888.0394
     -2098.5694
 -10161211.46348  -7908612.33747  23152795.2834   23152795.7114   23152797.6604
     -3500.4074
 10  1  4  2 15 30.0000000  0 11G30G14G12G09G18G22G26G01G27G17G15
 -16061477.84848 -12494345.10547  22835183.8574   22835184.3074   22835186.1834
      3105.0114
  -5763384.44347  -4422661.74746  24033955.3344   24033954.6454   24033956.8614
      3259.1614
 -25772082.29449 -20067955.86048  20773876.6344   20773876.6994   20773878.4104
      1325.1904
 -29118867.14249 -22472024.18748  19788331.0964   19788331.2184   19788333.5744
      -369.1534
  -6676103.31347  -5162337.93446  24132949.3044   24132948.9574   24132951.8354
     -2368.7774
  -6139822.85547  -4769456.69546  24132133.7014   24132133.2064   24132132.8194
     -1084.2324
 -17179577.57748 -13099330.99847  21381454.0964   21381454.1664   21381457.4364
      1881.7134
  -9343602.31248  -7273246.00147  23337004.8174   23337005.3434   23337007.4834
      3056.3884
 -22209269.97049 -17289448.55548  20883436.7634   20883436.7014   20883439.4844
      -335.1644
 -11223524.52248  -8710649.11947  22999910.6554   22999911.7394   22999912.1234
     -2113.9304
 -10056097.62748  -7826705.45047  23172797.3324   23172797.5144   23172800.0424
     -3507.4024
 10  1  4  2 16  0.0000000  0 11G30G14G12G09G18G22G26G01G27G17G15
 -16154523.92148 -12566848.51747  22817477.4554   22817477.6174   22817480.9804
      3097.5274
  -5861049.17447  -4498764.10046  24015370.4854   24015369.5544   24015372.9684
      3251.0104
 -25811648.94049 -20098786.99548  20766347.5194   20766347.7204   20766349.1834
      1311.9254
 -29107568.22049 -22463219.83748  19790481.2944   19790481.1034   19790483.6414
      -384.6954
  -6604955.41047  -5106898.02546  24146488.1474   24146489.5724   24146491.1174
     -2375.8024
  -6107079.11547  -4743942.10546  24138364.3084   24138364.4154   24138362.3644
     -1099.3044
 -17235754.22448 -13143105.00747  21370763.7744   21370764.2004   21370766.6514
      1862.6844
  -9435196.92648  -7344618.42647  23319575.4364   23319575.6154   23319577.0314
      3049.3574
 -22199080.47249 -17281508.68848  20885375.7864   20885375.7234   20885378.3564
      -344.6684
 -11159885.87348  -8661060.54847  23012020.7124   23012021.1234   23012021.6804
     -2129.1614
  -9950780.47448  -7744640.13947  23192838.9314   23192839.2384   23192840.6994
     -3514.3064
 10  1  4  2 16 30.0000000  0 11G30G14G12G09G18G22G26G01G27G17G15
 -16247352.71148 -12639182.63547  22799812.9644   22799813.4644   22799814.3814
      3090.6094
  -5958476.37047  -4574681.37746  23996831.0304   23996830.8374   23996832.4404
      3243.5114
 -25850824.59649 -20129313.46848  20758892.7714   20758892.7264   20758894.3754
      1299.2664
 -29095809.84249 -22454057.46548  19792718.7994   19792718.8344   19792721.0184
      -399.7224
  -6533577.75947  -5051279.07846  24160070.3124   24160072.4864   24160073.8034
     -2382.9404
  -6073891.83147  -4718081.95946  24144678.2994   24144678.5424   24144681.5314
     -1113.7544
 -17291366.98548 -13186439.62647  21360181.2404   21360181.1174   21360183.4984
      1844.2364
  -9526587.02147  -7415831.48447  23302184.3794   23302185.2584   23302186.9494
      3042.9004
 -22188610.94249 -17273350.61648  20887367.9064   20887367.9314   20887370.5684
      -353.7454
 -11095793.79348  -8611118.66247  23024216.9144   23024216.6044   23024218.5544
     -2144.1534
  -9845259.03448  -7662415.63847  23212918.6934   23212919.5834   23212922.0014
     -3520.8344
 10  1  4  2 17  0.0000000  0 11G30G14G12G09G18G22G26G01G27G17G15
 -16339967.55048 -12711350.03147  22782189.0884   22782188.7614   22782191.9834
      3083.3324
  -6055667.75147  -4650414.94046  23978337.0084   23978335.5574   23978337.9874
      3235.7844
 -25889612.98649 -20159538.17548  20751511.3384   20751511.7264   20751513.1824
      1286.2174
 -29083596.02249 -22444540.20548  19795043.1694   19795042.9164   19795045.2054
      -414.9834
  -6461977.63147  -4995486.75046  24173696.0894   24173695.6884   24173698.2154
     -2390.4444
  -6040268.03947  -4691881.61646  24151079.9944   24151079.6974   24151076.7334
     -1128.4894
 -17346418.44348 -13229336.86447  21349705.0194   21349705.5294   21349707.5604
      1825.4204
  -9617776.49347  -7486888.16747  23284830.9024   23284831.4184   23284833.3024
      3035.9004
 -22177865.29849 -17264977.39148  20889412.8484   20889412.5324   20889415.6254
      -363.1144
 -11031254.60048  -8560828.38047  23036498.2034   23036498.2144   23036500.1524
     -2159.2054
  -9739540.70248  -7580037.72347  23233036.1924   23233036.7264   23233038.9304
     -3527.6324
 10  1  4  2 17 30.0000000  0 11G30G14G12G09G18G22G26G01G27G17G15
 -16432365.04848 -12783348.06947  22764605.7444   22764606.1914   22764609.7234
      3076.1384
  -6152617.83147  -4725960.42746  23959887.4934   23959887.4604   23959888.8914
      3227.6474
 -25928011.56449 -20189459.13148  20744204.4504   20744204.6954   20744206.1044
      1273.3244
 -29070923.85349 -22434665.78748  19797454.5234   19797454.2904   19797456.7444
      -430.2224
  -6390155.68447  -4939521.63346  24187364.0224   24187362.8224   24187363.6684
     -2397.8824
  -6006206.78747  -4665340.39746  24157558.4384   24157560.2794   24157561.3684
     -1142.7864
 -17400903.56148 -13271792.80447  21339336.7634   21339336.8764   21339339.1804
      1806.6584
  -9708761.48247  -7557785.53347  23267517.0404   23267517.5244   23267519.8134
      3029.2884
 -22166839.97249 -17256386.23448  20891510.9284   20891510.8054   20891513.4254
      -372.3684
 -10966267.81948  -8510189.33047  23048864.7634   23048864.6804   23048866.8024
     -2173.7104
  -9633624.74648  -7497505.80747  23253191.8894   23253191.7784   23253195.1564
     -3533.7504
 10  1  4  2 18  0.0000000  0 11G30G14G12G09G18G22G26G01G27G17G15
 -16524543.85948 -12855175.70047  22747065.1704   22747065.5304   22747068.2014
      3068.4544
  -6249323.34547  -4801315.32146  23941484.8324   23941484.4474   23941486.7754
      3219.0124
 -25966020.05249 -20219076.11448  20736971.6234   20736971.8284   20736973.2004
      1259.9594
 -29057792.30549 -22424433.41748  19799953.4004   19799953.2834   19799955.3954
      -445.9204
  -6318114.08747  -4883385.34046  24201073.1404   24201073.0624   24201075.5324
     -2406.0374
  -5971709.53747  -4638459.44546  24164124.4514   24164121.7654   24164125.0704
     -1157.5164
 -17454819.63548 -13313805.33147  21329077.0464   21329077.2834   21329079.7794
      1787.2944
  -9799540.37947  -7628522.30847  23250242.7524   23250242.9144   23250246.0634
      3021.9604
 -22155533.91249 -17247576.32448  20893662.3214   20893662.1874   20893665.0984
      -381.9364
 -10900835.30848  -8459202.95647  23061316.1474   23061316.6944   23061318.1394
     -2188.8164
  -9527513.10348  -7414821.41447  23273384.2604   23273384.4154   23273386.2254
     -3540.8414
 10  1  4  2 18 30.0000000  0 11G30G14G12G09G18G22G26G01G27G17G15
 -16616506.14048 -12926834.61347  22729565.0854   22729565.6774   22729568.2864
      3061.9084
  -6345785.24547  -4876480.40846  23923128.1154   23923127.1884   23923130.3954
      3211.2824
 -26003642.02149 -20248391.92148  20729812.4054   20729812.8484   20729814.1174
      1247.7054
 -29044204.51849 -22413845.53348  19802539.1544   19802538.7604   19802541.1984
      -460.4714
  -6245859.31047  -4827082.93046  24214821.5294   24214821.5014   24214824.1974
     -2412.1964
  -5936781.12047  -4611242.52346  24170768.9674   24170771.4624   24170772.6054
     -1171.4594
 -17508168.07348 -13355375.54547  21318925.0294   21318924.9754   21318927.5034
      1768.8764
  -9890115.90048  -7699100.61347  23233007.0184   23233006.8394   23233010.1004
      3015.7714
 -22143949.83049 -17238549.77548  20895866.7564   20895866.5794   20895869.2104
      -390.6784
 -10834962.21548  -8407873.26947  23073851.2834   23073851.0724   23073853.3544
     -2203.0434
  -9421211.93348  -7331989.32847  23293612.6504   23293612.8444   23293613.6744
     -3546.4854
 10  1  4  2 19  0.0000000  0 11G30G14G12G09G18G22G26G01G27G17G15
 -16708246.87948 -12998320.88047  22712107.1354   22712107.4944   22712111.2554
      3053.9234
  -6441996.91047  -4951450.53646  23904819.8504   23904819.0694   23904820.4754
      3202.4864
 -26040873.34549 -20277403.32448  20722727.6154   20722727.7654   20722729.1874
      1234.2734
 -29030156.10249 -22402898.71548  19805212.3904   19805212.1284   19805214.6164
      -476.3404
  -6173390.89747  -4770614.03346  24228612.9354   24228612.5984   24228614.5454
     -2419.6984
  -5901419.39447  -4583687.96046  24177499.5044   24177498.3704   24177499.6434
     -1186.0434
 -17560942.53948 -13396498.50547  21308882.6464   21308882.3774   21308885.1064
      1749.1734
  -9980483.07048  -7769516.56347  23215810.2694   23215811.2014   23215813.2504
      3008.4014
 -22132082.95449 -17229302.86148  20898124.9504   20898124.9144   20898127.6834
      -400.6484
 -10768646.92248  -8356199.01147  23086470.6724   23086471.1454   23086472.0064
     -2218.1324
  -9314719.51548  -7249008.22847  23313877.0404   23313878.0824   23313879.8814
     -3553.3264
 10  1  4  2 19 30.0000000  0 11G30G14G12G09G18G22G26G01G27G17G15
 -16799766.75348 -13069635.04847  22694691.9374   22694692.3604   22694695.5534
      3046.8554
  -6537957.15247  -5026224.73246  23886560.0044   23886560.0044   23886561.4094
      3194.6494
 -26077715.99549 -20306111.86048  20715716.6684   20715716.7614   20715718.3604
      1221.5004
 -29015648.61749 -22391594.17748  19807972.8064   19807972.4884   19807975.5604
      -491.3324
  -6100712.71747  -4713981.68946  24242442.3064   24242442.8244   24242444.5634
     -2426.0954
  -5865628.44347  -4555798.89246  24184312.1094   24184311.6354   24184311.3614
     -1200.3884
 -17613142.56648 -13437173.85747  21298949.2924   21298949.4554   21298951.7894
      1730.2734
 -10070642.78148  -7839770.85447  23198653.8894   23198654.0654   23198656.5604
      3001.7354
 -22119934.25249 -17219836.34648  20900436.7444   20900436.7324   20900439.4544
      -409.8464
 -10701893.30148  -8304183.19447  23099173.4444   23099173.8534   23099175.0644
     -2232.5144
  -9208039.95848  -7165881.29947  23334177.7224   23334178.4244   23334181.3344
     -3559.3824
 10  1  4  2 20  0.0000000  0 11G30G14G12G09G18G22G26G01G27G17G15
 -16891063.86348 -13140775.65947  22677318.8434   22677318.4304   22677322.6104
      3039.3244
  -6633662.33447  -5100800.16746  23868347.3654   23868346.4394   23868350.5544
      3186.0594
 -26114168.86649 -20334516.67948  20708779.7934   20708779.9084   20708781.4164
      1208.4414
 -29000681.11249 -22379931.18748  19810821.2454   19810821.0034   19810823.3744
      -506.6914
  -6027827.06247  -4657187.68546  24256310.9044   24256311.6084   24256311.1924
     -2433.3624
  -5829409.29847  -4527576.22346  24191203.2924   24191200.2824   24191204.4664
     -1214.4854
 -17664765.23248 -13477399.31547  21289125.7904   21289126.0184   21289128.3794
      1711.0634
 -10160593.46348  -7909862.29647  23181536.4414   23181536.4674   23181538.9044
      2994.7814
 -22107502.33249 -17210149.14048  20902802.6104   20902802.4494   20902804.8684
      -419.2364
 -10634702.40748  -8251826.64447  23111959.3914   23111960.0914   23111961.8764
     -2247.2044
  -9101174.78448  -7082609.73947  23354513.5454   23354514.3524   23354514.7264
     -3565.3184
 10  1  4  2 20 30.0000000  0 11G30G14G12G09G18G22G26G01G27G17G15
 -16982141.24048 -13211745.05047  22659987.0324   22659986.5854   22659990.6794
      3031.6564
  -6729113.97047  -5175178.01046  23850182.4824   23850182.8414   23850185.3564
      3177.3274
 -26150235.84449 -20362620.79948  20701916.2804   20701916.5994   20701918.0254
      1195.2604
 -28985256.69149 -22367912.15448  19813756.2654   19813756.2034   19813758.5284
      -522.3404
  -5954740.97647  -4600237.48146  24270220.5944   24270218.3664   24270223.0364
     -2439.6424
  -5792767.77147  -4499024.37146  24198176.9804   24198178.7544   24198177.4194
     -1228.7794
 -17715812.21648 -13517176.18947  21279411.8444   21279412.5374   21279414.6774
      1691.4914
 -10250337.95948  -7979793.04447  23164458.6234   23164459.9514   23164461.8494
      2987.8114
 -22094790.23549 -17200243.60748  20905221.6244   20905221.4184   20905224.0694
      -428.9804
 -10567080.68148  -8199134.37347  23124827.2654   23124827.4294   23124828.7424
     -2261.8304
  -8994130.56548  -6999198.65247  23374882.8814   23374883.4084   23374885.3854
     -3571.5804
 10  1  4  2 21  0.0000000  0 11G30G14G12G09G18G22G26G01G27G17G15
 -17072992.80548 -13282538.47547  22642698.4814   22642698.3104   22642701.6744
      3024.3764
  -6824304.18847  -5249352.19046  23832069.3824   23832069.3384   23832070.6494
      3168.4204
 -26185912.43649 -20390420.72848  20695127.3024   20695127.4924   20695129.0894
      1182.4664
 -28969370.03049 -22355532.93848  19816779.4734   19816779.0494   19816781.8354
      -537.5344
  -5881452.16247  -4543129.31846  24284166.4484   24284166.6964   24284167.2714
     -2446.4964
  -5755700.89347  -4470141.12646  24205227.6134   24205228.9334   24205231.0874
     -1242.9574
 -17766276.57948 -13556499.07647  21269808.8304   21269808.6754   21269811.3174
      1672.1234
 -10339870.35848  -8049558.53447  23147421.4014   23147421.6714   23147424.5524
      2980.5324
 -22081792.31949 -17190115.37148  20907695.0584   20907694.9734   20907697.5244
      -438.2704
 -10499025.14748  -8146104.08547  23137778.0614   23137778.2354   23137779.1864
     -2275.9384
  -8886904.64948  -6915645.99347  23395287.8204   23395288.0364   23395289.8574
     -3577.5574
 10  1  4  2 21 30.0000000  0 11G30G14G12G09G18G22G26G01G27G17G15
 -17163620.88248 -13353157.75047  22625452.5354   22625453.2354   22625455.9294
      3017.3774
  -6919233.93447  -5323323.40346  23814004.9864   23814003.9554   23814006.7304
      3160.0014
 -26221201.98049 -20417919.05848  20688411.9234   20688412.3084   20688413.7414
      1169.9644
 -28953024.55949 -22342796.20748  19819889.8764   19819889.8444   19819892.2574
      -552.3984
  -5807967.05447  -4485868.17546  24298151.9524   24298151.1064   24298153.3244
     -2452.5114
  -5718214.05147  -4440930.59346  24212361.4674   24212362.8304   24212366.1124
     -1256.3204
 -17816159.28848 -13595368.72447  21260316.4314   21260316.1194   21260319.0274
      1653.1964
 -10429193.06748  -8119160.63447  23130423.7374   23130423.7824   23130427.5854
      2974.1434
 -22068511.07449 -17179766.35348  20910222.3304   20910222.3664   20910224.9454
      -447.3184
 -10430541.46648  -8092740.17447  23150809.9054   23150810.4504   23150811.6874
     -2289.5764
  -8779502.54848  -6831956.04947  23415725.7544   23415726.1274   23415727.5444
     -3582.6004
 10  1  4  2 22  0.0000000  0 11G30G14G12G09G18G22G26G01G27G17G15
 -17254021.37948 -13423599.70447  22608250.1644   22608250.4984   22608252.9594
      3009.5604
  -7013897.07347  -5397086.87246  23795991.3324   23795990.4354   23795992.7404
      3151.0614
 -26256101.31949 -20445113.32448  20681770.9484   20681771.0794   20681772.5334
      1156.7634
 -28936216.67949 -22329699.15648  19823088.3484   19823088.2254   19823090.7024
      -568.0224
  -5734285.61247  -4428454.05145  24312171.4004   24312168.4364   24312173.8194
     -2459.4204
  -5680305.84247  -4411391.73146  24219576.3414   24219577.0264   24219579.7654
     -1270.6074
 -17865455.23748 -13633781.15947  21250935.5464   21250936.0264   21250938.5234
      1633.3704
 -10518302.02948  -8188596.17247  23113466.3034   23113465.7834   23113469.9564
      2966.6474
 -22054942.48949 -17169193.43048  20912804.2864   20912804.3554   20912807.0894
      -457.0914
 -10361628.35548  -8039041.63647  23163923.7624   23163923.6234   23163925.5094
     -2304.2094
  -8671923.45747  -6748128.19747  23436197.2394   23436197.3874   23436199.2134
     -3588.8734
 10  1  4  2 22 30.0000000  0 11G30G14G12G09G18G22G26G01G27G17G15
 -17344197.10148 -13493866.48847  22591089.9824   22591089.9584   22591093.7214
      3001.5614
  -7108294.84747  -5470643.55446  23778027.0874   23778026.4944   23778029.2424
      3141.5944
 -26290614.46349 -20472006.66148  20675203.1834   20675203.4174   20675204.7654
      1143.7024
 -28918949.97949 -22316244.58648  19826374.1584   19826374.0974   19826376.2734
      -583.5014
  -5660414.97947  -4370892.49946  24326229.0974   24326228.1084   24326232.4594
     -2465.7654
  -5641982.13347  -4381529.12246  24226869.0394   24226870.9614   24226870.4904
     -1284.5714
 -17914166.43249 -13671737.94047  21241666.5094   21241666.3384   21241668.6004
      1613.6414
 -10607200.62548  -8257867.80347  23096550.3304   23096550.1084   23096552.9294
      2959.4054
 -22041089.86649 -17158399.18048  20915440.4074   20915440.2924   20915442.8324
      -466.8984
 -10292292.15848  -7985013.42147  23177118.2384   23177118.7194   23177119.5474
     -2318.5654
  -8564174.16048  -6664167.71247  23456701.7524   23456701.3944   23456703.5664
     -3594.8074
 10  1  4  2 23  0.0000000  0 11G30G14G12G09G18G22G26G01G27G17G15
 -17434145.00548 -13563955.76247  22573973.8974   22573973.1004   22573976.4904
      2994.7784
  -7202422.39447  -5543989.69046  23760115.8584   23760115.8984   23760117.6834
      3133.1394
 -26324739.63549 -20498597.68948  20668709.3944   20668709.5294   20668711.0194
      1131.1934
 -28901222.01849 -22302430.59248  19829747.7674   19829747.7734   19829749.9304
      -598.4364
  -5586355.64747  -4313183.90946  24340321.7024   24340321.7204   24340322.4254
     -2471.5124
  -5603243.09947  -4351342.85946  24234239.1874   24234239.7384   24234242.2954
     -1298.2234
 -17962288.52748 -13709235.68647  21232509.1234   21232509.4624   21232511.3334
      1594.3814
 -10695885.64548  -8326972.99147  23079673.4354   23079674.1974   23079676.9424
      2952.7054
 -22026950.46849 -17147381.47048  20918131.1104   20918130.8504   20918133.6304
      -475.8784
 -10222532.89748  -7930655.54947  23190392.5814   23190392.4054   23190394.3774
     -2332.0924
  -8456254.64548  -6580074.58647  23477237.8364   23477238.0024   23477240.0054
     -3599.8714
 10  1  4  2 23 30.0000000  0 11G30G14G12G09G18G22G26G01G27G17G15
 -17523864.22048 -13633866.84847  22556900.3164   22556899.6304   22556904.5334
      2987.0094
  -7296276.90847  -5617123.06946  23742256.2294   23742255.9124   23742258.8274
      3124.2684
 -26358476.55549 -20524886.18948  20662289.4724   20662289.7714   20662291.1444
      1118.4424
 -28883032.68449 -22288257.08248  19833208.7884   19833208.6834   19833211.1684
      -613.8184
  -5512110.50447  -4255330.54546  24354450.1354   24354450.2544   24354453.7524
     -2477.2494
  -5564090.72147  -4320834.55846  24241689.8904   24241691.4104   24241692.8174
     -1311.7464
 -18009819.68248 -13746272.95747  21223464.3824   21223464.2864   21223466.3464
      1574.7304
 -10784356.15948  -8395911.04247  23062838.2124   23062838.4494   23062841.5084
      2945.8234
 -22012523.57349 -17136139.73448  20920876.4004   20920876.2284   20920878.8864
      -485.4954
 -10152352.69548  -7875969.67147  23203747.1884   23203747.0614   23203749.6264
     -2346.0604
  -8348167.48247  -6495850.82947  23497805.6514   23497805.6804   23497808.9034
     -3605.4624
 10  1  4  2 24  0.0000000  0 11G30G14G12G09G18G22G26G01G27G17G15
 -17613351.32048 -13703597.06247  22539871.6424   22539871.8884   22539875.7784
      2979.1404
  -7389853.44047  -5690039.82846  23724449.2384   23724448.3364   23724451.9114
      3114.7404
 -26391823.13749 -20550870.52848  20655943.8474   20655944.0424   20655945.6054
      1105.1994
 -28864379.68049 -22273722.27148  19836758.4454   19836758.3144   19836760.7164
      -629.4194
  -5437680.24947  -4197332.93846  24368613.5204   24368612.2104   24368616.1664
     -2483.9464
  -5524525.36347  -4290004.46346  24249218.4504   24249222.1314   24249221.8594
     -1325.3574
 -18056755.40548 -13782846.25247  21214532.5714   21214532.6714   21214534.9264
      1554.7124
 -10872608.97048  -8464679.47347  23046044.6894   23046045.0914   23046047.1264
      2938.2084
 -21997806.17449 -17124671.63348  20923677.1404   20923676.9944   20923679.6704
      -495.3254
 -10081751.45048  -7820955.70747  23217182.5684   23217182.4994   23217185.2734
     -2360.1184
  -8239913.33148  -6411496.95247  23518406.0794   23518407.1654   23518407.0794
     -3610.9544
 10  1  4  2 24 30.0000000  0 11G30G14G12G09G18G22G26G01G27G17G15
 -17702610.72948 -13773149.83747  22522886.3374   22522886.9244   22522889.4694
      2971.5344
  -7483154.74747  -5762742.13646  23706693.9514   23706693.1264   23706695.1114
      3105.3204
 -26424784.83249 -20576554.95748  20649671.3804   20649671.7374   20649672.9814
      1092.2794
 -28845267.67849 -22258829.80048  19840395.3224   19840395.1334   19840397.5044
      -644.6494
  -5363073.01647  -4139197.41946  24382811.5994   24382810.2464   24382811.9384
     -2490.0694
  -5484552.90747  -4258857.08846  24256825.9104   24256826.7964   24256827.0364
     -1339.2134
 -18103099.08549 -13818958.21747  21205713.5484   21205713.7404   21205716.5334
      1534.9684
 -10960648.43748  -8533281.64147  23029291.0894   23029291.7734   23029293.3314
      2931.1184
 -21982802.74349 -17112980.65148  20926532.2424   20926531.9154   20926534.6684
      -504.8174
 -10010736.60748  -7765619.45947  23230696.2044   23230696.1744   23230698.0724
     -2374.0304
  -8131498.85947  -6327018.14747  23539036.3954   23539036.4854   23539037.9604
     -3616.5724
