     2.11           OBSERVATION DATA    G (GPS)             RINEX VERSION / TYPE
teqc  2009Oct19     administrateur ccgps20100106 00:06:06UTCPGM / RUN BY / DATE
Solaris 5.9|UltraSparc IIe|cc -xarch=v9 SC5.8|=+-|*Sparc    COMMENT
teqc  2009Oct19     administrateur ccgps20100105 01:06:04UTCCOMMENT
teqc  2009Oct19     CNES                20100105 01:03:59UTCCOMMENT
MSXP|IAx86-PII|bcc32 5.0|MSWin95->XP|486/DX+                COMMENT
teqc  2009Oct19                         20100105 01:03:58UTCCOMMENT
BIT 2 OF LLI FLAGS DATA COLLECTED UNDER A/S CONDITION       COMMENT
GRAS                                                        MARKER NAME
10002M006                                                   MARKER NUMBER
CARDALIAGUET        CNES                                    OBSERVER / AGENCY
48002               ASHTECH UZ-12       CN00-1A01           REC # / TYPE / VERS
24222               ASH701945E_M    NONE                    ANT # / TYPE
  4581695.6800   556115.4600  4389365.6200                  APPROX POSITION XYZ
        0.0350        0.0000        0.0000                  ANTENNA: DELTA H/E/N
     1     1                                                WAVELENGTH FACT L1/2
     7    L1    L2    C1    P1    P2    D1    D2            # / TYPES OF OBSERV
    30.0000                                                 INTERVAL
Version: Version:                                           COMMENT
Project: A002_______CNE_____________                        COMMENT
 SNR is mapped to RINEX snr flag value [0-9]                COMMENT
  L1 & L2: min(max(int(snr_dBHz/6), 0), 9)                  COMMENT
pseudorange smoothing corrections not applied               COMMENT
Forced Modulo Decimation to 30 seconds                      COMMENT
  2010     1     5     0     0    0.0000000     GPS         TIME OF FIRST OBS
                                                            END OF HEADER
 10  1  5  0  0  0.0000000  0 10G12G28G17G05G10G18G08G09G27G15
  -4921589.68347  -3822174.18546  24960724.5544   24960724.9924   24960726.4354
      3780.4044
 -16588878.46548 -12887687.55047  22428514.3124   22428513.5264   22428515.7174
     -2313.4444
 -11485471.00548  -8910960.17347  23319296.3834   23319296.1754   23319298.0424
      2341.9894
  -6846126.44947  -5277426.21446  24096440.6564   24096441.2184   24096442.5144
     -3626.1154
   1020227.90646    843347.30345  25362408.9414   25362406.5324   25362410.5444
     -3659.4804
 -12117793.05848  -9432960.61346  23372136.8604   23372135.8224   23372136.8534
      1758.4314
  -8858864.50147  -6892492.43346  24259800.4564   24259800.4594   24259804.0984
     -2956.7344
 -21886442.87748 -17048053.55347  21803306.3164   21803305.9734   21803308.3054
      2699.7154
 -16988171.02949 -13197702.69547  21839893.0214   21839892.7504   21839895.3924
      1449.0864
 -26436427.64149 -20577233.48048  20351899.5784   20351899.8494   20351901.1844
       169.1754
 10  1  5  0  0 30.0000000  0 10G12G28G17G05G10G18G08G09G27G15
  -5034961.03147  -3910515.46146  24939150.3334   24939150.3864   24939152.5484
      3777.9534
 -16519317.63848 -12833484.30947  22441751.3954   22441751.0024   22441753.2984
     -2323.6184
 -11555563.11648  -8965577.39747  23305958.4504   23305958.5154   23305960.4254
      2331.3144
  -6737316.47447  -5192639.24946  24117146.3354   24117147.1254   24117148.5594
     -3627.5304
   1129965.21946    928856.84545  25383290.9684   25383290.1164   25383295.2894
     -3656.1474
 -12170296.51848  -9473872.39646  23362145.9974   23362144.6994   23362146.4324
      1742.3094
  -8770136.02347  -6823353.39046  24276685.0334   24276684.6334   24276687.1994
     -2957.8494
 -21967319.87348 -17111074.57547  21787915.7444   21787915.9594   21787918.6334
      2692.4214
 -17031554.40748 -13231507.90847  21831637.4084   21831637.3874   21831640.0944
      1443.5584
 -26441262.49349 -20581000.90348  20350979.5264   20350979.7034   20350981.1464
       153.5834
 10  1  5  0  1  0.0000000  0 10G12G28G17G05G10G18G08G09G27G15
  -5148249.80047  -3998792.40646  24917592.2514   24917592.7164   24917595.3864
      3774.5444
 -16449444.43548 -12779037.65947  22455047.6804   22455048.2934   22455049.7864
     -2334.6534
 -11625326.03348  -9019938.10147  23292682.5494   23292682.5854   23292685.0264
      2319.5194
  -6628455.42047  -5107812.47546  24137862.1194   24137862.9774   24137864.8574
     -3629.8814
   1239611.14546   1014295.19145  25404156.8254   25404156.6854   25404159.0994
     -3653.1774
 -12222308.57847  -9514401.27246  23352247.9684   23352246.4714   23352247.7594
      1725.0374
  -8681353.13347  -6754171.93246  24293579.8134   24293579.6204   24293582.8804
     -2960.7394
 -22047968.21948 -17173917.44747  21772569.0804   21772569.2504   21772571.0514
      2684.0414
 -17074764.79548 -13265178.32647  21823414.6274   21823414.4734   21823417.2684
      1437.0694
 -26445618.20949 -20584394.97148  20350150.7274   20350150.8924   20350152.1324
       136.7274
 10  1  5  0  1 30.0000000  0 10G12G28G17G05G10G18G08G09G27G15
  -5261460.31747  -4087008.32846  24896048.9314   24896049.3084   24896052.0544
      3771.5684
 -16379266.89948 -12724353.87047  22468402.0144   22468402.1884   22468403.8844
     -2345.0594
 -11694763.16548  -9074044.95447  23279469.2584   23279469.3764   23279470.8294
      2308.2364
  -6519552.15747  -5022952.81346  24158585.9364   24158585.3414   24158586.7654
     -3631.3094
   1349157.35846   1099655.83245  25425002.6584   25425001.4424   25425001.9784
     -3651.2704
 -12273833.66847  -9554550.69246  23342443.1244   23342443.5094   23342443.9254
      1708.7004
  -8592523.33847  -6684953.92446  24310483.3124   24310481.6924   24310486.0194
     -2962.1594
 -22128393.03348 -17236586.13547  21757264.9564   21757265.0904   21757267.1344
      2676.3634
 -17117808.54949 -13298718.89647  21815223.7084   21815223.5264   21815226.3714
      1431.3014
 -26449500.06349 -20587419.79748  20349412.0564   20349412.2964   20349413.6144
       120.7904
 10  1  5  0  2  0.0000000  0 10G12G28G17G05G10G18G08G09G27G15
  -5374582.18347  -4175155.17646  24874523.0714   24874523.1784   24874524.1704
      3769.5854
 -16308778.91848 -12669428.17547  22481815.5224   22481815.2724   22481816.4684
     -2354.3674
 -11763863.30048  -9127889.21147  23266319.8094   23266318.9984   23266321.4374
      2297.9904
  -6410600.47747  -4938055.43046  24179318.3664   24179318.4304   24179320.7944
     -3632.1514
   1458609.95246   1184943.54645  25445830.8714   25445828.1694   25445835.6174
     -3646.5274
 -12324861.78547  -9594312.86846  23332732.7894   23332732.0634   23332732.9264
      1692.7664
  -8503638.32947  -6615692.88546  24327398.3284   24327396.9404   24327402.9424
     -2963.3684
 -22208585.26648 -17299073.58847  21742004.3634   21742005.1524   21742007.4624
      2669.5634
 -17160677.33048 -13332123.13147  21807066.0504   21807065.7814   21807068.9574
      1426.4004
 -26452899.16749 -20590068.45548  20348765.0224   20348765.2344   20348766.7954
       105.6774
 10  1  5  0  2 30.0000000  0 10G12G28G17G05G10G18G08G09G27G15
  -5487617.18047  -4263234.36446  24853012.1574   24853011.8134   24853015.3754
      3766.8434
 -16237986.77048 -12614265.46547  22495286.9644   22495287.2094   22495288.3264
     -2364.3714
 -11832627.53148  -9181471.73147  23253234.6894   23253234.8574   23253236.0444
      2286.8424
  -6301607.88247  -4853126.14246  24200059.0594   24200059.8404   24200061.8814
     -3633.4194
   1567962.47146   1270153.26945  25466640.1494   25466638.6274   25466642.7934
     -3643.0024
 -12375395.12047  -9633689.50746  23323116.4684   23323115.4284   23323117.7124
      1676.4884
  -8414703.10747  -6546392.74746  24344321.6444   24344321.2084   24344324.6574
     -2965.3444
 -22288547.76848 -17361382.03147  21726788.2904   21726787.8314   21726791.1154
      2662.1424
 -17203374.97949 -13365394.01747  21798941.2404   21798941.0994   21798943.3544
      1420.8244
 -26455818.23049 -20592343.05648  20348209.6254   20348209.8334   20348211.2584
        89.7604
 10  1  5  0  3  0.0000000  0 10G12G28G17G05G10G18G08G09G27G15
  -5600567.18746  -4351247.34946  24831519.1324   24831519.2174   24831521.9764
      3763.5044
 -16166895.98648 -12558870.04747  22508815.2644   22508814.6964   22508817.0614
     -2374.8704
 -11901056.98848  -9234793.37447  23240212.8014   23240212.7864   23240215.7954
      2275.0494
  -6192580.47547  -4768169.74846  24220806.6514   24220806.5894   24220808.7434
     -3635.1454
   1677208.77246   1355280.22245  25487429.2764   25487426.9704   25487431.3384
     -3639.6304
 -12425435.81848  -9672682.25246  23313593.3454   23313593.3904   23313594.2614
      1659.4484
  -8325721.34847  -6477056.34646  24361254.7494   24361254.5264   24361257.7894
     -2967.6434
 -22368283.60348 -17423513.83947  21711615.1074   21711614.9904   21711616.7964
      2653.7674
 -17245905.42749 -13398534.61648  21790847.9434   21790847.9694   21790849.9904
      1414.6454
 -26458260.73349 -20594246.30948  20347744.8064   20347745.0744   20347746.3844
        73.2284
 10  1  5  0  3 30.0000000  0 10G12G28G17G05G10G18G08G09G27G15
  -5713424.14047  -4439187.76646  24810042.9904   24810043.5694   24810046.2584
      3759.8464
 -16095502.97748 -12503239.13847  22522400.6064   22522399.8514   22522401.4754
     -2385.0814
 -11969142.87048  -9287847.30447  23227256.5614   23227256.4394   23227258.7514
      2263.1704
  -6083515.39647  -4683183.97246  24241561.0024   24241560.8814   24241563.8804
     -3636.5534
   1786352.38746   1440327.19145  25508198.5694   25508195.7574   25508200.2874
     -3636.5784
 -12474976.43847  -9711285.32946  23304166.7294   23304165.3554   23304169.2204
      1642.5254
  -8236688.20047  -6407679.89446  24378197.3834   24378197.0304   24378200.6594
     -2969.1314
 -22447785.62548 -17485463.46547  21696486.5164   21696485.9994   21696488.6084
      2645.6804
 -17288262.96149 -13431540.47547  21782787.4794   21782786.9794   21782789.9794
      1408.5464
 -26460219.15449 -20595772.35548  20347372.1524   20347372.3524   20347373.7594
        56.6784
 10  1  5  0  4  0.0000000  0 10G12G28G17G05G10G18G08G09G27G15
  -5826189.27647  -4527056.67846  24788584.8014   24788584.7694   24788586.4494
      3756.3034
 -16023812.78948 -12447376.65447  22536042.8044   22536042.5984   22536044.5184
     -2395.0734
 -12036885.03448  -9340633.39447  23214365.6254   23214366.0304   23214367.6374
      2251.5614
  -5974418.14847  -4598173.14446  24262321.8164   24262322.2964   24262324.0804
     -3637.4574
   1895388.37346   1525290.28546  25528946.9344   25528947.6734   25528949.5034
     -3633.2854
 -12524018.32348  -9749499.77746  23294834.7974   23294833.1924   23294835.1144
      1625.6914
  -8147607.12747  -6338266.10346  24395148.6694   24395148.7014   24395150.5944
     -2970.2574
 -22527055.77548 -17547232.40147  21681401.9704   21681401.8224   21681404.3264
      2637.8274
 -17330450.42049 -13464413.81248  21774759.5084   21774759.1984   21774762.0974
      1402.8864
 -26461695.98749 -20596923.13748  20347091.0964   20347091.3084   20347092.8764
        40.5384
 10  1  5  0  4 30.0000000  0 10G12G28G17G05G10G18G08G09G27G15
  -5938861.10447  -4614852.87246  24767143.6334   24767143.7804   24767147.6874
      3753.9794
 -15951827.70748 -12391284.39047  22549740.9264   22549740.3034   22549742.4014
     -2404.4024
 -12104281.57148  -9393150.16947  23201540.6194   23201540.3794   23201543.0134
      2240.6064
  -5865292.12147  -4513139.88546  24283087.3174   24283087.6514   24283090.3164
     -3638.2914
   2004314.17847   1610167.46746  25549674.7914   25549674.2944   25549678.3724
     -3628.9524
 -12572560.50948  -9787324.87646  23285597.3704   23285597.1354   23285597.4664
      1609.6784
  -8058479.02147  -6268815.66446  24412109.0034   24412107.5964   24412111.6174
     -2972.0184
 -22606093.73748 -17608820.40947  21666361.3714   21666361.4004   21666363.8394
      2630.6264
 -17372468.25749 -13497154.97148  21766763.8294   21766763.2774   21766765.8654
      1397.6484
 -26462690.75649 -20597698.28548  20346901.8704   20346902.0604   20346903.5294
        24.9804
 10  1  5  0  5  0.0000000  0 10G12G28G17G05G10G18G08G09G27G15
  -6051436.43647  -4702573.87046  24745721.3144   24745720.6384   24745724.1014
      3750.7204
 -15879548.99148 -12334963.31447  22563495.2264   22563495.1694   22563497.1134
     -2414.3254
 -12171328.54248  -9445394.56147  23188782.0154   23188781.5594   23188784.1684
      2229.0064
  -5756139.28847  -4428085.73346  24303858.5004   24303858.8154   24303860.1384
     -3638.5764
   2113128.27046   1694957.69946  25570382.2164   25570379.0064   25570384.8224
     -3625.3174
 -12620600.20348  -9824758.39946  23276455.9344   23276455.8964   23276455.5654
      1593.1014
  -7969303.29647  -6199328.13146  24429079.0644   24429078.0204   24429081.5234
     -2972.9524
 -22684897.87648 -17670226.21947  21651365.4504   21651365.6194   21651367.6604
      2622.8704
 -17414315.57749 -13529763.26348  21758800.4154   21758800.3764   21758802.8624
      1392.1214
 -26463201.52649 -20598096.29248  20346804.6244   20346804.8834   20346806.2064
         8.9174
 10  1  5  0  5 30.0000000  0 11G12G28G17G05G10G22G18G08G09G27G15
  -6163901.67547  -4790209.08246  24724319.6644   24724320.3914   24724322.2764
      3747.7924
 -15806967.28348 -12278406.14447  22577307.0964   22577306.5544   22577308.2444
     -2423.8334
 -12238011.71748  -9497355.48147  23176092.1824   23176091.9084   23176095.3834
      2217.0784
  -5646950.35047  -4343003.44446  24324636.5974   24324636.6504   24324638.7944
     -3639.6494
   2221840.07247   1779668.13846  25591069.2284   25591067.0284   25591073.1524
     -3621.4964
  -2010129.11847  -1343499.00146  25536152.8194   25536152.5144   25536153.8304
      2802.2854
 -12668124.11547  -9861790.01946  23267412.0494   23267412.8914   23267413.0574
      1576.0994
  -7880068.96147  -6129794.89646  24446059.6044   24446058.8934   24446062.0944
     -2974.5614
 -22763455.37148 -17731439.83247  21636416.4754   21636415.6924   21636418.5894
      2615.0694
 -17455980.71549 -13562229.59748  21750871.7924   21750871.6604   21750874.2544
      1386.4154
 -26463215.92149 -20598107.51448  20346801.9974   20346802.1604   20346803.6364
        -7.1874
 10  1  5  0  6  0.0000000  0 11G12G28G17G05G10G22G18G08G09G27G15
  -6276279.56447  -4877776.21646  24702935.3854   24702935.1074   24702938.0074
      3744.5164
 -15734109.10348 -12221633.53847  22591171.7384   22591171.1994   22591173.3254
     -2433.3154
 -12304352.86748  -9549049.87247  23163468.3754   23163468.3304   23163469.6134
      2205.5224
  -5537752.77047  -4257914.44246  24345416.0614   24345417.0074   24345419.7724
     -3640.0504
   2330422.21447   1864277.61446  25611731.0474   25611730.4134   25611734.4574
     -3617.6144
  -2094056.43847  -1408896.95346  25520181.5044   25520181.4594   25520182.3624
      2792.8684
 -12715155.61747  -9898437.95746  23258461.7854   23258462.3644   23258463.3384
      1559.3444
  -7790800.99747  -6060235.48646  24463046.3624   24463046.3364   24463049.6114
     -2976.0444
 -22841789.97348 -17792479.77747  21621509.7944   21621509.5734   21621512.1804
      2607.3724
 -17497488.33949 -13594573.19748  21742973.2444   21742973.1864   21742975.9494
      1380.8174
 -26462757.92449 -20597750.64248  20346889.2304   20346889.3274   20346890.8524
       -23.2794
 10  1  5  0  6 30.0000000  0 11G12G28G17G05G10G22G18G08G09G27G15
  -6388553.78547  -4965262.58146  24681570.6344   24681569.9754   24681571.7234
      3740.6614
 -15660962.39348 -12164636.10247  22605090.9894   22605089.7644   22605093.0024
     -2442.8914
 -12370334.76548  -9600464.33447  23150912.3694   23150912.8794   23150914.4214
      2193.4394
  -5428534.90647  -4172809.60946  24366199.5824   24366199.3014   24366202.8904
     -3641.0164
   2438887.19647   1948795.73246  25632370.4194   25632370.2634   25632375.0064
     -3613.3444
  -2177687.59047  -1474064.08946  25504267.5404   25504269.0654   25504267.1014
      2782.4974
 -12761678.80447  -9934689.78546  23249609.0874   23249607.8584   23249610.3134
      1542.4474
  -7701485.50047  -5990639.04546  24480043.2424   24480042.9384   24480045.6164
     -2978.1314
 -22919886.44548 -17853334.15847  21606648.5624   21606648.2584   21606650.4714
      2599.2394
 -17538824.21749 -13626782.96748  21735107.1334   21735106.9364   21735109.6294
      1375.0194
 -26461812.15549 -20597013.68248  20347069.1754   20347069.4044   20347070.6324
       -39.6874
 10  1  5  0  7  0.0000000  0 11G12G28G17G05G10G22G18G08G09G27G15
  -6500729.06947  -5052671.89746  24660223.6404   24660224.2774   24660226.1684
      3737.1224
 -15587535.54748 -12107420.38247  22619063.6754   22619064.0744   22619066.0084
     -2452.7334
 -12435961.21848  -9651601.82547  23138424.4994   23138425.1284   23138426.5754
      2181.0644
  -5319306.18247  -4087696.34446  24386984.8824   24386986.4204   24386987.9424
     -3641.6564
   2547226.76447   2033216.16346  25652988.5324   25652987.4564   25652993.4694
     -3609.7404
  -2261026.83646  -1539003.77146  25488408.2974   25488408.4404   25488409.3934
      2772.8544
 -12807698.49848  -9970549.29446  23240852.6374   23240851.7334   23240853.3224
      1525.1234
  -7612130.15547  -5921011.53046  24497046.0074   24497045.7934   24497050.1704
     -2979.7304
 -22997750.13748 -17914007.15847  21591831.6084   21591831.0584   21591833.9104
      2591.0684
 -17579994.78549 -13658863.92248  21727272.6674   21727272.4484   21727275.1964
      1369.1504
 -26460384.54549 -20595901.26348  20347340.6734   20347340.9154   20347342.4204
       -56.0994
 10  1  5  0  7 30.0000000  0 11G12G28G17G05G10G22G18G08G09G27G15
  -6612791.16847  -5139992.94446  24638898.7934   24638899.6314   24638901.2294
      3733.4984
 -15513818.51048 -12049978.54147  22633091.5424   22633090.9814   22633092.7264
     -2461.9594
 -12501217.27648  -9702450.68847  23126006.3714   23126006.4364   23126008.2484
      2168.9854
  -5210057.08647  -4002567.16246  24407774.6384   24407774.5594   24407777.3264
     -3641.8264
   2655450.30247   2117546.20846  25673582.3414   25673582.3514   25673585.6214
     -3605.3254
  -2344059.21246  -1603704.30646  25472607.6374   25472606.0464   25472608.1864
      2762.4624
 -12853201.07848 -10006005.85546  23232192.9934   23232192.0274   23232193.9514
      1508.0484
  -7522722.53346  -5851343.29646  24514060.3774   24514058.3324   24514063.2424
     -2981.3664
 -23075367.99848 -17974488.60047  21577061.3244   21577060.8144   21577063.6474
      2583.2604
 -17620987.81549 -13690806.53948  21719471.9364   21719471.6434   21719474.4514
      1363.5904
 -26458461.99149 -20594403.17648  20347706.7144   20347706.8244   20347708.1214
       -72.2644
 10  1  5  0  8  0.0000000  0 11G12G28G17G05G10G22G18G08G09G27G15
  -6724746.79347  -5227231.06546  24617594.8604   24617595.2944   24617596.5214
      3730.1994
 -15439822.33148 -11992319.18447  22647172.4864   22647171.4514   22647173.4734
     -2471.0064
 -12566109.48048  -9753016.04047  23113657.3294   23113657.4814   23113659.7964
      2157.0504
  -5100799.34947  -3917431.26546  24428565.7474   24428565.9824   24428568.0544
     -3641.8944
   2763546.72747   2201777.15846  25694152.1844   25694151.6234   25694155.3584
     -3600.7814
  -2426791.60346  -1668171.15446  25456864.6454   25456863.9604   25456865.6074
      2752.9864
 -12898194.24248 -10041065.45346  23223630.9574   23223630.6534   23223632.4624
      1491.4714
  -7433272.71746  -5781642.18546  24531082.6164   24531082.4404   24531084.6414
     -2981.8174
 -23152748.09648 -18034784.76347  21562336.3154   21562336.7304   21562339.4594
      2575.5394
 -17661812.51049 -13722617.98648  21711703.3714   21711703.1574   21711705.9674
      1358.2634
 -26456052.77449 -20592525.86948  20348165.1454   20348165.3144   20348166.7064
       -88.2054
 10  1  5  0  8 30.0000000  0 10G12G28G17G05G22G18G08G09G27G15
  -6836591.02147  -5314382.41746  24596311.1014   24596311.3124   24596313.7864
      3726.0994
 -15365546.27248 -11934441.74247  22661306.9334   22661305.9714   22661308.6834
     -2480.6274
 -12630631.84048  -9803293.20447  23101379.4004   23101380.1964   23101380.8084
      2144.2794
  -4991532.61147  -3832288.33546  24449358.3964   24449357.9794   24449361.4754
     -3642.6374
  -2509218.74447  -1732400.08046  25441178.9934   25441179.7054   25441178.9264
      2742.1384
 -12942673.50448 -10075724.63846  23215167.4924   23215166.7774   23215169.5084
      1473.7784
  -7343777.38946  -5711905.58946  24548112.9704   24548113.2244   24548117.3874
     -2984.0814
 -23229886.33348 -18094892.45747  21547657.6214   21547657.6294   21547659.4934
      2567.0794
 -17702465.91549 -13754295.95948  21703967.1884   21703966.7974   21703969.7454
      1352.2294
 -26453153.10349 -20590266.38948  20348716.9634   20348717.0874   20348718.4584
      -104.9734
 10  1  5  0  9  0.0000000  0 10G12G28G17G05G22G18G08G09G27G15
  -6948323.64747  -5401446.73246  24575048.8704   24575049.8384   24575051.4864
      3722.3354
 -15290994.04748 -11876349.10347  22675493.5064   22675492.9194   22675495.5204
     -2490.2664
 -12694783.20948  -9853281.29147  23089172.0434   23089171.4034   23089174.7094
      2131.8474
  -4882261.36947  -3747141.92546  24470151.4244   24470152.2814   24470155.5464
     -3642.9544
  -2591339.60747  -1796390.35146  25425552.5314   25425551.3154   25425552.8694
      2732.0094
 -12986638.98848 -10109983.44846  23206800.9304   23206801.6264   23206802.1504
      1456.5604
  -7254239.25646  -5642135.65646  24565151.0434   24565150.7314   24565154.4944
     -2985.8574
 -23306783.51348 -18154812.32347  21533024.4914   21533023.7004   21533026.5324
      2558.7104
 -17742949.42949 -13785841.55348  21696263.2074   21696263.2334   21696265.7744
      1346.2474
 -26449764.12349 -20587625.63248  20349361.7534   20349362.0874   20349363.3794
      -121.5304
 10  1  5  0  9 30.0000000  0 10G12G28G17G05G22G18G08G09G27G15
  -7059943.45947  -5488423.17846  24553808.7544   24553809.0494   24553809.6434
      3718.6114
 -15216168.45148 -11818043.45547  22689732.3874   22689731.8154   22689734.4744
     -2499.0474
 -12758561.95748  -9902979.01647  23077035.2324   23077035.4724   23077037.6714
      2119.4344
  -4772989.15447  -3661994.73446  24490945.4434   24490945.8884   24490948.0934
     -3642.8764
  -2673152.96847  -1860141.09246  25409983.9994   25409985.1824   25409983.6534
      2721.7714
 -13030090.10348 -10143841.47646  23198532.2954   23198533.2264   23198535.7564
      1439.6554
  -7164659.54646  -5572333.32446  24582197.5644   24582196.8394   24582200.8604
     -2986.6984
 -23383439.63348 -18214544.34447  21518437.3354   21518437.0394   21518439.1574
      2550.9804
 -17783264.04049 -13817255.54048  21688591.7334   21688591.8934   21688594.0134
      1340.7844
 -26445885.68849 -20584603.48348  20350099.8274   20350100.0874   20350101.4524
      -137.6754
 10  1  5  0 10  0.0000000  0 10G12G28G17G05G22G18G08G09G27G15
  -7171447.99247  -5575309.80346  24532589.8294   24532590.7674   24532592.8414
      3714.4054
 -15141070.87148 -11759525.85647  22704022.9314   22704023.2264   22704024.1544
     -2508.0404
 -12821964.68748  -9952383.73947  23064969.9584   23064970.1164   23064972.6054
      2106.8144
  -4663717.82847  -3576848.26146  24511739.5214   24511740.2634   24511741.2374
     -3642.3544
  -2754655.50447  -1923649.61446  25394473.7274   25394473.4694   25394474.5164
      2711.6584
 -13073024.65448 -10177296.96046  23190362.1424   23190362.9984   23190363.0494
      1422.4494
  -7075037.89246  -5502498.30546  24599252.2614   24599251.0914   24599256.6574
     -2988.4824
 -23459852.99848 -18274087.20047  21503896.0104   21503896.4264   21503898.6764
      2542.7824
 -17823408.97449 -13848537.30848  21680952.5044   21680952.2624   21680954.8524
      1335.0374
 -26441516.42049 -20581198.86348  20350931.2714   20350931.5984   20350932.8284
      -154.1364
 10  1  5  0 10 30.0000000  0 10G12G28G17G05G22G18G08G09G27G15
  -7282833.34747  -5662103.52846  24511394.4754   24511394.1594   24511397.0004
      3710.4224
 -15065701.65548 -11700796.60747  22718365.4854   22718365.0144   22718366.2394
     -2516.9694
 -12884986.70248 -10001491.79447  23052977.0204   23052977.8134   23052980.2814
      2094.1954
  -4554448.41647  -3491703.28246  24532532.2654   24532532.6844   24532534.6994
     -3642.4974
  -2835843.03647  -1986912.62746  25379025.0214   25379025.6824   25379025.2334
      2700.7814
 -13115439.35348 -10210347.37946  23182290.8654   23182289.7974   23182292.3974
      1404.8624
  -6985373.18646  -5432629.74546  24616314.7514   24616313.6104   24616318.5264
     -2989.7644
 -23536020.89348 -18333438.80547  21489401.9664   21489401.6394   21489404.0474
      2534.5664
 -17863382.31049 -13879685.36748  21673345.8664   21673345.5284   21673348.1714
      1329.3484
 -26436653.89749 -20577409.89248  20351856.6034   20351856.8974   20351858.2054
      -170.5094
 10  1  5  0 11  0.0000000  0 10G12G28G17G05G22G18G08G09G27G15
  -7394099.08947  -5748804.05646  24490220.6014   24490221.7144   24490223.2894
      3706.9094
 -14990064.48948 -11641858.56447  22732758.6774   22732758.2374   22732760.4854
     -2525.9224
 -12947627.00248 -10050302.41847  23041057.2704   23041057.9504   23041059.5574
      2081.2234
  -4445185.02447  -3406562.99546  24553325.0094   24553325.3334   24553326.4964
     -3642.2304
  -2916714.92047  -2049929.78546  25363635.9874   25363634.9674   25363634.4134
      2690.2384
 -13157334.58948 -10242993.01946  23174318.0984   23174317.6094   23174319.1264
      1387.5904
  -6895667.24046  -5362729.03746  24633384.7764   24633384.5284   24633387.1564
     -2991.7134
 -23611943.89248 -18392599.57647  21474954.2094   21474953.9764   21474956.0504
      2526.4854
 -17903185.75349 -13910701.04048  21665771.6654   21665771.2564   21665773.9544
      1323.7244
 -26431298.90849 -20573237.18248  20352875.5464   20352875.8554   20352877.2724
      -186.9774
 10  1  5  0 11 30.0000000  0 10G12G28G17G05G22G18G08G09G27G15
  -7505243.70847  -5835410.21246  24469070.4864   24469070.0754   24469073.1974
      3702.6664
 -14914161.90748 -11582713.69747  22747202.1334   22747202.0614   22747203.8864
     -2534.7774
 -13009883.28948 -10098813.80847  23029210.1314   23029210.9014   23029212.1584
      2068.7254
  -4335930.74347  -3321429.80246  24574115.5704   24574115.3924   24574118.6144
     -3641.8584
  -2997269.15347  -2112699.34446  25348306.7204   25348307.0904   25348308.3304
      2679.9354
 -13198709.65648 -10275233.34746  23166445.1614   23166444.6434   23166445.8844
      1370.3474
  -6805921.01846  -5292796.95246  24650463.6274   24650461.6984   24650467.1204
     -2992.2314
 -23687621.33748 -18451569.00447  21460553.4644   21460553.3154   21460555.4024
      2518.3644
 -17942819.47749 -13941584.46948  21658229.6164   21658229.3624   21658232.0214
      1318.1684
 -26425451.39749 -20568680.68948  20353988.3054   20353988.6604   20353990.0354
      -203.3254
 10  1  5  0 12  0.0000000  0 10G12G28G17G05G22G18G08G09G27G15
  -7616264.67147  -5921920.03446  24447943.9574   24447944.4784   24447947.1504
      3698.5794
 -14837995.25648 -11523363.06447  22761696.3884   22761696.3004   22761698.2524
     -2543.2774
 -13071752.40048 -10147023.50347  23017437.0054   23017436.7944   23017439.1844
      2055.8744
  -4226687.68747  -3236305.36746  24594904.0474   24594904.5064   24594906.8184
     -3641.4354
  -3077502.92747  -2175219.16546  25333038.4104   25333038.8624   25333038.6774
      2669.0534
 -13239562.38948 -10307066.63546  23158671.0874   23158671.2794   23158672.6944
      1353.1384
  -6716134.50546  -5222833.48446  24667549.1484   24667549.1194   24667553.1724
     -2993.2724
 -23763051.75848 -18510345.93747  21446199.4924   21446199.4334   21446201.0704
      2510.0774
 -17982283.09649 -13972335.34348  21650719.8584   21650719.4964   21650722.4194
      1312.5494
 -26419109.92349 -20563739.28648  20355194.9994   20355195.4414   20355196.6434
      -219.6854
 10  1  5  0 12 30.0000000  0 10G12G28G17G05G22G18G08G09G27G15
  -7727159.72547  -6008331.70046  24426841.8264   24426841.1804   24426843.6114
      3694.7494
 -14761566.11348 -11463807.89047  22776240.4734   22776239.3964   22776241.9264
     -2551.5894
 -13133231.33748 -10194929.16147  23005737.6304   23005738.2254   23005740.5054
      2043.3114
  -4117458.43547  -3151191.67646  24615689.4704   24615688.9184   24615690.7504
     -3640.1284
  -3157413.24147  -2237486.98246  25317831.8054   25317830.4374   25317830.0714
      2658.5254
 -13279890.75048 -10338491.34546  23150996.7054   23150995.6414   23150996.5384
      1335.8224
  -6626307.78547  -5152838.66646  24684642.8894   24684641.3874   24684645.4684
     -2994.6294
 -23838233.88148 -18568929.39147  21431892.6294   21431892.5844   21431895.0184
      2502.2654
 -18021576.01949 -14002953.20348  21643242.5844   21643242.4424   21643244.9874
      1307.2524
 -26412273.44649 -20558412.16848  20356496.0614   20356496.3444   20356497.5554
      -235.7604
 10  1  5  0 13  0.0000000  0 10G12G28G17G05G22G18G08G09G27G15
  -7837928.24647  -6094644.83046  24405762.4174   24405762.7724   24405763.8664
      3690.7294
 -14684878.13048 -11404051.02547  22790833.6454   22790833.7784   22790834.8824
     -2560.1724
 -13194318.85348 -10242529.82347  22994113.2664   22994114.2834   22994115.7364
      2030.1814
  -4008246.81547  -3066091.72546  24636471.4254   24636472.2404   24636474.9094
     -3639.8534
  -3236999.15746  -2299502.03446  25302686.3854   25302686.7574   25302687.4964
      2648.0514
 -13319695.29748 -10369507.88246  23143422.2774   23143422.2194   23143422.7164
      1318.4924
  -6536442.60947  -5082813.87946  24701743.4534   24701743.3824   24701747.6234
     -2995.7174
 -23913167.92648 -18627319.54647  21417633.1454   21417633.1314   21417635.2194
      2494.0484
 -18060699.66749 -14033439.16448  21635797.4934   21635797.4034   21635800.1294
      1301.7754
 -26404943.02149 -20552700.15748  20357890.9694   20357891.2374   20357892.6714
      -252.1074
 10  1  5  0 13 30.0000000  0 10G12G28G17G05G22G18G08G09G27G15
  -7948567.84747  -6180857.47146  24384708.6534   24384708.2744   24384711.5014
      3685.9254
 -14607933.09548 -11344093.85647  22805475.6824   22805475.6854   22805477.6734
     -2569.0754
 -13255011.64348 -10289822.90547  22982564.1064   22982564.4884   22982566.1134
      2016.3324
  -3899054.90747  -2981007.14646  24657249.9964   24657250.5234   24657252.7834
     -3639.5144
  -3316258.17146  -2361262.26546  25287606.6504   25287606.6924   25287604.1204
      2635.8244
 -13358974.55948 -10400115.11846  23135947.9994   23135947.6304   23135947.0674
      1300.4574
  -6446539.08647  -5012759.21946  24718851.1944   24718850.8444   24718854.2034
     -2997.6734
 -23987852.69648 -18685515.46547  21403421.0624   21403420.7844   21403423.1714
      2485.3044
 -18099653.50249 -14063792.79848  21628385.1244   21628384.6124   21628387.5524
      1295.4664
 -26397117.63449 -20546602.45948  20359380.0944   20359380.2934   20359381.8244
      -269.2074
 10  1  5  0 14  0.0000000  0 10G12G28G17G05G22G18G08G09G27G15
  -8059075.73047  -6266967.49346  24363679.9434   24363679.9504   24363681.7754
      3681.6004
 -14530732.29148 -11283937.39547  22820166.4754   22820166.7724   22820167.8854
     -2577.4174
 -13315306.70348 -10336806.07047  22971089.7464   22971090.5574   22971092.2444
      2003.3014
  -3789884.76947  -2895939.52046  24678024.7394   24678025.1004   24678025.9874
     -3638.5734
  -3395187.17046  -2422765.41546  25272585.4544   25272585.4754   25272584.5954
      2625.3894
 -13397726.30048 -10430311.28846  23128572.8744   23128573.2794   23128573.8644
      1282.9604
  -6356596.61947  -4942674.21146  24735966.7364   24735966.5904   24735969.8854
     -2998.4874
 -24062286.72648 -18743516.00347  21389256.6994   21389256.9744   21389258.8654
      2477.1314
 -18138436.96849 -14094013.68048  21621004.5264   21621004.2654   21621007.3434
      1290.0524
 -26388795.80049 -20540117.91848  20360963.7764   20360964.0904   20360965.3464
      -285.4734
 10  1  5  0 14 30.0000000  0 10G12G28G17G05G22G18G08G09G27G15
  -8169449.71847  -6352973.17746  24342676.0754   24342676.4294   24342679.2624
      3677.0434
 -14453277.29748 -11223582.86347  22834905.8024   22834905.1064   22834906.3934
     -2585.9544
 -13375201.13148 -10383477.04947  22959692.6814   22959692.0324   22959694.2034
      1990.0004
  -3680738.77747  -2810890.73546  24698793.8504   24698793.6354   24698797.1124
     -3637.7104
  -3473783.37346  -2484009.17846  25257629.7024   25257630.1094   25257626.3124
      2614.4014
 -13435948.73948 -10460095.01446  23121300.5694   23121301.2384   23121300.9634
      1265.4654
  -6266615.72347  -4872559.26246  24753089.8854   24753089.3034   24753092.5074
     -2999.9064
 -24136468.06548 -18801319.63947  21375140.5284   21375140.3584   21375142.2974
      2468.7214
 -18177049.54449 -14124101.40048  21613657.0454   21613656.8384   21613659.5304
      1284.4594
 -26379976.56649 -20533245.79648  20362641.8204   20362642.2164   20362643.5484
      -302.1344
 10  1  5  0 15  0.0000000  0 10G12G28G17G05G22G18G08G09G27G15
  -8279689.77747  -6438874.48746  24321698.3744   24321698.9554   24321701.2964
      3672.4694
 -14375572.13648 -11163033.39847  22849692.6314   22849692.5574   22849694.6204
     -2594.3644
 -13434693.93648 -10429835.07447  22948371.1934   22948371.4464   22948373.7304
      1976.3074
  -3571621.45147  -2725864.27146  24719558.2304   24719558.6924   24719560.8454
     -3636.8004
  -3552046.00246  -2544993.06546  25242735.7714   25242732.9674   25242735.1164
      2603.4414
 -13473642.66248 -10489466.90846  23114127.4034   23114126.2484   23114127.7494
      1247.5784
  -6176598.16747  -4802415.72846  24770219.8014   24770219.2104   24770223.6574
     -3001.1404
 -24210397.67048 -18858927.11947  21361072.3854   21361072.0214   21361074.4214
      2460.1524
 -18215493.08649 -14154057.40648  21606341.4294   21606340.9814   21606343.9894
      1278.6644
 -26370661.10749 -20525987.00448  20364414.6764   20364414.7694   20364416.1144
      -318.8224
 10  1  5  0 15 30.0000000  0 10G12G28G17G05G22G18G08G09G27G15
  -8389791.68147  -6524668.17646  24300746.4934   24300746.8754   24300748.9014
      3667.6624
 -14297616.81548 -11102288.99847  22864527.0554   22864526.6534   22864529.1334
     -2602.4904
 -13493780.79648 -10475876.78147  22937127.6844   22937127.9154   22937129.5974
      1962.7384
  -3462533.24847  -2640860.48446  24740317.6414   24740318.4514   24740321.1364
     -3635.6894
  -3629971.26246  -2605714.07746  25227907.0894   25227904.3574   25227907.2454
      2592.0454
 -13510804.72448 -10518424.37446  23107055.5074   23107054.0574   23107056.9884
      1229.9954
  -6086542.34647  -4732242.42046  24787356.5254   24787356.5254   24787361.2204
     -3002.5364
 -24284072.88748 -18916336.36947  21347052.4424   21347052.4304   21347054.3924
      2451.5484
 -18253765.52949 -14183880.08548  21599058.2834   21599058.2944   21599060.7404
      1272.8974
 -26360847.03849 -20518339.68448  20366282.2044   20366282.5874   20366283.9364
      -335.5674
 10  1  5  0 16  0.0000000  0 10G12G28G17G05G22G18G08G09G27G15
  -8499754.15647  -6610353.19546  24279821.9694   24279822.0094   24279824.3294
      3662.9584
 -14219413.93648 -11041351.69747  22879408.5704   22879407.8674   22879410.9004
     -2610.8244
 -13552459.03148 -10521600.08347  22925961.7154   22925961.4294   22925963.4474
      1949.1264
  -3353477.08947  -2555881.68246  24761070.1834   24761070.7654   24761073.1154
     -3634.7704
  -3707557.19546  -2666170.63046  25213143.4224   25213141.9474   25213141.8084
      2580.5614
 -13547434.33348 -10546966.94146  23100084.4314   23100083.8834   23100087.0304
      1212.1164
  -5996449.53247  -4662040.25546  24804500.7164   24804500.7994   24804503.5694
     -3003.5674
 -24357493.19348 -18973546.99947  21333080.9864   21333080.8554   21333083.7414
      2443.0214
 -18291867.23749 -14213569.72348  21591807.9764   21591807.4284   21591810.3884
      1267.2204
 -26350534.54849 -20510303.98548  20368244.8114   20368244.8984   20368246.1864
      -352.1114
 10  1  5  0 16 30.0000000  0 10G12G28G17G05G22G18G08G09G27G15
  -8609577.38947  -6695929.72546  24258922.8194   24258922.7644   24258925.2974
      3658.1514
 -14140967.59248 -10980224.67647  22894336.5734   22894336.9804   22894337.8224
     -2619.1604
 -13610728.68248 -10567005.00047  22914873.3864   22914873.1184   22914875.4094
      1935.2874
  -3244458.05347  -2470931.77946  24781816.0564   24781815.4204   24781817.9744
     -3633.8414
  -3784803.48746  -2726362.57746  25198443.7334   25198442.2854   25198443.5434
      2569.1894
 -13583532.43248 -10575095.34146  23093215.8344   23093215.8624   23093218.0694
      1194.0964
  -5906322.32047  -4591811.28446  24821651.6514   24821651.3544   24821653.9444
     -3004.9394
 -24430659.62648 -19030559.79847  21319157.8294   21319157.7014   21319159.7154
      2434.3894
 -18329800.49649 -14243128.10148  21584589.3144   21584589.1494   21584591.6254
      1261.4334
 -26339724.69749 -20501880.73248  20370301.7914   20370301.8964   20370303.3054
      -368.7944
 10  1  5  0 17  0.0000000  0 10G12G28G17G05G22G18G08G09G27G15
  -8719257.21147  -6781394.50046  24238051.4194   24238052.0324   24238053.4244
      3653.4554
 -14062277.81548 -10918907.97347  22909310.7744   22909310.1854   22909312.1424
     -2626.9674
 -13668585.36448 -10612088.13447  22903863.7714   22903863.2834   22903866.0564
      1921.6764
  -3135476.68147  -2386011.23746  24802554.5974   24802554.1114   24802556.6424
     -3631.8814
  -3861705.84746  -2786286.50146  25183811.1524   25183810.3764   25183808.2634
      2557.5354
 -13619096.15648 -10602807.34346  23086448.3824   23086447.4074   23086447.9794
      1176.5224
  -5816158.96747  -4521554.14546  24838809.0394   24838809.5384   24838811.2044
     -3006.0814
 -24503569.32748 -19087372.55947  21305283.5124   21305283.6744   21305285.3954
      2426.1224
 -18367563.13649 -14272553.53348  21577403.4484   21577403.0734   21577406.0054
      1255.8594
 -26328415.35549 -20493068.26448  20372453.7194   20372454.0814   20372455.3764
      -385.3554
 10  1  5  0 17 30.0000000  0 10G12G28G17G05G22G18G08G09G27G15
  -8828793.26947  -6866747.24546  24217207.0034   24217207.5454   24217208.9244
      3648.6644
 -13983347.98048 -10857404.21547  22924330.6604   22924330.3374   22924332.8204
     -2635.0144
 -13726027.31248 -10656848.09147  22892932.5144   22892932.6484   22892935.2534
      1907.6324
  -3026536.85847  -2301123.06546  24823284.3554   24823286.0554   24823287.2954
     -3630.7304
  -3938263.30646  -2845941.66346  25169241.2664   25169242.1744   25169240.9834
      2546.1604
 -13654125.27448 -10630102.76646  23079782.5224   23079782.8324   23079782.3684
      1158.6724
  -5725961.00047  -4451270.05946  24855973.4564   24855973.6134   24855975.0734
     -3007.5244
 -24576222.17548 -19143985.16647  21291458.1764   21291458.0804   21291460.3824
      2417.3144
 -18405156.08549 -14301846.73248  21570249.6074   21570249.5334   21570252.4064
      1250.0604
 -26316607.02649 -20483866.97548  20374700.7134   20374701.0994   20374702.5364
      -402.1294
 10  1  5  0 18  0.0000000  0 10G12G28G17G05G22G18G08G09G27G15
  -8938181.29447  -6951984.65446  24196391.9334   24196391.6074   24196393.9374
      3643.8594
 -13904177.92248 -10795713.27147  22939396.2364   22939395.8684   22939397.8834
     -2642.7694
 -13783050.00248 -10701281.34247  22882081.6204   22882081.6864   22882084.1424
      1894.0784
  -2917639.02847  -2216267.60746  24844007.9144   24844007.1654   24844009.9734
     -3629.2144
  -4014471.13246  -2905324.41946  25154738.4694   25154738.5754   25154738.5594
      2534.7754
 -13688616.24648 -10656978.86446  23073219.3604   23073217.4994   23073218.6604
      1140.6814
  -5635726.79347  -4380957.73146  24873144.3674   24873144.6294   24873147.9134
     -3008.1934
 -24648615.11748 -19200395.24547  21277682.1284   21277682.3644   21277683.9104
      2408.8784
 -18442576.97349 -14331005.86048  21563128.7254   21563128.4334   21563131.1354
      1244.6814
 -26304297.16349 -20474274.88048  20377043.3694   20377043.7064   20377044.9514
      -418.4854
 10  1  5  0 18 30.0000000  0 10G12G28G17G05G22G18G08G09G27G15
  -9047422.09347  -7037107.32846  24175603.3194   24175604.2584   24175605.2604
      3637.8274
 -13824772.52948 -10733838.94247  22954506.3504   22954505.7124   22954508.4444
     -2651.8594
 -13839653.72248 -10745388.12847  22871310.3534   22871310.3504   22871312.4044
      1878.6244
  -2808788.09147  -2131448.71646  24864721.3584   24864721.1204   24864723.5294
     -3628.9534
  -4090329.83247  -2964435.08046  25140306.3404   25140306.8594   25140305.0934
      2521.4904
 -13722571.07048 -10683437.16646  23066757.7704   23066757.5974   23066759.3864
      1121.8994
  -5545459.62247  -4310619.70146  24890321.1034   24890321.3654   24890325.3194
     -3010.5154
 -24720750.13848 -19256604.35047  21263955.4634   21263955.0404   21263958.0564
      2399.1484
 -18479828.66349 -14360033.14648  21556039.9624   21556039.8924   21556042.5394
      1237.8034
 -26291488.18649 -20464293.86648  20379480.8914   20379481.1184   20379482.4594
      -436.4494
 10  1  5  0 19  0.0000000  0 10G12G28G17G05G22G18G08G09G27G15
  -9156514.33447  -7122114.27746  24154844.0904   24154843.7314   24154846.1884
      3633.4834
 -13745134.49048 -10671783.33147  22969661.1134   22969662.4494   22969663.0054
     -2659.0974
 -13895836.74348 -10789167.09947  22860618.7224   22860618.8324   22860621.4044
      1864.8744
  -2699987.53847  -2046669.06346  24885424.8764   24885425.4944   24885427.7964
     -3626.5554
  -4165837.92746  -3023272.59845  25125933.4884   25125931.8904   25125932.9714
      2510.6114
 -13755989.41548 -10709477.43646  23060398.0084   23060398.4724   23060399.3524
      1104.4004
  -5455160.24747  -4240256.58046  24907504.8004   24907504.5944   24907508.8804
     -3011.1934
 -24792627.03348 -19312612.31247  21250277.4714   21250277.0594   21250280.4124
      2390.9294
 -18516912.10449 -14388929.32548  21548983.4474   21548982.7684   21548985.8864
      1232.7004
 -26278180.18149 -20453923.99848  20382013.3164   20382013.5044   20382014.8144
      -452.5504
 10  1  5  0 19 30.0000000  0 10G12G28G17G05G22G18G08G09G27G15
  -9265452.94247  -7207001.48146  24134114.0384   24134113.3454   24134115.5694
      3628.9104
 -13665262.56048 -10609545.46547  22984860.1254   22984860.1974   22984861.3914
     -2666.0584
 -13951593.34548 -10832613.79147  22850008.8674   22850008.6254   22850010.6934
      1851.4464
  -2591236.90147  -1961928.32246  24906118.9974   24906120.9084   24906121.1974
     -3624.2444
  -4240989.56147  -3081832.27245  25111634.3074   25111636.1584   25111634.7054
      2499.3444
 -13788867.00448 -10735096.35746  23054142.4254   23054141.4474   23054143.6964
      1087.0884
  -5364825.95347  -4169866.25545  24924694.8464   24924695.0734   24924696.8674
     -3011.3964
 -24864241.32149 -19368415.64547  21236649.8004   21236649.5624   21236652.0744
      2382.9764
 -18553823.99149 -14417691.83148  21541959.0764   21541959.0514   21541961.5194
      1227.7254
 -26264369.74149 -20443162.61948  20384641.2484   20384641.5194   20384642.8644
      -468.5204
 10  1  5  0 20  0.0000000  0 10G12G28G17G05G22G18G08G09G27G15
  -9374236.75047  -7291768.09946  24113412.9934   24113413.1454   24113414.8374
      3623.5734
 -13585160.18248 -10547128.03947  23000103.1904   23000103.4174   23000104.9614
     -2673.6014
 -14006922.04048 -10875727.05747  22839479.8754   22839480.3364   22839482.0804
      1837.5194
  -2482539.72147  -1877229.24346  24926804.4624   24926804.5984   24926806.3764
     -3622.1594
  -4315783.84646  -3140113.55846  25097400.0604   25097395.9044   25097399.2194
      2487.6164
 -13821203.53248 -10760293.66246  23047988.5604   23047987.3754   23047989.8084
      1069.0364
  -5274458.40046  -4099450.00545  24941891.3494   24941890.6694   24941894.6454
     -3012.8584
 -24935592.95149 -19424014.31047  21223072.1074   21223072.3194   21223074.0934
      2374.2054
 -18590564.86949 -14446321.08048  21534967.7334   21534967.6774   21534970.0744
      1222.0814
 -26250057.19749 -20432009.99348  20387364.8344   20387365.0504   20387366.5064
      -485.2214
 10  1  5  0 20 30.0000000  0 10G12G28G17G05G22G18G08G09G27G15
  -9482867.03847  -7376415.07346  24092741.1904   24092741.8484   24092743.8144
      3619.0364
 -13504831.67848 -10484534.40147  23015388.9434   23015390.4434   23015391.2604
     -2680.9344
 -14061822.91848 -10918506.94947  22829032.6804   22829033.0814   22829034.9234
      1823.2804
  -2373901.15647  -1792575.80846  24947477.4234   24947477.3294   24947479.4324
     -3619.7214
  -4390221.51847  -3198116.91246  25083238.8994   25083240.7934   25083241.0264
      2475.4214
 -13853001.13748 -10785071.02846  23041937.7764   23041937.2374   23041939.1504
      1051.4134
  -5184060.78447  -4029010.33245  24959094.1824   24959090.3724   24959095.3034
     -3013.3764
 -25006683.59649 -19479409.60547  21209544.1164   21209544.0754   21209546.6974
      2365.8014
 -18627137.30449 -14474819.08048  21528008.1354   21528008.1814   21528010.5984
      1216.7584
 -26235244.94549 -20420467.98548  20390183.6454   20390183.8664   20390185.0954
      -501.5844
 10  1  5  0 21  0.0000000  0 10G12G28G17G05G22G18G08G09G27G15
  -9591337.81647  -7460937.75946  24072099.8844   24072099.8454   24072102.0134
      3613.3304
 -13424274.90048 -10421762.88947  23030718.4414   23030718.0624   23030720.1734
     -2688.5384
 -14116289.77748 -10960948.64547  22818668.3894   22818667.9314   22818669.9684
      1808.6294
  -2265319.86647  -1707967.02346  24968139.9024   24968140.6644   24968143.0614
     -3618.2004
  -4464296.27347  -3255837.51546  25069139.4764   25069139.3034   25069143.7984
      2463.5404
 -13884254.67748 -10809424.45346  23035990.1114   23035990.1964   23035990.7964
      1033.2124
  -5093628.61546  -3958543.69445  24976302.0514   24976300.5364   24976306.1704
     -3014.7904
 -25077508.67349 -19534597.96947  21196066.4194   21196066.3174   21196068.9904
      2356.8234
 -18663537.58749 -14503182.93048  21521081.3724   21521080.9404   21521083.7654
      1210.8404
 -26219928.50049 -20408533.09848  20393098.1574   20393098.3514   20393099.8464
      -518.6304
 10  1  5  0 21 30.0000000  0 10G12G28G17G05G22G18G08G09G27G15
  -9699650.19747  -7545337.03046  24051488.9744   24051489.2914   24051490.2424
      3607.6884
 -13343495.42248 -10358817.85347  23046090.3664   23046090.7964   23046091.9854
     -2696.4344
 -14170323.22948 -11003052.62647  22808385.8824   22808386.1914   22808388.5484
      1793.9064
  -2156801.69347  -1623407.42846  24988789.4364   24988790.4104   24988791.9804
     -3616.1594
  -4538008.72047  -3313275.78346  25055113.7544   25055115.7524   25055118.5044
      2451.4594
 -13914966.32348 -10833355.61646  23030146.4574   23030146.0344   23030145.8494
      1014.5984
  -5003166.04846  -3888053.41845  24993516.9844   24993513.5524   24993520.7624
     -3015.7134
 -25148070.08249 -19589580.87347  21182639.3384   21182639.0924   21182640.7454
      2347.8034
 -18699768.42049 -14531414.73848  21514186.8204   21514186.6164   21514188.9934
      1204.9934
 -26204111.10749 -20396207.86048  20396108.0874   20396108.3194   20396109.7664
      -535.5394
 10  1  5  0 22  0.0000000  0 10G12G28G17G05G22G18G08G09G27G15
  -9807799.41447  -7629609.15546  24030908.8324   24030908.6434   24030910.0614
      3602.1174
 -13262492.35548 -10295698.57447  23061504.8964   23061504.7774   23061507.4644
     -2703.8554
 -14223918.10248 -11044814.85447  22798186.8794   22798187.8404   22798189.1654
      1779.2344
  -2048346.30047  -1538896.73046  25009428.6894   25009429.0324   25009430.6334
     -3613.6644
  -4611353.89847  -3370427.86246  25041157.3034   25041158.9214   25041161.8674
      2438.5874
 -13945132.37048 -10856861.64446  23024405.6804   23024405.9664   23024407.2244
       996.4194
  -4912670.74346  -3817537.63245  25010738.1334   25010738.2914   25010742.4164
     -3017.0884
 -25218363.92549 -19644355.29647  21169262.4874   21169262.4744   21169264.9804
      2338.6754
 -18735826.72349 -14559512.11048  21507325.1134   21507324.9194   21507327.6434
      1199.0974
 -26187789.21849 -20383489.51548  20399214.0234   20399214.2704   20399215.7714
      -552.4694
 10  1  5  0 22 30.0000000  0 10G12G28G17G05G22G18G08G09G27G15
  -9915786.51947  -7713754.97446  24010359.7404   24010359.3454   24010360.9464
      3596.9064
 -13181270.68248 -10232408.96547  23076960.8384   23076958.9914   23076962.0994
     -2710.8514
 -14277074.81848 -11086235.65347  22788071.2324   22788071.4674   22788073.6404
      1764.7814
  -1939959.10947  -1454439.17546  25030053.7324   25030054.6904   25030057.6824
     -3611.5794
  -4684332.33747  -3427294.19046  25027269.9554   25027270.3164   25027267.3964
      2426.5354
 -13974754.84248 -10879944.10946  23018768.4654   23018768.7954   23018769.8014
       978.2984
  -4822145.93246  -3746998.86045  25027964.5374   25027965.1564   25027966.5274
     -3017.6404
 -25288392.07849 -19698922.68347  21155936.6144   21155936.4214   21155938.8154
      2329.9244
 -18771715.55749 -14587477.42448  21500495.7424   21500495.7694   21500497.9834
      1193.5784
 -26170965.22949 -20370379.91948  20402415.6094   20402415.8304   20402417.1404
      -569.0584
 10  1  5  0 23  0.0000000  0 10G12G28G17G05G22G18G08G09G27G15
 -10023608.50947  -7797772.10646  23989841.6984   23989842.5784   23989844.6414
      3590.9294
 -13099831.44048 -10168949.81147  23092458.3184   23092458.3754   23092458.8554
     -2718.7374
 -14329790.21848 -11127312.58747  22778040.2304   22778039.7424   22778042.4724
      1749.1984
  -1831641.56247  -1370035.90546  25050665.6034   25050666.6004   25050667.6844
     -3609.8294
  -4756941.01447  -3483872.36246  25013453.1864   25013454.4094   25013455.1534
      2413.6444
 -14003831.74548 -10902601.45046  23013235.8094   23013235.9594   23013237.1034
       959.4254
  -4731590.61646  -3676436.29045  25045195.7494   25045195.9754   25045197.7874
     -3019.7244
 -25358152.69849 -19753281.59847  21142661.6354   21142661.7474   21142664.1964
      2320.3744
 -18807433.93349 -14615309.92348  21493698.7764   21493698.5244   21493701.0244
      1187.2324
 -26153638.47049 -20356878.55248  20405712.7524   20405713.2154   20405714.4454
      -586.4824
 10  1  5  0 23 30.0000000  0 10G12G28G17G05G22G18G08G09G27G15
 -10131263.13847  -7881658.85546  23969355.1764   23969354.8264   23969358.6814
      3585.5084
 -13018176.14848 -10105322.31347  23107996.6624   23107996.5424   23107997.5594
     -2725.3434
 -14382061.22848 -11168043.23647  22768093.1444   22768093.1284   22768095.8434
      1734.8574
  -1723395.51947  -1285688.36846  25071264.3684   25071265.6994   25071266.8454
     -3606.8554
  -4829177.29547  -3540160.41746  24999705.6354   24999705.0364   24999704.5344
      2401.6904
 -14032361.69748 -10924832.59246  23007806.5574   23007806.0214   23007807.0534
       941.7764
  -4641004.99146  -3605850.11845  25062433.8604   25062435.3184   25062437.3554
     -3019.9394
 -25427644.09649 -19807430.73347  21129437.7964   21129437.7724   21129439.7284
      2311.8454
 -18842981.13749 -14643009.03748  21486934.3454   21486933.9604   21486937.0834
      1182.0954
 -26135807.42749 -20342984.24148  20409105.9704   20409106.2554   20409107.5214
      -602.8174
 10  1  5  0 24  0.0000000  0 10G12G28G17G05G22G18G08G09G27G15
 -10238749.47947  -7965414.44546  23948902.1774   23948902.5404   23948903.7954
      3580.3574
 -12936307.55648 -10041528.61847  23123575.8474   23123575.2944   23123577.6014
     -2732.3974
 -14433886.19448 -11208426.32047  22758231.5454   22758231.9394   22758233.8444
      1720.3584
  -1615224.43547  -1201399.20346  25091849.1144   25091850.1754   25091853.9054
     -3604.1674
  -4901039.78847  -3596157.14946  24986031.1444   24986030.3244   24986031.0994
      2389.6134
 -14060344.74548 -10946637.57746  23002481.3724   23002481.4804   23002481.7694
       923.8934
  -4550390.44946  -3535241.36145  25079676.7164   25079678.4724   25079680.8014
     -3020.5904
 -25496866.09649 -19861369.94347  21116265.5354   21116265.2404   21116267.9214
      2303.1924
 -18878357.95349 -14670575.37848  21480202.2944   21480201.9244   21480205.1784
      1176.6354
 -26117473.15849 -20328697.80248  20412594.7734   20412595.0284   20412596.4894
      -619.3134
 10  1  5  0 24 30.0000000  0 10G12G28G17G05G22G18G08G09G27G15
 -10346065.98147  -8049037.70146  23928479.9624   23928479.7164   23928482.6744
      3574.3224
 -12854228.46448  -9977570.89147  23139194.9884   23139193.6214   23139196.5914
     -2739.5294
 -14485263.91348 -11248460.89847  22748454.6594   22748454.7374   22748456.8454
      1704.7694
  -1507131.60847  -1117170.98746  25112417.9104   25112416.9014   25112420.5784
     -3602.1484
  -4972526.42447  -3651861.02746  24972426.7844   24972424.7804   24972428.3284
      2376.7174
 -14087780.81748 -10968016.35046  22997260.2594   22997260.3554   22997261.1044
       905.4154
  -4459747.58246  -3464610.56145  25096925.8004   25096924.9574   25096929.6984
     -3021.8624
 -25565818.58349 -19915099.14148  21103144.1854   21103144.0804   21103146.5014
      2293.7834
 -18913564.89449 -14698009.35448  21473502.7304   21473502.4554   21473504.8854
      1170.6564
 -26098636.05949 -20314019.54848  20416179.4394   20416179.5314   20416180.9704
      -636.4444
 10  1  5  0 25  0.0000000  0 10G12G28G17G05G22G18G08G09G27G15
 -10453210.51447  -8132526.94446  23908091.1464   23908090.9064   23908092.8604
      3568.0584
 -12771940.36948  -9913450.30047  23154853.6524   23154852.8954   23154854.8524
     -2746.4354
 -14536191.33748 -11288144.59547  22738763.3164   22738763.0214   22738766.2374
      1689.7034
  -1399119.07347  -1033005.42046  25132972.3964   25132973.3154   25132974.8524
     -3599.3914
  -5043635.15647  -3707270.41446  24958895.5364   24958894.5794   24958897.0974
      2363.6954
 -14114668.40248 -10988967.71946  22992144.1454   22992143.1024   22992145.4894
       886.8044
  -5944496.83816  -4621558.04355  25114180.072                    25114185.7064
     -3023.309
 -25634500.06549 -19968617.16648  21090074.5524   21090074.4444   21090076.7094
      2284.6054
 -18948601.09349 -14725310.28548  21466835.6034   21466835.1224   21466837.9604
      1164.7884
 -26079295.08149 -20298948.65948  20419859.8774   20419860.0394   20419861.5764
      -653.4684
 10  1  5  0 25 30.0000000  0 10G12G28G17G05G22G18G08G09G27G15
 -10560176.53247  -8215877.08646  23887736.0844   23887736.7464   23887738.3244
      3562.5364
 -12689440.60748  -9849164.77447  23170553.0134   23170552.5874   23170553.9724
     -2753.6874
 -14586661.49948 -11327471.98747  22729159.0544   22729159.4244   22729161.8344
      1674.4454
  -1291184.93046   -948900.88146  25153511.1804   25153513.8824   25153513.6414
     -3596.0524
  -5114359.23447  -3762380.10846  24945437.7394   24945437.2374   24945439.2294
      2350.8874
 -14141002.53648 -11009487.85247  22987132.5564   22987132.6454   22987134.2724
       868.3874
  -5853793.79816  -4550880.35745  25131440.196                    25131443.6654
     -3024.124
 -25702904.98449 -20021919.69248  21077057.6004   21077057.4764   21077059.6024
      2275.4794
 -18983462.38249 -14752474.92248  21460201.5094   21460201.2794   21460204.0464
      1159.0304
 -26059445.73949 -20283481.64848  20423637.0494   20423637.2504   20423638.6174
      -670.2624
 10  1  5  0 26  0.0000000  0  9G12G28G17G05G22G18G09G27G15
 -10666970.82147  -8299093.39746  23867413.9504   23867413.9374   23867415.9304
      3556.7314
 -12606740.03648  -9784722.77147  23186290.3164   23186290.8934   23186292.0074
     -2760.4904
 -14636680.76048 -11366448.02647  22719640.9144   22719641.4344   22719642.7984
      1659.3174
  -1183340.55446   -864866.29046  25174033.8064   25174033.7074   25174035.8164
     -3593.8224
  -5184705.11347  -3817195.06546  24932051.9284   24932053.3414   24932053.5064
      2338.4944
 -14166790.88548 -11029582.68046  22982226.0154   22982225.3224   22982227.1074
       850.1274
 -25771040.67249 -20075012.42248  21064091.6374   21064091.5354   21064093.8574
      2266.2464
 -19018157.05549 -14779509.73548  21453599.3764   21453599.2804   21453601.6694
      1153.3354
 -26039096.31249 -20267624.96048  20427509.4774   20427509.6924   20427511.1374
      -686.9964
 10  1  5  0 26 30.0000000  0  9G12G28G17G05G22G18G09G27G15
 -10773584.91147  -8382169.30546  23847125.7784   23847125.2574   23847127.6744
      3550.6844
 -12523834.15648  -9720120.78847  23202066.7074   23202066.8104   23202066.6724
     -2766.6694
 -14686240.43248 -11405065.93947  22710209.8004   22710210.1214   22710212.1604
      1644.2804
  -1075581.32046   -780898.07145  25194538.8544   25194540.3474   25194545.5134
     -3590.4754
  -5254663.87747  -3871708.42546  24918739.3814   24918740.4244   24918738.5474
      2325.2474
 -14192026.19548 -11049246.56446  22977423.8224   22977423.4054   22977423.7064
       831.7424
 -25838899.76049 -20127889.61748  21051178.4614   21051178.4554   21051180.7774
      2257.3604
 -19052678.34849 -14806409.44148  21447030.2524   21447029.9584   21447032.8364
      1147.7854
 -26018240.10049 -20251373.37048  20431478.3214   20431478.5194   20431479.7444
      -703.7314
 10  1  5  0 27  0.0000000  0  9G12G28G17G05G22G18G09G27G15
 -10880019.61247  -8465105.41746  23826872.0734   23826871.3314   23826873.6134
      3544.9404
 -12440727.68948  -9655362.50147  23217881.7084   23217881.8384   23217883.5554
     -2773.5954
 -14735341.16248 -11443326.23247  22700866.6974   22700867.1414   22700868.4714
      1629.0904
   -967912.24146   -697000.13945  25215028.1804   25215029.0804   25215032.1034
     -3587.4734
  -5324236.35447  -3925920.73246  24905499.8954   24905499.2424   24905499.5854
      2312.6644
 -14216710.62248 -11068481.19847  22972726.3804   22972726.7934   22972728.6404
       813.8874
 -25906483.96849 -20180552.62948  21038317.8564   21038317.5254   21038319.8114
      2248.2844
 -19087029.16549 -14833176.31248  21440493.4464   21440493.2684   21440496.0724
      1142.2574
 -25996879.88849 -20234729.05748  20435543.0134   20435543.3024   20435544.6574
      -720.2134
 10  1  5  0 27 30.0000000  0  9G12G28G17G05G22G18G09G27G15
 -10986274.83247  -8547901.67546  23806652.5044   23806652.1234   23806654.0044
      3538.4884
 -12357423.83848  -9590450.41247  23233733.8474   23233732.8124   23233734.4984
     -2780.1234
 -14783981.87248 -11481228.07747  22691610.6754   22691610.8284   22691611.9744
      1613.2874
   -860337.53346   -613175.69745  25235499.3874   25235498.3524   25235501.9614
     -3584.2874
  -5393421.71947  -3979831.43646  24892334.9744   24892335.0544   24892335.7274
      2299.1534
 -14240844.46348 -11087286.79747  22968133.3124   22968134.1684   22968134.3074
       794.8954
 -25973793.66249 -20233001.72448  21025509.0374   21025508.9164   21025511.5464
      2238.6394
 -19121210.51249 -14859811.12548  21433989.0664   21433988.6284   21433991.5994
      1136.1634
 -25975016.67449 -20217692.79048  20439703.2764   20439703.7144   20439705.0634
      -737.6074
 10  1  5  0 28  0.0000000  0  9G12G28G17G05G22G18G09G27G15
 -11092345.16447  -8630553.85946  23786467.9294   23786468.2084   23786469.6364
      3532.8984
 -12273921.47148  -9525383.64247  23249623.7944   23249623.0064   23249624.9974
     -2786.6474
 -14832157.10448 -11518767.21147  22682443.2524   22682443.6524   22682445.2324
      1598.3154
   -752856.32846   -529424.14045  25255951.6204   25255953.3724   25255954.7534
     -3580.7174
  -5462214.79747  -4033436.41646  24879242.8774   24879242.2424   24879242.7544
      2286.7104
 -14264424.13248 -11105660.57147  22963646.5554   22963646.4564   22963646.7424
       776.9414
 -26040824.68849 -20285233.68448  21012753.5504   21012753.1834   21012755.3534
      2229.9904
 -19155218.94349 -14886311.20348  21427517.5034   21427517.6224   21427519.7964
      1130.9544
 -25952647.19249 -20200262.03148  20443960.1084   20443960.3944   20443961.8714
      -753.8604
 10  1  5  0 28 30.0000000  0  9G12G28G17G05G22G18G09G27G15
 -11198229.15748  -8713060.83546  23766318.4914   23766319.0034   23766320.5514
      3526.6264
 -12190222.78748  -9460163.89647  23265551.1164   23265550.8014   23265552.4014
     -2792.8674
 -14879864.69348 -11555941.94047  22673364.2424   22673364.5834   22673366.6334
      1582.7724
   -645471.46246   -445747.61346  25276386.4564   25276386.9694   25276390.6434
     -3577.8204
  -5530613.44247  -4086734.07046  24866227.0674   24866227.8924   24866228.0414
      2273.7454
 -14287448.90548 -11123601.96347  22959265.6784   22959263.6124   22959267.3784
       758.4304
 -26107576.17349 -20337247.81548  21000050.9644   21000051.2994   21000053.1224
      2220.6854
 -19189054.64049 -14912676.68248  21421078.7254   21421078.6614   21421081.0914
      1125.2804
 -25929771.35049 -20182436.71048  20448313.2094   20448313.6104   20448315.0534
      -770.6774
 10  1  5  0 29  0.0000000  0  9G12G28G17G05G22G18G09G27G15
 -11303927.08547  -8795422.84146  23746205.0614   23746204.9974   23746206.8894
      3520.0924
 -12106331.92548  -9394794.39147  23281514.8834   23281515.0414   23281517.1184
     -2799.8784
 -14927104.82348 -11592752.42347  22664374.9234   22664375.5124   22664376.9944
      1566.5484
   -538187.60646   -362149.79746  25296801.0544   25296802.6994   25296804.2954
     -3574.6494
  -5598617.74847  -4139724.44446  24853286.1134   24853288.1914   24853286.4964
      2259.9424
 -14309920.77448 -11141112.50347  22954988.7654   22954987.6804   22954989.3194
       739.6984
 -26174049.00549 -20389044.81448  20987401.6994   20987401.4574   20987403.6664
      2210.9044
 -19222719.63749 -14938909.14948  21414672.5294   21414672.1414   21414674.6014
      1119.1164
 -25906391.17249 -20164218.39648  20452762.3994   20452762.6104   20452764.1644
      -787.9204
 10  1  5  0 29 30.0000000  0  9G12G28G17G05G22G18G09G27G15
 -11409434.57848  -8877636.46247  23726127.7974   23726127.3494   23726128.9844
      3514.3124
 -12022248.29847  -9329274.68846  23297515.5734   23297515.0774   23297516.5614
     -2805.2674
 -14973873.10448 -11629195.23747  22655475.1204   22655475.4534   22655477.4864
      1551.4454
   -431004.42846   -278630.51146  25317197.7934   25317199.0584   25317199.6694
     -3570.7614
  -5666223.23947  -4192404.06746  24840421.8324   24840422.2444   24840421.7424
      2247.3434
 -14331836.23948 -11158189.50247  22950818.5494   22950818.0614   22950820.5214
       721.5144
 -26240239.93949 -20440622.14848  20974805.8344   20974805.5964   20974808.1704
      2202.0794
 -19256211.28449 -14965006.53448  21408299.1284   21408299.0584   21408301.3384
      1113.8914
 -25882504.21549 -20145605.18848  20457307.9034   20457308.2544   20457309.5604
      -804.3994
 10  1  5  0 30  0.0000000  0  9G12G28G17G05G22G18G09G27G15
 -11514754.86148  -8959704.18747  23706085.6814   23706085.2494   23706087.8834
      3507.6064
 -11937979.08448  -9263610.36447  23313551.3124   23313552.0684   23313551.7514
     -2811.8094
 -15020171.79248 -11665272.12347  22646664.9514   22646665.1024   22646667.7284
      1535.4874
   -323929.68647   -195195.63646  25337573.8284   25337574.7324   25337576.6504
     -3567.1604
  -5733432.91947  -4244775.25246  24827630.8224   24827630.2294   24827631.3884
      2233.6004
 -14353199.82848 -11174836.46347  22946753.4494   22946753.6914   22946752.7134
       702.8974
 -26306153.04449 -20491982.98948  20962263.0134   20962262.9194   20962265.1724
      2192.3684
 -19289534.16549 -14990972.41748  21401958.3304   21401957.9244   21401960.3904
      1107.9404
 -25858115.49149 -20126600.99348  20461948.8274   20461949.2774   20461950.5294
      -821.3484
 10  1  5  0 30 30.0000000  0  9G12G28G17G05G22G18G09G27G15
 -11619879.90747  -9041619.79347  23686080.8994   23686081.5024   23686082.4824
      3501.2344
 -11853520.39647  -9197798.38946  23329623.1454   23329623.8564   23329624.6754
     -2818.0844
 -15065993.01448 -11700976.96047  22637945.4944   22637945.2144   22637947.3634
      1519.7704
   -216959.60947   -111842.29246  25357929.5704   25357930.9424   25357932.6084
     -3563.5594
  -5800238.62547  -4296831.66146  24814917.4294   24814917.0984   24814918.1424
      2220.5764
 -14374005.41948 -11191048.60847  22942794.0214   22942792.5084   22942794.8684
       684.4504
 -26371781.22349 -20543121.81148  20949774.6664   20949774.4274   20949776.7374
      2183.0584
 -19322682.28849 -15016802.12448  21395650.0684   21395649.8784   21395652.8644
      1102.3024
 -25833218.90349 -20107201.06248  20466686.5354   20466686.8014   20466688.2494
      -838.0414
 10  1  5  0 31  0.0000000  0  9G12G28G17G05G22G18G09G27G15
 -11724812.20748  -9123385.20847  23666113.1274   23666113.0144   23666114.2574
      3494.8064
 -11768878.05147  -9131843.32246  23345730.0674   23345728.8924   23345732.2944
     -2824.0634
 -15111339.18648 -11736311.63147  22629316.4954   22629316.9114   22629318.8214
      1503.8514
   -110100.82347    -28575.70546  25378265.1374   25378264.8984   25378267.5354
     -3560.0194
  -5866642.28547  -4348574.77146  24802283.3204   24802285.3034   24802286.2244
      2206.9664
 -14394256.31648 -11206828.53947  22938940.7864   22938940.0314   22938940.5594
       666.0354
 -26437127.55049 -20594041.01248  20937339.3064   20937338.9334   20937341.8504
      2173.6494
 -19355659.60849 -15042498.73748  21389374.7604   21389374.6474   21389377.2044
      1096.6144
 -25807819.02649 -20087408.95648  20471519.9194   20471520.2104   20471521.6154
      -854.8134
 10  1  5  0 31 30.0000000  0  9G12G28G17G05G22G18G09G27G15
 -11829547.45048  -9204997.06147  23646182.9224   23646182.0924   23646184.0644
      3487.7884
 -11684051.63647  -9065744.82046  23361871.8414   23361870.6414   23361874.2164
     -2830.0364
 -15156205.25948 -11771272.20247  22620778.8274   22620779.3694   22620780.1644
      1487.5074
     -3353.16047     54604.30546  25398578.0664   25398578.1384   25398581.1874
     -3556.3484
  -5932639.60747  -4400001.26546  24789724.0674   24789722.9594   24789725.4624
      2192.5814
 -14413949.49748 -11222173.86547  22935192.3694   22935191.0514   22935192.6854
       647.0394
 -26502188.80249 -20644738.07948  20924958.6924   20924958.5484   20924960.9684
      2163.8964
 -19388463.47749 -15068060.19448  21383132.4014   21383132.2654   21383134.9294
      1090.4654
 -25781912.40549 -20067221.98848  20476449.8474   20476450.1524   20476451.5704
      -872.1164
 10  1  5  0 32  0.0000000  0  9G12G28G17G05G22G18G09G27G15
 -11934091.58748  -9286460.01147  23626288.6744   23626288.6294   23626291.5194
      3482.7244
 -11599050.95547  -8999510.52746  23378046.9664   23378047.5854   23378048.7464
     -2835.2854
 -15200596.95348 -11805863.12147  22612330.7694   22612331.2904   22612333.5344
      1472.9954
    103273.01347    137689.63846  25418867.2754   25418867.9194   25418869.7794
     -3550.6594
  -5998235.92947  -4451115.27346  24777241.5274   24777241.2214   24777241.0734
      2180.7234
 -14433092.02148 -11237090.12747  22931550.3504   22931550.7004   22931550.3184
       630.2104
 -26566971.68249 -20695218.23748  20912630.8634   20912630.7934   20912633.3224
      2156.0774
 -19421101.49249 -15093492.41648  21376921.5824   21376921.3354   21376924.0704
      1086.3794
 -25755507.36749 -20046646.64048  20481474.4824   20481474.7984   20481476.2804
      -887.2854
 10  1  5  0 32 30.0000000  0  9G12G28G17G05G22G18G09G27G15
 -12038432.88548  -9367764.91747  23606433.4384   23606434.3434   23606435.9794
      3474.6664
 -11513867.94647  -8933134.16446  23394256.8014   23394256.8644   23394257.2724
     -2842.2134
 -15244502.17048 -11840074.97447  22603975.9234   22603976.3654   22603978.7264
      1455.2924
    209785.55847    220686.42246  25439137.2614   25439138.0414   25439139.8324
     -3548.4484
  -6063419.69747  -4501907.83246  24764837.2694   24764836.5954   24764838.2264
      2166.3854
 -14451673.59648 -11251569.26747  22928014.8784   22928014.0844   22928015.8544
       610.0724
 -26631464.77349 -20745472.57948  20900358.2324   20900358.2804   20900360.3564
      2145.0424
 -19453563.61049 -15118787.57548  21370744.2574   21370744.3714   21370746.8814
      1079.1434
 -25728593.64049 -20025674.90948  20486596.0464   20486596.4064   20486597.7974
      -905.6114
 10  1  5  0 33  0.0000000  0  9G12G28G17G05G22G18G09G27G15
 -12142569.41248  -9448910.24747  23586616.6364   23586617.1684   23586618.7924
      3467.8164
 -11428504.33148  -8866617.06046  23410501.1244   23410500.4574   23410502.5364
     -2848.2794
 -15287918.88048 -11873906.16547  22595714.1474   22595714.3324   22595716.6914
      1439.2774
    316182.07947    303592.81146  25459383.3514   25459383.9954   25459385.6964
     -3544.1334
  -6128188.69947  -4552377.19446  24752513.6504   24752513.1924   24752513.2164
      2152.0794
 -14469693.78548 -11265610.97747  22924585.2624   22924585.1434   22924585.7784
       591.3394
 -26695667.24649 -20795500.47648  20888140.7674   20888140.4754   20888142.7724
      2135.3624
 -19485849.44249 -15143945.37048  21364600.4634   21364600.3984   21364602.9964
      1073.4894
 -25701171.44749 -20004306.97548  20491814.1304   20491814.6014   20491816.1114
      -922.4334
 10  1  5  0 33 30.0000000  0 10G12G28G17G05G26G22G18G09G27G15
 -12246504.05648  -9529898.26147  23566838.0934   23566838.6524   23566840.4074
      3461.0394
 -11342966.97348  -8799964.58246  23426778.5104   23426778.0934   23426779.2204
     -2854.2004
 -15330849.86048 -11907358.87147  22587544.6264   22587544.9714   22587547.4364
      1422.8264
    422455.44147    386403.19746  25479606.6784   25479606.9284   25479609.2164
     -3540.6664
  -1424042.62347  -1060375.32546  24890921.4144   24890923.1544   24890924.8034
      3821.8864
  -6192545.42447  -4602525.26946  24740266.5234   24740265.9674   24740265.5054
      2138.1124
 -14487156.95748 -11279218.63847  22921262.3264   22921261.4314   22921263.8194
       572.7304
 -26759582.66749 -20845304.69048  20875978.1264   20875978.2554   20875980.3774
      2125.5274
 -19517963.57049 -15168969.36248  21358489.2214   21358488.9014   21358491.6924
      1067.5504
 -25673245.82949 -19982546.76048  20497128.4414   20497128.4774   20497130.1994
      -939.4674
 10  1  5  0 34  0.0000000  0 10G12G28G17G05G26G22G18G09G27G15
 -12350235.74448  -9610728.12947  23547099.2594   23547099.9954   23547099.7694
      3454.3564
 -11257258.27847  -8733178.58146  23443088.4374   23443087.8554   23443089.8784
     -2859.7944
 -15373293.61748 -11940431.92147  22579467.8204   22579467.9274   22579470.5754
      1406.7064
    528602.85247    469115.44746  25499805.1654   25499805.6494   25499808.5234
     -3536.4894
  -1538687.05846  -1149708.76445  24869104.8144   24869106.0244   24869105.5754
      3820.7444
  -6256488.94447  -4652351.39446  24728098.3364   24728098.1634   24728098.3484
      2124.4594
 -14504063.35448 -11292392.45747  22918044.7894   22918044.7634   22918047.0624
       554.2014
 -26823210.64049 -20894884.92548  20863870.3454   20863869.9804   20863872.6214
      2116.2754
 -19549906.29449 -15193859.79948  21352410.8474   21352410.6154   21352413.6584
      1061.8944
 -25644817.07249 -19960394.49548  20502538.1204   20502538.7294   20502540.0464
      -955.8354
 10  1  5  0 34 30.0000000  0  9G12G28G17G26G22G18G09G27G15
 -12453757.35848  -9691394.30147  23527399.7764   23527399.0414   23527400.9014
      3446.6524
 -11171374.86748  -8666256.45146  23459431.4994   23459430.6754   23459433.1544
     -2866.1494
 -15415243.04948 -11973119.77947  22571485.2784   22571485.4064   22571487.6244
      1389.7344
  -1653280.44547  -1239002.25946  24847298.0004   24847296.0944   24847301.3604
      3818.5784
  -6320011.61547  -4701849.55546  24716009.9884   24716009.4374   24716010.7984
      2109.1104
 -14520407.03448 -11305127.79247  22914934.8154   22914933.1064   22914934.7874
       535.0824
 -26886544.85149 -20944236.25848  20851817.9124   20851818.0104   20851820.4684
      2105.9594
 -19581672.07649 -15218612.35448  21346365.9854   21346365.7464   21346368.5014
      1055.5074
 -25615879.84849 -19937846.01748  20508044.8744   20508045.0344   20508046.6434
      -973.3374
 10  1  5  0 35  0.0000000  0  9G12G28G17G26G22G18G09G27G15
 -12557072.29748  -9771899.42547  23507739.2874   23507739.7914   23507741.4704
      3440.0414
 -11085324.27347  -8599204.04446  23475805.8874   23475805.4444   23475807.6074
     -2871.5444
 -15456701.15848 -12005424.78747  22563595.8454   22563596.0534   22563598.1684
      1373.2824
  -1767825.76346  -1328258.37645  24825499.6844   24825499.9034   24825499.1604
      3817.2344
  -6383116.93647  -4751022.49446  24704001.8344   24704004.4964   24704002.0514
      2096.0874
 -14536193.31248 -11317428.77447  22911930.7424   22911929.8674   22911931.9644
       516.5504
 -26949589.95249 -20993362.30748  20839821.1094   20839820.5894   20839823.4914
      2096.1584
 -19613266.14049 -15243231.11048  21340353.9264   21340353.6784   21340356.0464
      1049.7984
 -25586439.81849 -19914905.74348  20513647.1354   20513647.5104   20513648.6474
      -990.1544
 10  1  5  0 35 30.0000000  0  9G12G28G17G26G22G18G09G27G15
 -12660179.30447  -9852242.54147  23488118.8024   23488119.1794   23488120.7394
      3433.1814
 -10999108.50247  -8532022.92946  23492212.5614   23492210.9664   23492213.4234
     -2876.8274
 -15497666.57248 -12037345.88447  22555800.5004   22555800.7724   22555802.7484
      1357.1184
  -1882321.58747  -1417475.89846  24803712.8154   24803713.5194   24803717.3934
      3815.8774
  -6445803.72547  -4799869.34746  24692073.0074   24692072.2464   24692072.7404
      2082.1344
 -14551421.97548 -11329295.26947  22909032.3524   22909032.8394   22909033.6854
       498.1374
 -27012344.94049 -21042262.29148  20827879.1654   20827879.0264   20827881.3664
      2086.8604
 -19644688.74049 -15267716.25448  21334374.1694   21334373.7274   21334376.6834
      1044.4764
 -25556497.50449 -19891574.07748  20519344.7994   20519345.1524   20519346.7404
     -1006.5474
 10  1  5  0 36  0.0000000  0  9G12G28G17G26G22G18G09G27G15
 -12763071.34948  -9932418.12347  23468538.8324   23468539.9354   23468540.3574
      3425.9874
 -10912724.71947  -8464710.90346  23508651.1024   23508650.3834   23508652.2264
     -2882.3744
 -15538132.07248 -12068877.43947  22548100.3144   22548100.4294   22548102.3584
      1340.3154
  -1996760.40147  -1506648.97946  24781935.3944   24781935.6854   24781939.1384
      3813.4924
  -6508064.37247  -4848384.14546  24680224.6014   24680223.8394   24680226.3874
      2067.8074
 -14566087.59448 -11340723.03547  22906241.9284   22906240.3384   22906241.5524
       479.2844
 -27074803.67149 -21090931.42948  20815993.3794   20815993.1654   20815995.4644
      2076.9244
 -19675934.54449 -15292063.63348  21328428.5094   21328428.1404   21328431.0384
      1038.4414
 -25526047.71949 -19867846.98048  20525139.3294   20525139.6234   20525141.0954
     -1023.6004
 10  1  5  0 36 30.0000000  0  9G12G28G17G26G22G18G09G27G15
 -12865753.21347 -10012429.93747  23448999.7584   23448999.4944   23449001.3084
      3418.8444
 -10826180.89347  -8397274.14746  23525119.8474   23525119.1914   23525120.5674
     -2887.9314
 -15578102.18748 -12100022.97747  22540494.2024   22540494.6354   22540496.1594
      1323.7354
  -2111146.48447  -1595781.02046  24760169.5184   24760168.5064   24760169.4374
      3811.7304
  -6569903.45547  -4896570.41046  24668457.4354   24668457.4244   24668456.5504
      2054.1734
 -14580196.32648 -11351716.85947  22903558.2104   22903556.8794   22903559.0844
       460.7394
 -27136971.23549 -21139373.68748  20804163.5994   20804163.4394   20804166.0844
      2067.0604
 -19707009.73149 -15316278.06448  21322515.0664   21322515.0694   21322517.3804
      1032.6724
 -25495097.06849 -19843729.59848  20531028.9614   20531029.2804   20531030.8554
     -1040.3544
 10  1  5  0 37  0.0000000  0  9G12G28G17G26G22G18G09G27G15
 -12968216.64748 -10092271.54447  23429500.9704   23429501.4354   23429502.6694
      3412.1294
 -10739472.58647  -8329709.22946  23541619.8634   23541618.6584   23541620.4974
     -2892.6944
 -15617568.64248 -12130776.05147  22532984.0024   22532984.3004   22532985.7704
      1307.3814
  -2225471.16247  -1684865.14346  24738413.3904   24738414.4024   24738413.4174
      3810.0974
  -6631312.65947  -4944421.73946  24656771.0924   24656770.0124   24656771.0244
      2040.1324
 -14593741.99748 -11362271.93646  22900979.3644   22900978.3214   22900980.0864
       442.3094
 -27198840.25749 -21187583.31448  20792390.4824   20792390.2334   20792392.5794
      2057.6084
 -19737907.59249 -15340354.31648  21316635.3864   21316635.3664   21316637.6614
      1027.2164
 -25463639.46349 -19819217.18748  20537015.1924   20537015.4024   20537017.1344
     -1056.6744
 10  1  5  0 37 30.0000000  0  9G12G28G17G26G22G18G09G27G15
 -13070464.93648 -10171945.50447  23410043.9194   23410044.6444   23410045.1334
      3404.4004
 -10652607.01047  -8262021.77146  23558149.5364   23558149.8454   23558151.2054
     -2898.4654
 -15656534.44948 -12161139.01147  22525569.0434   22525568.9644   22525570.9694
      1290.2064
  -2339737.39146  -1773903.82246  24716670.5574   24716668.9474   24716672.8624
      3808.0864
  -6692295.06847  -4991940.47646  24645165.9854   24645166.4824   24645167.9754
      2025.8794
 -14606728.88948 -11372391.60047  22898508.0884   22898508.7974   22898510.3834
       423.4124
 -27260415.11549 -21235563.72548  20780673.1784   20780673.2564   20780674.9704
      2047.2324
 -19768632.89549 -15364296.11048  21310788.4994   21310788.3544   21310790.9604
      1021.0484
 -25431680.01249 -19794313.73048  20543096.8534   20543096.9924   20543098.6544
     -1073.9274
 10  1  5  0 38  0.0000000  0  9G12G28G17G26G22G18G09G27G15
 -13172493.75748 -10251448.46447  23390628.2214   23390628.8594   23390630.7954
      3397.2844
 -10565583.28948  -8194211.08546  23574709.7334   23574708.9894   23574710.8354
     -2903.1754
 -15694995.24948 -12191108.46147  22518250.3264   22518250.4244   22518252.1304
      1273.5894
  -2453940.43446  -1862893.14646  24694936.9344   24694935.1214   24694937.9344
      3805.8314
  -6752846.37147  -5039123.29646  24633644.1994   24633643.6814   24633642.9734
      2011.4054
 -14619154.48148 -11382073.87847  22896144.1174   22896143.8174   22896144.5134
       404.9324
 -27321691.95449 -21283311.90948  20769012.4764   20769012.2234   20769014.5104
      2037.5694
 -19799182.90849 -15388101.31148  21304975.0274   21304975.1144   21304977.8844
      1015.4844
 -25399216.36349 -19769017.38548  20549274.5284   20549274.8204   20549276.3064
     -1090.4754
 10  1  5  0 38 30.0000000  0  9G12G28G17G26G22G18G09G27G15
 -13274301.74148 -10330779.33747  23371254.6924   23371254.6984   23371257.1154
      3390.1564
 -10478403.78547  -8126279.00846  23591299.1824   23591297.5834   23591300.8414
     -2908.3634
 -15732949.66348 -12220683.32147  22511027.6634   22511027.3254   22511029.4894
      1256.7754
  -2568078.36546  -1951831.82345  24673216.3014   24673215.4524   24673221.5634
      3803.7434
  -6812964.96147  -5085968.93346  24622203.9454   24622204.0224   24622202.7224
      1997.1294
 -14631018.73048 -11391318.75647  22893886.3364   22893886.4454   22893887.3694
       386.0564
 -27382670.23949 -21330827.45448  20757408.6864   20757408.3774   20757410.8124
      2027.6794
 -19829557.63949 -15411769.92948  21299195.1514   21299195.0134   21299197.5574
      1009.6764
 -25366249.12649 -19743328.63848  20555548.0064   20555548.1784   20555549.9064
     -1107.1944
 10  1  5  0 39  0.0000000  0  9G12G28G17G26G22G18G09G27G15
 -13375890.79248 -10409939.61947  23351923.0874   23351922.7584   23351924.6934
      3382.9124
 -10391073.76747  -8058229.64546  23607917.5814   23607916.4984   23607917.7894
     -2913.2384
 -15770399.45148 -12249864.96347  22503901.1674   22503901.5674   22503903.2924
      1240.0044
  -2682152.41046  -2040720.68246  24651509.1344   24651508.4994   24651513.1324
      3801.2024
  -6872652.65747  -5132478.81346  24610846.2984   24610846.1784   24610845.3734
      1982.8114
 -14642325.15248 -11400128.96247  22891734.3714   22891735.0084   22891733.4434
       367.7474
 -27443352.37849 -21378112.24048  20745861.3154   20745861.0874   20745863.3964
      2018.0534
 -19859760.46849 -15435304.59848  21293447.6204   21293447.4694   21293450.2074
      1004.0774
 -25332782.19349 -19717250.51848  20561916.5644   20561916.9124   20561918.4624
     -1123.7094
 10  1  5  0 39 30.0000000  0  9G12G28G17G26G22G18G09G27G15
 -13477253.50548 -10488923.53047  23332634.3464   23332634.3644   23332636.5684
      3375.4214
 -10303589.73347  -7990060.26446  23624565.4464   23624565.6054   23624567.7774
     -2918.3104
 -15807337.24648 -12278647.64247  22496872.1534   22496872.6114   22496874.3274
      1223.0644
  -2796154.75847  -2129553.67846  24629817.5104   24629817.1054   24629819.7954
      3799.6404
  -6931901.91447  -5178647.04946  24599570.3024   24599569.6094   24599570.3174
      1968.3644
 -14653067.94748 -11408499.96947  22889690.4694   22889689.7074   22889690.4964
       349.0734
 -27503731.88449 -21425161.20248  20734371.3704   20734371.2124   20734373.6174
      2007.9924
 -19889785.78149 -15458700.94048  21287733.9134   21287733.8724   21287736.5614
       998.2554
 -25298810.03549 -19690778.71148  20568381.2134   20568381.4204   20568382.9464
     -1140.4834
 10  1  5  0 40  0.0000000  0  9G12G28G17G26G22G18G09G27G15
 -13578391.78448 -10567732.55347  23313388.6104   23313388.5634   23313390.6334
      3366.9564
 -10215957.35847  -7921775.29546  23641241.2644   23641241.9134   23641243.1824
     -2924.1464
 -15843764.67448 -12307032.64447  22489940.4484   22489940.6204   22489941.9754
      1205.0914
  -2910086.95346  -2218332.00246  24608135.5424   24608135.5954   24608140.7884
      3795.7584
  -6990714.71947  -5224475.17646  24588379.0474   24588378.1404   24588379.2214
      1952.2734
 -14663250.86948 -11416434.72547  22887752.1034   22887750.7884   22887755.3774
       329.3734
 -27563811.28349 -21471976.31548  20722938.5634   20722938.5904   20722940.9484
      1996.9924
 -19919636.94149 -15481961.58148  21282053.5394   21282053.3184   21282056.2804
       991.4324
 -25264336.82349 -19663916.47748  20574941.3634   20574941.4984   20574942.9864
     -1158.0844
 10  1  5  0 40 30.0000000  0  9G12G28G17G26G22G18G09G27G15
 -13679303.16848 -10646364.77647  23294185.9064   23294184.7334   23294186.1414
      3359.8524
 -10128177.48347  -7853375.39446  23657945.1084   23657944.9904   23657945.3474
     -2928.5544
 -15879679.29248 -12335018.05347  22483105.8244   22483106.1624   22483108.0054
      1188.4644
  -3023945.80146  -2307053.18745  24586467.8444   24586468.9234   24586469.0404
      3794.0564
  -7049088.31147  -5269961.09246  24577271.6164   24577271.9844   24577270.5464
      1938.0394
 -14672872.69048 -11423932.24647  22885921.6974   22885920.5574   22885921.9284
       310.9534
 -27623588.72349 -21518556.13948  20711563.3404   20711563.4944   20711565.5364
      1987.3694
 -19949312.71649 -15505085.55648  21276406.2244   21276406.4794   21276409.1054
       986.0394
 -25229362.09849 -19636663.45148  20581596.7584   20581596.9704   20581598.5914
     -1174.2994
 10  1  5  0 41  0.0000000  0  9G12G28G17G26G22G18G09G27G15
 -13779987.29348 -10724819.92047  23275026.1364   23275025.6904   23275028.0844
      3351.9284
 -10040253.50547  -7784863.22246  23674676.3394   23674675.7344   23674677.3614
     -2933.6224
 -15915080.92148 -12362603.72747  22476369.1694   22476368.9774   22476371.3974
      1170.9504
  -3137730.14047  -2395716.31146  24564817.7964   24564818.9334   24564818.5314
      3791.0944
  -7107022.24347  -5315104.42546  24566246.4254   24566246.9044   24566246.8454
      1923.5014
 -14681934.97548 -11430993.78647  22884196.8764   22884196.6024   22884197.8044
       292.1704
 -27683064.57449 -21564900.95748  20700245.3574   20700245.0094   20700247.6364
      1976.9254
 -19978814.43849 -15528073.91148  21270792.4124   21270792.1034   21270794.9004
       980.2574
 -25193887.08149 -19609020.58948  20588347.3664   20588347.6704   20588349.2134
     -1191.2594
 10  1  5  0 41 30.0000000  0  9G12G28G17G26G22G18G09G27G15
 -13880438.20648 -10803093.34147  23255911.0424   23255910.8534   23255913.0534
      3344.1544
  -9952182.99647  -7716236.84446  23691435.9854   23691435.6284   23691436.9394
     -2938.8024
 -15949963.06548 -12389784.60147  22469731.2124   22469731.6294   22469733.5404
      1153.6094
  -3251433.61146  -2484316.42646  24543179.9944   24543178.7914   24543182.8794
      3788.0224
  -7164510.42547  -5359900.41646  24555306.9194   24555306.8454   24555308.0034
      1908.3804
 -14690433.52148 -11437616.03247  22882579.7264   22882579.2194   22882579.4384
       273.5974
 -27742233.40649 -21611006.54348  20688986.0634   20688985.5834   20688987.8594
      1966.7644
 -20008137.42849 -15550922.98948  21265212.3604   21265212.3164   21265215.0044
       974.2414
 -25157908.11749 -19580985.03848  20595193.8994   20595194.1444   20595195.9544
     -1208.0004
 10  1  5  0 42  0.0000000  0  9G12G28G17G26G22G18G09G27G15
 -13980660.34748 -10881188.48747  23236839.3904   23236839.9674   23236840.2724
      3336.7274
  -9863973.87647  -7647502.47846  23708221.3464   23708221.0714   23708222.7344
     -2942.6594
 -15984330.33948 -12416564.28147  22463191.6314   22463191.7444   22463193.7084
      1136.8114
  -3365060.14947  -2572856.63546  24521557.6644   24521559.6024   24521560.6174
      3786.4554
  -7221557.27747  -5404352.49546  24544450.9274   24544451.6404   24544451.9064
      1894.0974
 -14698374.11748 -11443803.51947  22881069.4574   22881069.3174   22881070.6184
       255.2454
 -27801100.63049 -21656877.10748  20677784.0694   20677783.9264   20677786.0444
      1957.0304
 -20037287.51349 -15573637.34348  21259665.2184   21259664.7014   21259667.7754
       968.6634
 -25121431.75049 -19552561.90448  20602135.3354   20602135.5954   20602137.0924
     -1224.3834
 10  1  5  0 42 30.0000000  0  9G12G28G17G26G22G18G09G27G15
 -14080644.68448 -10959098.34947  23217812.8804   23217813.7874   23217814.9424
      3328.6074
  -9775620.70947  -7578655.85546  23725034.7394   23725034.2974   23725035.8554
     -2947.5894
 -16018173.91848 -12442935.89347  22456751.1734   22456751.6654   22456753.1204
      1119.2594
  -3478600.03346  -2661329.24045  24499951.7504   24499954.6834   24499952.9164
      3783.1024
  -7278153.76847  -5448453.66746  24533682.1164   24533680.0684   24533679.9084
      1879.0024
 -14705749.79648 -11449550.80747  22879665.0544   22879665.9074   22879665.5754
       236.3684
 -27859657.63249 -21702505.93348  20666640.9174   20666640.5264   20666643.0654
      1946.7174
 -20066257.00849 -15596210.96848  21254152.6804   21254152.3214   21254155.2244
       962.4764
 -25084451.04149 -19523745.77548  20609172.4744   20609172.5334   20609174.2704
     -1241.1164
 10  1  5  0 43  0.0000000  0  9G12G28G17G26G22G18G09G27G15
 -14180398.96948 -11036828.94247  23198829.6834   23198829.7474   23198832.2744
      3320.8464
  -9687134.71947  -7509705.73446  23741872.9094   23741872.5724   23741873.4854
     -2952.0334
 -16051501.26348 -12468905.24247  22450409.1434   22450409.7594   22450411.3094
      1101.9774
  -3592060.26746  -2749739.87045  24478361.0844   24478360.8644   24478365.2514
      3780.5964
  -7334307.29347  -5492209.67446  24522994.3534   24522994.2424   24522995.1404
      1864.6154
 -14712569.89948 -11454865.18647  22878367.5764   22878367.2294   22878368.5034
       217.6734
 -27917912.75449 -21747899.53148  20655555.2474   20655555.0884   20655557.7294
      1936.4754
 -20095055.29149 -15618651.18448  21248672.3964   21248672.2404   21248675.0174
       956.7544
 -25046975.68049 -19494544.20448  20616303.7184   20616303.9024   20616305.4494
     -1257.7574
 10  1  5  0 43 30.0000000  0  9G12G28G17G26G22G18G09G27G15
 -14279912.18348 -11114371.68147  23179892.9894   23179893.3784   23179894.1224
      3313.2204
  -9598508.46847  -7440646.32846  23758737.7354   23758738.0074   23758739.5744
     -2956.2284
 -16084301.62248 -12494463.95647  22444167.3794   22444167.7414   22444169.9564
      1084.6404
  -3705429.20946  -2838079.33645  24456788.0104   24456788.2064   24456791.0824
      3777.9624
  -7390007.31847  -5535612.28446  24512397.2374   24512397.7234   24512396.5394
      1849.2104
 -14718824.98248 -11459739.29647  22877177.2664   22877176.3334   22877178.1904
       199.0544
 -27975855.82749 -21793049.97048  20644528.8394   20644528.9764   20644531.3724
      1926.4894
 -20123672.81449 -15640950.55048  21243226.7624   21243226.7624   21243229.3544
       951.0194
 -25008996.40649 -19464949.97248  20623530.6924   20623530.9914   20623532.7194
     -1274.1894
 10  1  5  0 44  0.0000000  0  9G12G28G17G26G22G18G09G27G15
 -14379188.25048 -11191729.63947  23161001.7174   23161002.1094   23161003.3734
      3305.0964
  -9509749.70647  -7371483.64946  23775628.2004   23775627.8834   23775630.4204
     -2960.6614
 -16116579.08448 -12519615.21347  22438025.2284   22438025.8474   22438027.2994
      1067.0134
  -3818710.21847  -2926350.18445  24435230.9444   24435234.3324   24435234.0074
      3774.3904
  -7445257.58047  -5578664.42446  24501883.5204   24501882.5814   24501882.4584
      1833.7844
 -14724521.08748 -11464177.82047  22876093.3304   22876091.3364   22876094.2614
       180.3934
 -28033491.29349 -21837960.71648  20633561.3814   20633561.1854   20633563.7704
      1915.9144
 -20152114.86749 -15663113.18648  21237814.4414   21237814.4294   21237817.0064
       945.0094
 -24970519.82249 -19434968.22448  20630852.7184   20630853.0934   20630854.7314
     -1290.9574
 10  1  5  0 44 30.0000000  0  9G12G28G17G26G22G18G09G27G15
 -14478224.07248 -11268900.39847  23142155.3934   23142156.4374   23142158.1564
      3297.0274
  -9420858.26647  -7302217.59946  23792543.7094   23792542.6764   23792545.1264
     -2965.3684
 -16148330.35548 -12544356.44947  22431983.1644   22431983.3834   22431985.5104
      1049.3194
  -3931899.43147  -3014549.62346  24413691.5294   24413690.8744   24413693.7504
      3771.1944
  -7500054.58447  -5621363.38346  24491455.2154   24491455.1704   24491455.9594
      1818.6964
 -14729656.64048 -11468179.55647  22875115.9244   22875115.0944   22875116.9854
       161.7314
 -28090816.36449 -21882629.59648  20622652.7694   20622652.6084   20622655.0934
      1905.3744
 -20180379.43849 -15685137.52148  21232435.8474   21232435.8194   21232438.5264
       938.8984
 -24931544.56849 -19404597.90448  20638269.5564   20638270.0514   20638271.5374
     -1307.6924
 10  1  5  0 45  0.0000000  0  9G12G28G17G26G22G18G09G27G15
 -14577019.45148 -11345883.80147  23123355.8614   23123355.6604   23123358.2654
      3289.0844
  -9331837.57747  -7232850.84046  23809483.9644   23809483.5894   23809484.9024
     -2969.7634
 -16179555.30948 -12568687.57247  22426041.4424   22426041.5244   22426043.6164
      1031.7604
  -4044995.81047  -3102676.67946  24392171.2444   24392174.2074   24392174.9414
      3768.2144
  -7554398.26647  -5663709.10846  24481113.6634   24481112.8604   24481112.2174
      1803.8964
 -14734233.02248 -11471745.57447  22874244.3794   22874244.5934   22874245.4434
       142.8754
 -28147831.88449 -21927057.27248  20611803.1044   20611803.1054   20611805.2964
      1895.1464
 -20208467.98949 -15707024.70748  21227090.8294   21227090.7194   21227093.1874
       933.1144
 -24892072.70049 -19373840.61048  20645780.8354   20645781.0754   20645782.6534
     -1324.1494
 10  1  5  0 45 30.0000000  0  9G12G28G17G26G22G18G09G27G15
 -14675570.26348 -11422676.63247  23104602.1164   23104601.8404   23104603.3924
      3280.4484
  -9242687.31847  -7163383.11746  23826448.3894   23826447.8474   23826450.4364
     -2974.3954
 -16210250.29048 -12592605.72247  22420200.4914   22420201.1144   22420202.3514
      1013.8364
  -4157994.77247  -3190727.78746  24370667.9824   24370668.9064   24370666.4864
      3764.5154
  -7608284.54247  -5705698.41046  24470860.7304   24470860.1514   24470860.4164
      1788.1594
 -14738247.89848 -11474874.06047  22873481.1684   22873479.6014   22873481.0814
       123.9274
 -28204534.52849 -21971241.14548  20601013.1134   20601013.1224   20601015.0574
      1884.3604
 -20236377.57749 -15728772.43548  21221779.6914   21221779.6614   21221782.1284
       926.7974
 -24852102.36649 -19342694.90048  20653386.8144   20653387.1804   20653388.5624
     -1341.1484
 10  1  5  0 46  0.0000000  0  9G12G28G17G26G22G18G09G27G15
 -14773875.22448 -11499277.87947  23085895.5994   23085894.7854   23085897.0084
      3272.5164
  -9153409.62047  -7093816.07946  23843437.5094   23843438.1674   23843439.8014
     -2978.2424
 -16240413.66848 -12616109.64347  22414460.3284   22414460.1654   22414462.7674
       996.4624
  -4270894.07847  -3278701.29846  24349181.9414   24349182.8804   24349184.2424
      3761.2214
  -7661712.11547  -5747330.29046  24460692.4964   24460691.9994   24460691.0664
      1772.8594
 -14741702.58848 -11477566.03347  22872823.9374   22872824.2224   22872823.3714
       105.5094
 -28260923.02449 -22015180.22948  20590282.7404   20590282.4074   20590284.7794
      1874.1754
 -20264108.38349 -15750380.85448  21216502.6944   21216502.4864   21216505.1724
       921.1324
 -24811634.30049 -19311161.35048  20661087.7414   20661087.9524   20661089.7604
     -1357.4274
 10  1  5  0 46 30.0000000  0  9G12G28G17G26G22G18G09G27G15
 -14871935.86148 -11575688.75247  23067234.9364   23067235.4394   23067237.0754
      3263.8354
  -9064009.35747  -7024153.55246  23860450.0084   23860449.4314   23860451.3194
     -2982.7094
 -16270047.33048 -12639200.79947  22408821.0554   22408821.7684   22408823.2444
       978.2034
  -4383694.51547  -3366597.77646  24327716.3734   24327718.4094   24327721.0144
      3757.7164
  -7714682.53647  -5788605.93346  24450612.8774   24450612.3264   24450611.7534
      1756.7254
 -14744600.01848 -11479823.78447  22872272.1554   22872272.8424   22872271.9554
        86.3904
 -28316999.40549 -22058876.10348  20579611.7794   20579611.6944   20579613.9924
      1863.1754
 -20291663.25149 -15771852.18048  21211259.2964   21211259.1684   21211261.3824
       914.6604
 -24770672.03549 -19279242.70648  20668882.5424   20668882.8354   20668884.4614
     -1374.4134
 10  1  5  0 47  0.0000000  0  9G12G28G17G26G22G18G09G27G15
 -14969744.61248 -11651903.34147  23048622.7964   23048622.8004   23048624.1644
      3255.9724
  -8974482.27347  -6954392.18346  23877486.4004   23877486.2684   23877487.2044
     -2986.5474
 -16299143.66348 -12661873.25947  22403284.2974   22403284.2454   22403286.2894
       960.9084
  -4496387.75446  -3454410.67346  24306273.6734   24306276.1754   24306276.1314
      3754.3834
  -7767188.14147  -5829519.41146  24440621.4704   24440622.5544   24440621.6184
      1742.2604
 -14746934.05648 -11481642.53247  22871828.4784   22871827.4684   22871828.8394
        68.3534
 -28372756.92149 -22102323.51948  20569001.5234   20569001.1164   20569003.6294
      1853.1654
 -20319035.82049 -15793181.45748  21206050.3624   21206050.1964   21206052.8764
       909.3154
 -24729210.59649 -19246935.09648  20676772.3564   20676772.5514   20676774.2734
     -1390.4134
 10  1  5  0 47 30.0000000  0  9G12G28G17G26G22G18G09G27G15
 -15067307.45948 -11727926.31447  23030057.5804   23030057.5034   23030058.5504
      3247.6844
  -8884838.19647  -6884539.66146  23894544.9814   23894544.3574   23894546.4584
     -2990.3384
 -16327708.85248 -12684131.83347  22397848.4304   22397848.7584   22397850.6954
       943.0794
  -4608979.10747  -3542144.17745  24284846.4934   24284847.3054   24284849.4484
      3751.1594
  -7819235.22847  -5870075.56346  24430718.8354   24430718.5484   24430717.3564
      1727.1324
 -14748713.01048 -11483028.74347  22871489.4014   22871488.6734   22871491.0354
        49.7934
 -28428202.43149 -22145527.80948  20558450.3954   20558450.3294   20558452.7414
      1842.6534
 -20346233.75349 -15814374.64648  21200874.7144   21200874.6344   21200877.4114
       903.4724
 -24687257.35149 -19214244.26048  20684755.9244   20684756.0754   20684757.6654
     -1406.8284
 10  1  5  0 48  0.0000000  0  9G12G28G17G26G22G18G09G27G15
 -15164616.73048 -11803751.71247  23011539.6414   23011540.0674   23011541.4574
      3238.5094
  -8795072.54447  -6814592.40246  23911627.1214   23911625.4614   23911628.6584
     -2994.9024
 -16355735.47748 -12705970.75547  22392515.2954   22392515.3494   22392517.8104
       924.3544
  -4721460.03346  -3629791.69346  24263441.7904   24263442.8944   24263444.2674
      3746.9724
  -7870815.62447  -5910268.07946  24420901.9644   24420901.9434   24420901.4784
      1710.6734
 -14749931.16248 -11483977.96147  22871257.8724   22871257.3014   22871259.6634
        30.3854
 -28483328.64149 -22188483.29948  20547960.1314   20547960.0064   20547962.4394
      1831.3884
 -20373250.40849 -15835426.58448  21195733.7244   21195733.3354   21195736.3954
       896.6164
 -24644807.32349 -19181166.32448  20692833.8374   20692834.2574   20692835.7674
     -1424.1344
 10  1  5  0 48 30.0000000  0  9G12G28G17G26G22G18G09G27G15
 -15261674.90948 -11879381.45447  22993070.3724   22993070.4874   22993071.0854
      3231.0424
  -8705191.37247  -6744555.12946  23928730.9174   23928729.5274   23928731.3254
     -2997.9734
 -16383226.14248 -12727392.04147  22387284.2154   22387284.2934   22387286.5474
       907.3384
  -4833832.21647  -3717354.45646  24242057.5924   24242057.7664   24242062.1304
      3743.9414
  -7921932.14947  -5950099.13646  24411175.3544   24411175.3624   24411173.7194
      1696.1114
 -14750592.70548 -11484493.46047  22871131.9234   22871131.0724   22871132.8994
        12.7464
 -28538138.51549 -22231192.28948  20537530.1374   20537530.1944   20537532.3674
      1821.6594
 -20400089.57749 -15856340.22048  21190626.2894   21190626.2674   21190628.8514
       891.6214
 -24601865.05749 -19147704.82048  20701005.5174   20701005.7374   20701007.3224
     -1439.5754
 10  1  5  0 49  0.0000000  0  9G12G28G17G26G22G18G09G27G15
 -15358476.56748 -11954811.30347  22974649.2544   22974649.3954   22974651.0214
      3222.6124
  -8615192.47647  -6674426.12646  23945856.8574   23945856.0874   23945858.8234
     -3001.8574
 -16410175.58548 -12748391.59247  22382155.8854   22382155.7674   22382157.5684
       889.3504
  -4946089.24047  -3804827.46546  24220696.4614   24220696.5094   24220699.0984
      3740.0724
  -7972579.66147  -5989564.74046  24401535.9604   24401536.2504   24401538.2514
      1680.5564
 -14750694.23948 -11484572.59047  22871112.4744   22871111.8514   22871113.3384
        -5.7674
 -28592627.25749 -22273651.04848  20527161.3544   20527161.1964   20527163.7834
      1810.9374
 -20426747.02049 -15877112.25548  21185553.5594   21185553.3794   21185556.2964
       885.6194
 -24558427.24349 -19113857.17748  20709271.4054   20709271.7714   20709273.3884
     -1456.0774
 10  1  5  0 49 30.0000000  0  9G12G28G17G26G22G18G09G27G15
 -15455021.38448 -12030041.01347  22956277.2214   22956278.0224   22956278.6064
      3214.0594
  -8525078.98947  -6604207.84046  23963004.7634   23963004.4094   23963006.6414
     -3005.4234
 -16436583.98248 -12768969.55847  22377130.5594   22377130.7914   22377132.2714
       871.3294
  -5058230.17647  -3892209.95746  24199357.6944   24199358.9154   24199360.0814
      3736.3664
  -8022757.56847  -6028664.41446  24391985.9474   24391986.1774   24391986.4624
      1664.8574
 -14750237.44348 -11484216.63647  22871199.5184   22871197.9404   22871200.7304
       -24.3424
 -28646795.33249 -22315859.92948  20516853.4434   20516853.4714   20516855.6564
      1800.4424
 -20453223.93049 -15897743.61448  21180515.1894   21180515.0364   21180517.6004
       879.7604
 -24514496.03949 -19079625.07148  20717631.1844   20717631.6374   20717633.2804
     -1472.4404
 10  1  5  0 50  0.0000000  0  9G12G28G17G26G22G18G09G27G15
 -15551310.79648 -12105071.70347  22937954.1764   22937954.1484   22937956.7654
      3205.4224
  -8434855.71547  -6533904.00546  23980173.3924   23980172.9114   23980175.7674
     -3009.1304
 -16462452.49548 -12789126.83447  22372207.6134   22372207.8674   22372209.6254
       853.4494
  -5170255.20147  -3979502.16346  24178039.9164   24178040.2634   24178039.2254
      3732.0444
  -8072467.13347  -6067399.13346  24382529.9844   24382528.3524   24382528.5824
      1649.4754
 -14749225.46048 -11483428.07947  22871391.8604   22871392.0504   22871392.0264
       -42.9374
 -28700644.40549 -22357820.24948  20506606.3594   20506606.1934   20506608.8444
      1789.7754
 -20479522.75749 -15918236.20848  21175510.8164   21175510.6464   21175513.0754
       873.8044
 -24470074.71649 -19045011.05948  20726084.3884   20726084.5254   20726086.2044
     -1488.7474
 10  1  5  0 50 30.0000000  0  9G12G28G17G26G22G18G09G27G15
 -15647344.75048 -12179903.34047  22919679.5314   22919679.4044   22919681.1874
      3196.5544
  -8344526.10547  -6463517.31046  23997362.8654   23997363.6694   23997364.6274
     -3013.1224
 -16487781.77548 -12808863.93247  22367387.6804   22367387.3914   22367389.6884
       834.8324
  -5282163.95046  -4066703.76246  24156743.7424   24156744.4284   24156745.3714
      3728.2264
  -8121708.94447  -6105769.37346  24373158.1154   24373157.6194   24373159.3624
      1633.1834
 -14747660.51948 -11482208.64447  22871690.2914   22871689.5054   22871691.8254
       -61.6844
 -28754175.28449 -22399532.61948  20496419.7424   20496419.8884   20496421.9174
      1778.7844
 -20505644.95049 -15938591.16248  21170539.9944   21170539.8674   21170542.3044
       867.4464
 -24425165.73249 -19010017.05048  20734630.2144   20734630.4204   20734632.2044
     -1505.3384
 10  1  5  0 51  0.0000000  0  9G12G28G17G26G22G18G09G27G15
 -15743112.45148 -12254527.51347  22901455.7264   22901455.4944   22901457.2424
      3187.7474
  -8254082.84747  -6393042.05146  24014574.1814   24014573.5904   24014575.2194
     -3016.7744
 -16512561.34348 -12828172.68047  22362672.3504   22362672.6084   22362674.5564
       816.5834
  -5393944.31647  -4153805.31946  24135471.9784   24135473.2194   24135475.2624
      3724.0494
  -8170472.05947  -6143766.61846  24363878.5284   24363877.6554   24363878.9164
      1617.2914
 -14745533.65048 -11480551.35747  22872094.3234   22872094.3874   22872096.4744
       -80.3324
 -28807377.58349 -22440988.95548  20486295.7794   20486295.7094   20486298.1704
      1767.9414
 -20531580.92649 -15958801.01348  21165604.3894   21165604.2174   21165606.7004
       861.4244
 -24379760.70949 -18974636.51448  20743270.5364   20743270.7264   20743272.4134
     -1521.7234
 10  1  5  0 51 30.0000000  0  9G12G28G17G26G22G18G09G27G15
 -15838619.33148 -12328948.44447  22883281.1274   22883282.0484   22883282.6354
      3178.8154
  -8163533.99547  -6322484.50746  24031804.6314   24031804.7564   24031807.5184
     -3020.1474
 -16536796.15748 -12847056.94647  22358060.5054   22358060.6154   22358062.4254
       798.2184
  -5505600.77147  -4240810.31946  24114225.5304   24114227.2074   24114230.3474
      3719.5394
  -8218761.95047  -6181395.13046  24354689.6604   24354689.3594   24354690.0064
      1601.4174
 -14742852.27248 -11478461.97247  22872604.8034   22872603.7354   22872607.7024
       -99.0964
 -28860256.75149 -22482193.50548  20476233.0514   20476232.9144   20476235.6064
      1756.9324
 -20557336.98149 -15978870.66148  21160703.0954   21160702.9624   21160705.5424
       855.1894
 -24333866.80649 -18938875.03448  20752003.7594   20752003.9704   20752005.6954
     -1538.2674
 10  1  5  0 52  0.0000000  0  9G12G28G17G26G22G18G09G27G15
 -15933862.42748 -12403163.83647  22865157.1934   22865157.7204   22865159.5354
      3170.3534
  -8072880.43547  -6251845.37946  24049055.1984   24049054.7354   24049057.0464
     -3023.2644
 -16560483.89048 -12865514.91147  22353552.8814   22353552.8894   22353554.9334
       780.4134
  -5617129.64347  -4327715.93046  24093001.5984   24093001.6944   24093005.5094
      3715.3154
  -8266575.43947  -6218652.40346  24345589.9684   24345589.7314   24345591.5854
      1585.8144
 -14739615.74748 -11475940.01547  22873220.4184   22873219.7444   22873220.9314
      -117.0584
 -28912810.50649 -22523144.48548  20466232.7034   20466232.6854   20466234.7844
      1746.4434
 -20582911.67449 -15998798.98948  21155836.5234   21155836.0934   21155839.0404
       849.4724
 -24287483.72049 -18902732.37448  20760830.1974   20760830.4974   20760832.2994
     -1554.1774
 10  1  5  0 52 30.0000000  0  9G12G28G17G26G22G18G09G27G15
 -16028839.71248 -12477172.10347  22847083.1934   22847083.8864   22847085.2974
      3161.3894
  -7982123.44847  -6181125.65646  24066325.5214   24066326.2794   24066327.4764
     -3027.0614
 -16583623.28748 -12883545.60447  22349149.5414   22349150.0034   22349152.3574
       761.9714
  -5728528.06247  -4414519.87546  24071803.0954   24071803.6914   24071805.8214
      3710.8234
  -8313911.19247  -6255537.40746  24336583.5264   24336582.9314   24336583.1064
      1569.7574
 -14735824.09948 -11472985.50147  22873942.9424   22873941.7934   22873941.3934
      -135.8724
 -28965037.69049 -22563840.99448  20456293.9814   20456293.9304   20456296.3754
      1735.5154
 -20608304.25249 -16018585.41448  21151004.4374   21151004.0784   21151007.1904
       843.2484
 -24240611.82749 -18866208.82548  20769749.5924   20769749.8474   20769751.4954
     -1570.6024
 10  1  5  0 53  0.0000000  0  9G12G28G17G26G22G18G09G27G15
 -16123549.22348 -12550971.72047  22829060.8794   22829060.7964   22829062.9564
      3152.5254
  -7891264.64347  -6110326.60646  24083615.6544   24083614.9034   24083615.9504
     -3030.0484
 -16606212.13648 -12901147.29647  22344851.0034   22344851.7284   22344853.8304
       743.8974
  -5839792.88247  -4501219.73346  24050631.3184   24050631.6224   24050632.8764
      3706.5324
  -8360767.22247  -6292048.61246  24327667.0604   24327667.5594   24327667.7154
      1554.0274
 -14731477.32648 -11469598.40947  22874769.1684   22874768.8644   22874769.0214
      -154.1684
 -29016936.71049 -22604281.78848  20446418.0334   20446417.8334   20446420.3104
      1724.5104
 -20633513.81849 -16038229.22848  21146207.2734   21146207.2574   21146209.8564
       837.2914
 -24193251.23249 -18829304.46748  20778762.2424   20778762.3264   20778763.9264
     -1586.7734
 10  1  5  0 53 30.0000000  0  9G12G28G17G26G22G18G09G27G15
 -16217991.87348 -12624563.38647  22811089.1034   22811089.2664   22811090.2264
      3143.0104
  -7800307.49747  -6039450.90846  24100924.3524   24100924.3234   24100925.9634
     -3034.2344
 -16628251.70848 -12918320.98547  22340657.0844   22340657.5884   22340659.0744
       724.8254
  -5950924.03647  -4587815.41546  24029484.0394   24029482.1774   24029486.2524
      3701.5144
  -8407144.49947  -6328186.75546  24318841.8144   24318841.2924   24318842.2964
      1537.3264
 -14726578.04548 -11465780.78547  22875701.1304   22875701.8774   22875703.1254
      -172.9294
 -29068509.00249 -22644467.98848  20436604.2384   20436604.0344   20436606.0084
      1712.9834
 -20658542.36749 -16057731.99248  21141444.4694   21141444.1114   21141446.6644
       830.5334
 -24145404.99149 -18792021.68448  20787866.7234   20787867.0474   20787868.9884
     -1603.5364
 10  1  5  0 54  0.0000000  0  9G12G28G17G26G22G18G09G27G15
 -16312163.14648 -12697943.57947  22793168.9864   22793168.7474   22793170.6974
      3134.7344
  -7709250.70847  -5968497.56846  24118251.6754   24118251.1144   24118253.6264
     -3036.7684
 -16649737.88648 -12935063.45147  22336568.6534   22336568.8714   22336570.9714
       707.2104
  -6061915.81547  -4674302.51146  24008362.8354   24008363.1244   24008364.8584
      3697.8144
  -8453038.21047  -6363948.10446  24310107.9304   24310108.0864   24310108.5864
      1522.1224
 -14721124.00148 -11461530.89747  22876739.7174   22876740.3814   22876739.7074
      -190.8464
 -29119750.17249 -22684396.17148  20426853.3484   20426853.2024   20426855.4464
      1702.8254
 -20683386.35849 -16077090.94448  21136716.7294   21136716.6514   21136719.3624
       825.2294
 -24097070.54949 -18754358.48548  20797064.6444   20797064.8204   20797066.4644
     -1619.0794
 10  1  5  0 54 30.0000000  0  9G12G28G17G26G22G18G09G27G15
 -16406065.55048 -12771114.25947  22775299.8574   22775300.1024   22775301.5644
      3125.4854
  -7618100.54447  -5897471.46746  24135597.1674   24135597.1524   24135598.4844
     -3039.7044
 -16670674.00048 -12951377.30247  22332584.7634   22332584.8194   22332586.6844
       688.9374
  -6172770.17647  -4760682.53046  23987268.4454   23987269.0944   23987270.9764
      3692.7394
  -8498451.61947  -6399335.18846  24301466.6174   24301466.2864   24301465.8064
      1505.9684
 -14715120.06548 -11456852.50346  22877881.9204   22877881.5794   22877883.9194
      -209.2954
 -29170663.59549 -22724068.96548  20417164.8514   20417164.3694   20417167.1184
      1691.5944
 -20708049.95549 -16096309.32948  21132023.3634   21132023.5604   21132025.9754
       819.0844
 -24048253.45849 -18716319.19848  20806354.1614   20806354.5544   20806356.3744
     -1635.1954
 10  1  5  0 55  0.0000000  0  9G12G28G17G26G22G18G09G27G15
 -16499692.79848 -12844070.53547  22757483.0104   22757482.8204   22757484.9874
      3116.4604
  -7526854.06847  -5826370.34146  24152960.7794   24152961.4594   24152961.9434
     -3043.0544
 -16691053.92748 -12967257.75447  22328706.3424   22328706.3304   22328708.5604
       670.0554
  -6283479.58547  -4846949.61646  23966201.7564   23966201.9434   23966202.1104
      3687.9304
  -8543378.51447  -6434343.17246  24292917.5214   24292918.3654   24292916.2114
      1489.6674
 -14708562.20448 -11451742.46547  22879130.5234   22879129.0154   22879130.7014
      -227.6174
 -29221243.39349 -22763481.79348  20407539.7724   20407539.5614   20407541.9174
      1680.6304
 -20732527.94149 -16115383.08548  21127365.4864   21127365.4174   21127368.2534
       812.9874
 -23998949.43449 -18677900.48048  20815736.3204   20815736.6454   20815738.6294
     -1651.3764
 10  1  5  0 55 30.0000000  0  9G12G28G17G26G22G18G09G27G15
 -16593047.83148 -12916814.69947  22739718.2144   22739717.9024   22739719.4774
      3107.2864
  -7435517.31747  -5755198.86546  24170341.4574   24170341.0944   24170342.5764
     -3046.0984
 -16710880.66048 -12982707.14947  22324933.3414   22324933.6374   22324935.2124
       651.6734
  -6394045.97847  -4933105.26546  23945159.3914   23945159.1994   23945163.1954
      3682.6044
  -8587821.86647  -6468974.37046  24284459.9964   24284460.5644   24284459.9844
      1473.3774
 -14701455.48748 -11446204.78247  22880482.4174   22880482.0014   22880483.2704
      -246.0924
 -29271492.85549 -22802637.21148  20397977.5454   20397977.2234   20397980.0134
      1669.4784
 -20756824.15349 -16134315.19648  21122742.1364   21122742.0034   21122744.4584
       806.8884
 -23949163.90049 -18639106.56348  20825210.3714   20825210.6124   20825212.3634
     -1667.5604
 10  1  5  0 56  0.0000000  0  9G12G28G17G26G22G18G09G27G15
 -16686124.75148 -12989342.15647  22722006.1294   22722006.1514   22722007.5434
      3098.0534
  -7344087.35347  -5683954.73946  24187739.9154   24187740.8614   24187741.4344
     -3049.2754
 -16730148.81648 -12997721.29147  22321266.8264   22321267.1924   22321268.3824
       633.2464
  -6504462.10047  -5019143.81746  23924147.8204   23924147.8154   23924150.3014
      3678.3634
  -8631775.47747  -6503223.95046  24276095.4014   24276095.0824   24276096.3904
      1457.1384
 -14693795.80948 -11440236.21047  22881940.2534   22881940.1384   22881942.2924
      -264.3254
 -29321406.45049 -22841530.91948  20388479.2944   20388479.2904   20388481.3214
      1658.3674
 -20780933.74049 -16153101.88648  21118154.0464   21118154.0864   21118156.4634
       800.7004
 -23898893.07949 -18599934.50048  20834776.4014   20834776.6884   20834778.5894
     -1683.5254
 10  1  5  0 56 30.0000000  0  9G12G28G17G26G22G18G09G27G15
 -16778925.00948 -13061654.02947  22704346.8334   22704347.0524   22704349.1294
      3088.5214
  -7252568.80747  -5612641.60446  24205155.1974   24205154.3864   24205157.8164
     -3052.5284
 -16748860.34548 -13012301.69747  22317706.1394   22317705.7974   22317708.1584
       614.0394
  -6614728.54747  -5105065.71846  23903166.7654   23903167.4674   23903168.9794
      3672.7414
  -8675241.63047  -6537093.70346  24267825.1214   24267824.7854   24267822.9904
      1440.5224
 -14685586.94948 -11433839.70447  22883501.7714   22883501.5344   22883502.3664
      -282.8344
 -29370986.25249 -22880164.52948  20379044.5804   20379044.2774   20379046.7224
      1646.9144
 -20804859.39949 -16171745.25048  21113601.2184   21113600.8744   21113603.8794
       794.2764
 -23848140.91249 -18560387.36048  20844434.2324   20844434.5694   20844436.4914
     -1699.9884
 10  1  5  0 57  0.0000000  0  9G12G28G17G26G22G18G09G27G15
 -16871447.32848 -13133749.32447  22686740.4104   22686740.7594   22686742.2134
      3079.3014
  -7160963.49847  -5541260.84646  24222587.3544   24222586.8024   24222589.7734
     -3055.1694
 -16767014.30148 -13026447.63047  22314251.0754   22314251.2244   22314253.4304
       595.7584
  -6724842.78847  -5190869.03246  23882212.4724   23882213.8794   23882214.4924
      3667.9274
  -8718218.87047  -6570582.46146  24259646.0224   24259646.1514   24259646.0724
      1424.2404
 -14676829.56648 -11427015.77747  22885168.8244   22885167.7224   22885168.7914
      -301.2104
 -29420231.22849 -22918537.23948  20369673.5264   20369673.3304   20369675.6784
      1635.8044
 -20828600.83849 -16190245.06948  21109083.4864   21109083.2624   21109085.9824
       788.2824
 -23796907.89549 -18520465.53648  20854183.7034   20854183.8814   20854185.6434
     -1715.7874
 10  1  5  0 57 30.0000000  0  9G12G28G17G26G22G18G09G27G15
 -16963690.17248 -13205626.84047  22669187.0364   22669187.1654   22669189.2624
      3069.7774
  -7069273.13247  -5469813.81146  24240035.3874   24240035.1024   24240037.5294
     -3058.0534
 -16784609.17648 -13040157.91947  22310903.0724   22310903.3864   22310905.1684
       576.8274
  -6834802.17247  -5276551.67046  23861287.3674   23861286.9954   23861289.1574
      3662.5664
  -8760706.08747  -6603689.39446  24251562.8064   24251562.3524   24251560.7734
      1407.7074
 -14667524.72048 -11419765.24047  22886939.0414   22886938.4934   22886940.7054
      -319.6444
 -29469140.35849 -22956648.24648  20360366.5304   20360366.4724   20360368.6914
      1624.3814
 -20852157.55649 -16208600.95048  21104600.5504   21104600.5194   21104603.3324
       781.8074
 -23745195.11249 -18480169.86448  20864024.2674   20864024.6144   20864026.4274
     -1732.0844
 10  1  5  0 58  0.0000000  0  9G12G28G17G26G22G18G09G27G15
 -17055650.87548 -13277284.50747  22651687.3914   22651687.5364   22651689.5394
      3060.6464
  -6977498.31247  -5398300.98346  24257499.3994   24257498.9464   24257500.3444
     -3060.2674
 -16801643.59248 -13053431.48247  22307661.4894   22307661.4624   22307663.9334
       558.4564
  -6944603.18847  -5362110.89646  23840393.4724   23840394.0734   23840395.8234
      3657.6184
  -8802700.75547  -6636412.53446  24243569.1774   24243569.3994   24243569.9834
      1391.5624
 -14657671.89848 -11412087.73847  22888814.7744   22888813.5964   22888815.5454
      -337.8064
 -29517711.43049 -22994495.83248  20351123.9884   20351123.6374   20351125.8374
      1613.3984
 -20875528.15249 -16226811.80148  21100153.2654   21100153.2494   21100155.8944
       775.7804
 -23693002.78549 -18439500.52248  20873956.3234   20873956.3214   20873958.1564
     -1747.7374
 10  1  5  0 58 30.0000000  0  9G12G28G17G26G22G18G09G27G15
 -17147328.81448 -13348721.83847  22634241.8814   22634242.4674   22634242.9664
      3051.4864
  -6885641.62547  -5326724.35246  24274979.5924   24274980.5234   24274982.3314
     -3063.1204
 -16818117.23948 -13066268.08247  22304527.1064   22304527.4434   22304528.7664
       540.0664
  -7054244.11147  -5447545.40646  23819528.9984   23819529.4834   23819531.1914
      3652.2304
  -8844202.59547  -6668751.62246  24235673.7384   24235671.9684   24235672.3034
      1375.5814
 -14647272.78448 -11403984.53046  22890792.7214   22890791.4234   22890793.4554
      -355.2734
 -29565944.32249 -23032079.90048  20341945.1494   20341945.2344   20341947.6004
      1602.3944
 -20898713.13949 -16244878.02448  21095741.4404   21095741.2784   21095743.9734
       769.9294
 -23640332.30549 -18398458.59348  20883978.9454   20883979.2684   20883980.9894
     -1763.3304
 10  1  5  0 59  0.0000000  0  9G12G28G17G26G22G18G09G27G15
 -17238722.72048 -13419937.85547  22616850.6174   22616850.1844   22616851.5534
      3041.8494
  -6793704.90847  -5255085.37946  24292474.7854   24292473.8804   24292475.9864
     -3065.6914
 -16834029.03648 -13078666.87947  22301499.0114   22301498.9654   22301500.7414
       521.1424
  -7163722.12247  -5532852.96946  23798696.1114   23798696.8404   23798699.5214
      3646.8654
  -8885210.65347  -6700705.96346  24227868.2424   24227870.4944   24227868.4754
      1358.6324
 -14636328.06348 -11395456.18347  22892875.6944   22892874.9054   22892877.2384
      -373.8704
 -29613838.03949 -23069399.67748  20332831.3654   20332831.2084   20332833.7754
      1590.8634
 -20921712.16949 -16262799.34348  21091364.8204   21091364.3954   21091367.3744
       763.6724
 -23587184.85149 -18357044.99348  20894092.6674   20894093.0504   20894094.6454
     -1779.3594
 10  1  5  0 59 30.0000000  0  9G12G28G17G26G22G18G09G27G15
 -17329829.50848 -13490930.13447  22599513.0284   22599513.3914   22599514.8484
      3032.1854
  -6701687.83047  -5183383.76746  24309984.4494   24309983.2854   24309986.5094
     -3068.5524
 -16849376.12148 -13090625.64147  22298578.4564   22298578.5194   22298580.6424
       502.0804
  -7273033.13547  -5618030.38946  23777893.8654   23777894.1674   23777896.8764
      3640.9604
  -8925721.54247  -6732272.86346  24220158.7984   24220159.2704   24220160.1864
      1342.1504
 -14624836.85548 -11386502.01547  22895062.7604   22895063.5304   22895063.2544
      -392.1644
 -29661389.66049 -23106452.88648  20323782.7874   20323782.5524   20323784.8294
      1579.3394
 -20944522.89949 -16280573.93748  21087024.0464   21087023.9834   21087026.6854
       757.1774
 -23533559.44349 -18315258.96548  20904297.2034   20904297.3554   20904299.2594
     -1795.4314
                            4  1
RINEX FILE SPLICE; other post-header comments skipped       COMMENT
 10  1  5  1  0  0.0000000  0  9G12G28G17G26G22G18G09G27G15
 -17420652.04048 -13561700.91747  22582230.1344   22582230.0584   22582231.6384
      3023.0654
  -6609596.70647  -5111624.47746  24327509.4504   24327509.5614   24327510.4314
     -3070.3254
 -16864162.68148 -13102147.63247  22295764.6974   22295765.1614   22295767.1184
       483.9334
  -7382178.99147  -5703079.10846  23757124.9684   23757124.5854   23757127.7274
      3635.6514
  -8965739.09247  -6763455.38046  24212546.7014   24212545.7724   24212545.4664
      1326.1524
 -14612805.12248 -11377126.65047  22897352.5644   22897352.5644   22897354.3404
      -409.7104
 -29708603.08349 -23143242.56348  20314798.2444   20314798.1394   20314800.6834
      1568.5014
 -20967149.95149 -16298205.40548  21082718.1154   21082718.0644   21082720.9354
       751.4784
 -23479461.96449 -18273105.08948  20914591.4924   20914592.0574   20914593.5934
     -1810.6984
 10  1  5  1  0 30.0000000  0  9G12G28G17G26G22G18G09G27G15
 -17511185.06148 -13632246.10747  22565002.1454   22565002.3364   22565003.7334
      3013.0824
  -6517429.31547  -5039805.74646  24345047.7274   24345046.5814   24345048.2794
     -3073.4004
 -16878383.59748 -13113228.85547  22293058.9154   22293058.8784   22293061.0864
       464.7024
  -7491152.88647  -5787993.83346  23736388.1154   23736388.1804   23736389.6194
      3629.7314
  -9005257.98947  -6794249.30746  24205025.3584   24205025.4324   24205025.0484
      1309.0874
 -14600229.12248 -11367327.18446  22899745.1574   22899746.3834   22899748.1784
      -428.1774
 -29755473.12749 -23179764.67448  20305879.1064   20305878.9164   20305881.2344
      1556.6824
 -20989588.52449 -16315690.00348  21078448.2694   21078448.0184   21078450.8874
       744.9214
 -23424889.16249 -18230580.83348  20924976.3624   20924976.7034   20924978.5444
     -1826.8404
 10  1  5  1  1  0.0000000  0  9G12G28G17G26G22G18G09G27G15
 -17601426.80048 -13702564.32447  22547829.8204   22547829.6294   22547831.4014
      3002.6244
  -6425186.83647  -4967928.51646  24362601.3584   24362601.4644   24362602.1424
     -3076.5154
 -16892037.84548 -13123868.52447  22290460.3334   22290460.2864   22290462.6054
       445.0984
  -7599952.15447  -5872772.47546  23715684.6244   23715684.5454   23715687.9704
      3623.1784
  -9044276.38947  -6824653.26846  24197600.9394   24197599.6104   24197598.6244
      1291.5764
 -14587109.63748 -11357104.22547  22902241.9544   22902242.3784   22902242.7524
      -446.8374
 -29801998.09949 -23216017.89548  20297025.8164   20297025.5904   20297027.9564
      1544.5864
 -21011837.87849 -16333027.16048  21074214.6644   21074214.4574   21074216.8754
       738.0014
 -23369841.70849 -18187686.71748  20935451.6964   20935451.9844   20935453.8904
     -1843.3544
 10  1  5  1  1 30.0000000  0  9G12G28G17G26G22G18G09G27G15
 -17691379.86248 -13772657.59847  22530712.0624   22530712.7094   22530714.1344
      2993.1054
  -6332875.06247  -4895997.30646  24380167.4344   24380168.0074   24380169.8954
     -3078.9174
 -16905128.50748 -13134069.02747  22287969.2644   22287969.5494   22287970.9074
       426.3194
  -7708578.09947  -5957416.07846  23695013.9164   23695012.5364   23695014.6044
      3617.5544
  -9082797.97847  -6854670.08046  24190268.0074   24190268.7564   24190269.0024
      1275.1154
 -14573451.72548 -11346461.72547  22904840.8544   22904840.0964   22904842.3774
      -464.8094
 -29848181.22549 -23252004.74648  20288237.4394   20288237.3154   20288239.3364
      1533.1264
 -21033901.70449 -16350219.75548  21070015.9124   21070015.9024   21070018.5624
       731.7254
 -23314324.71749 -18144426.72948  20946016.2684   20946016.5694   20946018.0854
     -1858.9444
 10  1  5  1  2  0.0000000  0  9G12G28G17G26G22G18G09G27G15
 -17781035.33748 -13842518.98847  22513651.5554   22513651.3294   22513653.4224
      2983.7804
  -6240487.53447  -4824007.03346  24397748.3524   24397748.7634   24397751.1674
     -3080.6514
 -16917646.79648 -13143823.53047  22285587.0774   22285587.2424   22285588.9734
       407.9514
  -7817020.32147  -6041916.51646  23674377.7124   23674378.2854   23674380.4814
      3611.9504
  -9120813.55847  -6884292.59746  24183034.1624   24183034.9084   24183035.7164
      1258.9884
 -14559248.71048 -11335394.46946  22907543.7784   22907544.2464   22907544.0644
      -481.8794
 -29894013.74849 -23287718.39848  20279515.6464   20279515.6144   20279518.0134
      1522.1064
 -21055771.77449 -16367261.36748  21065854.0184   21065853.8854   21065856.4394
       726.1154
 -23258331.16949 -18100795.40048  20956671.3884   20956671.8414   20956673.4984
     -1874.1114
 10  1  5  1  2 30.0000000  0  9G12G28G17G26G22G18G09G27G15
 -17870399.90848 -13912153.70647  22496646.0514   22496646.4084   22496647.4444
      2973.8094
  -6148034.46147  -4751965.69946  24415341.8904   24415341.3384   24415343.7724
     -3083.1914
 -16929600.55648 -13153138.13947  22283312.2454   22283312.0744   22283314.2844
       388.8844
  -7925284.40447  -6126278.13246  23653775.3464   23653775.2654   23653777.7904
      3605.8244
  -9158330.23447  -6913526.37546  24175895.3284   24175894.7754   24175894.9914
      1242.4204
 -14544509.84448 -11323909.66347  22910348.5124   22910347.7904   22910349.4984
      -500.5714
 -29939502.86649 -23323164.46348  20270859.5254   20270859.3114   20270861.3834
      1510.4864
 -21077456.02149 -16384158.18348  21061727.6594   21061727.4714   21061730.2374
       719.6064
 -23201870.98749 -18056800.45948  20967415.3594   20967415.5614   20967417.7064
     -1889.9534
 10  1  5  1  3  0.0000000  0  9G12G28G17G26G22G18G09G27G15
 -17959468.04748 -13981557.43047  22479696.5434   22479697.3354   22479698.7674
      2963.7474
  -6055513.41547  -4679871.39346  24432947.3544   24432947.2024   24432949.5304
     -3085.6104
 -16940984.72448 -13162008.91147  22281145.6234   22281145.5404   22281148.0474
       369.7434
  -8033363.52847  -6210495.61546  23633208.2244   23633207.8494   23633211.6114
      3599.2794
  -9195342.94947  -6942367.44746  24168852.7694   24168852.0244   24168852.5764
      1225.1734
 -14529231.80248 -11312004.71047  22913255.8524   22913254.5564   22913257.8014
      -518.6144
 -29984643.58849 -23358339.05148  20262269.6124   20262269.5134   20262271.7404
      1498.6394
 -21098949.77549 -16400906.56148  21057637.7554   21057637.4324   21057640.0434
       713.0084
 -23144940.96849 -18012439.41048  20978248.9514   20978249.0124   20978250.8394
     -1905.7394
 10  1  5  1  3 30.0000000  0  9G12G28G17G26G22G18G09G27G15
 -18048241.14548 -14050731.25647  22462803.9354   22462804.3294   22462805.2714
      2953.9994
  -5962928.63147  -4607727.43746  24450566.0714   24450566.2204   24450568.1794
     -3087.3344
 -16951801.26848 -13170437.38647  22279087.5234   22279087.9884   22279089.4804
       351.0944
  -8141257.73947  -6294569.01746  23612676.7094   23612678.1844   23612679.5504
      3593.2224
  -9231853.21547  -6970817.00546  24161905.2484   24161904.8884   24161904.0534
      1208.5824
 -14513418.30948 -11299682.53347  22916264.9094   22916264.4334   22916265.0854
      -536.1214
 -30029437.56049 -23393243.44548  20253745.2694   20253745.1664   20253747.8414
      1487.2394
 -21120255.18749 -16417508.17848  21053583.3504   21053583.2704   21053585.9514
       706.9034
 -23087544.64349 -17967715.00548  20989170.9384   20989171.1174   20989173.3174
     -1921.0514
 10  1  5  1  4  0.0000000  0  9G12G28G17G26G22G18G09G27G15
 -18136714.57048 -14119671.57447  22445968.2034   22445967.9654   22445969.3134
      2944.7564
  -5870278.38547  -4535532.46646  24468196.9134   24468195.1644   24468198.2264
     -3088.6694
 -16962046.54948 -13178420.71847  22277137.7924   22277137.7364   22277139.9214
       332.6824
  -8248961.10847  -6378493.70546  23592181.7764   23592182.1444   23592183.1524
      3588.1854
  -9267856.95447  -6998871.86546  24155054.1474   24155054.6654   24155053.8454
      1192.3264
 -14497067.23548 -11286941.46947  22919376.6684   22919376.2184   22919376.7484
      -553.2804
 -30073880.38249 -23427874.21148  20245288.3554   20245288.2064   20245290.5014
      1476.2434
 -21141368.73249 -16433960.29148  21049565.7634   21049565.3974   21049568.2084
       701.3704
 -23029679.89549 -17922625.59548  21000182.3724   21000182.6314   21000184.3254
     -1935.8414
 10  1  5  1  4 30.0000000  0  9G12G28G17G26G22G18G09G27G15
 -18224889.98748 -14188379.67447  22429188.6264   22429188.7234   22429190.9434
      2934.2904
  -5777567.19647  -4463290.01046  24485839.1744   24485838.3244   24485841.5514
     -3091.1334
 -16971722.71048 -13185960.57747  22275296.6944   22275296.8974   22275298.7124
       313.2234
  -8356474.06147  -6462270.02046  23571722.9934   23571722.2564   23571725.0364
      3580.5874
  -9303356.17047  -7026533.58746  24148298.8034   24148298.2454   24148298.3694
      1174.9764
 -14480182.60948 -11273784.64146  22922589.8794   22922588.3514   22922590.8404
      -571.5794
 -30117973.99849 -23462232.87348  20236897.5904   20236897.3094   20236899.5664
      1463.9574
 -21162292.74049 -16450264.71148  21045584.0484   21045583.7564   21045586.2864
       694.3554
 -22971351.08349 -17877174.57648  21011281.9944   21011282.4194   21011284.1674
     -1951.9804
 10  1  5  1  5  0.0000000  0  9G12G28G17G26G22G18G09G27G15
 -18312763.89748 -14256852.83647  22412466.7064   22412467.3514   22412468.3354
      2923.9894
  -5684794.43847  -4390999.57746  24503493.0314   24503493.9204   24503496.2284
     -3093.4404
 -16980826.47048 -13193054.41147  22273564.1934   22273564.2274   22273566.4604
       293.8834
  -8463791.55947  -6545894.02446  23551300.7584   23551300.9894   23551302.3054
      3573.8514
  -9338347.36147  -7053799.45046  24141639.8314   24141639.6164   24141639.3664
      1157.6184
 -14462763.03748 -11260210.95746  22925904.2714   22925902.5884   22925905.7454
      -589.6554
 -30161714.78749 -23496316.60248  20228573.9524   20228573.6944   20228576.1444
      1452.0244
 -21183024.65049 -16466419.44148  21041638.6314   21041638.4404   21041641.2454
       687.7584
 -22912556.74849 -17831360.81248  21022470.1514   21022470.4334   21022472.2984
     -1967.6994
 10  1  5  1  5 30.0000000  0 10G12G28G17G30G26G22G18G09G27G15
 -18400334.36248 -14325089.55947  22395802.5564   22395802.8034   22395804.4594
      2914.1134
  -5591961.17047  -4318661.98946  24521158.8864   24521157.8604   24521160.0594
     -3094.9874
 -16989356.81048 -13199701.41847  22271941.1914   22271941.2194   22271943.4774
       274.9024
  -2904386.30346  -2203208.46945  25441651.7824   25441653.7524   25441654.6994
      3708.3224
  -8570910.36947  -6629363.19746  23530916.3404   23530917.6804   23530919.4654
      3567.6804
  -9372829.11547  -7080668.35346  24135077.8624   24135078.5474   24135078.4684
      1141.1174
 -14444809.41348 -11246221.15546  22929320.9614   22929320.4954   22929321.1144
      -607.1604
 -30205101.47049 -23530124.40748  20220317.7144   20220317.6684   20220319.9604
      1440.5484
 -21203563.46349 -16482423.71148  21037730.5144   21037730.1924   21037732.8914
       681.5834
 -22853297.59149 -17785184.84948  21033746.8624   21033747.0314   21033748.8944
     -1982.9134
 10  1  5  1  6  0.0000000  0 10G12G28G17G30G26G22G18G09G27G15
 -18487602.16448 -14393090.43147  22379196.2024   22379196.4154   22379198.0824
      2903.5674
  -5499071.21747  -4246280.23346  24538835.4684   24538834.8974   24538837.5974
     -3097.3544
 -16997315.48848 -13205902.97847  22270426.2624   22270426.6594   22270428.4934
       255.4164
  -3015613.03446  -2289878.57445  25420485.1784   25420483.6164   25420491.5004
      3706.6144
  -8677830.13647  -6712677.26946  23510570.7924   23510570.7024   23510574.1604
      3560.4634
  -9406802.88847  -7107141.41846  24128613.4534   24128612.8074   24128612.9904
      1123.5514
 -14426325.09848 -11231817.81446  22932838.3434   22932838.8094   22932838.8844
      -625.3884
 -30248135.73349 -23563657.59648  20212128.4924   20212128.3874   20212130.6684
      1428.1934
 -21223911.16549 -16498279.06048  21033858.3174   21033858.1954   21033860.8294
       674.7404
 -22793577.02749 -17738649.34648  21045111.2044   21045111.3684   21045113.3764
     -1998.7354
 10  1  5  1  6 30.0000000  0 10G12G28G17G30G26G22G18G09G27G15
 -18574567.99348 -14460856.01047  22362647.3894   22362647.4254   22362648.9024
      2893.0764
  -5406128.08647  -4173857.04746  24556521.5594   24556520.3374   24556523.9404
     -3099.4934
 -17004703.75048 -13211660.05647  22269020.4354   22269020.7184   22269022.7314
       236.1594
  -3126788.73446  -2376508.95745  25399331.4554   25399333.2444   25399333.7784
      3704.8054
  -8784549.94847  -6795835.56446  23490263.3354   23490262.5784   23490265.1944
      3553.6474
  -9440269.87847  -7133219.59946  24122245.6334   24122243.9074   24122243.6104
      1106.4864
 -14407313.01748 -11217003.21246  22936456.0494   22936455.7554   22936457.9714
      -642.9784
 -30290817.89549 -23596916.42448  20204006.3234   20204006.1544   20204008.7094
      1416.3014
 -21244069.22049 -16513986.63848  21030022.3494   21030022.0154   21030024.8114
       668.2294
 -22733398.42349 -17691756.93348  21056562.8094   21056563.3834   21056565.0544
     -2014.0734
 10  1  5  1  7  0.0000000  0 10G12G28G17G30G26G22G18G09G27G15
 -18661226.52948 -14528382.14347  22346156.2964   22346156.4564   22346158.1274
      2883.6034
  -5313129.08647  -4101390.33346  24574218.7954   24574217.8394   24574221.4994
     -3100.7504
 -17011516.73148 -13216968.86647  22267723.8424   22267723.8894   22267726.3244
       217.6394
  -3237907.66946  -2463095.11645  25378186.4504   25378185.3064   25378187.8024
      3702.6504
  -8891062.65747  -6878832.47046  23469994.0994   23469994.3254   23469995.4664
      3546.9944
  -9473224.60647  -7158898.59946  24115972.7444   24115972.1764   24115973.4074
      1089.9994
 -14387770.31448 -11201775.15046  22940175.3524   22940174.2104   22940175.5684
      -660.0914
 -30333142.44849 -23629896.59548  20195952.2764   20195952.1314   20195954.4364
      1404.9624
 -21264032.60349 -16529542.52248  21026223.3804   21026223.4064   21026225.7424
       662.2824
 -22672758.23349 -17644504.83748  21068102.2274   21068102.6984   21068104.3744
     -2028.9144
 10  1  5  1  7 30.0000000  0 10G12G28G17G30G26G22G18G09G27G15
 -18747575.60748 -14595667.13747  22329724.7704   22329725.0634   22329727.0344
      2873.3314
  -5220075.38247  -4028880.98646  24591926.0804   24591925.8664   24591927.4134
     -3102.7644
 -17017753.80148 -13221828.92047  22266537.3704   22266538.0274   22266539.8964
       198.4314
  -3348968.23046  -2549635.75545  25357049.7204   25357052.9014   25357054.8354
      3702.0244
  -8997365.40847  -6961665.76646  23449765.1234   23449765.2814   23449767.1574
      3540.2964
  -9505665.74747  -7184177.42046  24109798.9304   24109800.3634   24109800.4904
      1072.8694
 -14367697.72348 -11186134.18546  22943994.5534   22943994.1224   22943996.5794
      -677.5734
 -30375108.37749 -23662597.31648  20187966.4534   20187966.3154   20187968.8034
      1393.0334
 -21283800.69349 -16544946.22848  21022461.7024   21022461.4554   21022464.0494
       655.8624
 -22611657.58449 -17596893.94048  21079729.4374   21079729.4784   21079731.6624
     -2044.1494
 10  1  5  1  8  0.0000000  0 10G12G28G17G30G26G22G18G09G27G15
 -18833619.25048 -14662714.13447  22313351.2204   22313351.0954   22313352.5564
      2862.3594
  -5126973.63747  -3956334.20746  24609643.0734   24609643.8234   24609645.4704
     -3105.0134
 -17023419.39948 -13226243.66647  22265459.1324   22265459.4594   22265461.7314
       178.7564
  -3459973.94046  -2636133.69345  25335924.7424   25335925.7124   25335932.6844
      3698.3164
  -9103460.57147  -7044337.30846  23429576.1224   23429575.8114   23429578.0304
      3532.5214
  -9537597.65247  -7209059.43146  24103723.1994   24103723.3044   24103723.1994
      1055.3014
 -14347101.60448 -11170085.26946  22947914.3164   22947913.9194   22947914.5134
      -695.7844
 -30416719.86849 -23695021.85148  20180047.9834   20180047.8434   20180050.2734
      1380.4944
 -21303378.22349 -16560201.44848  21018736.2544   21018735.9194   21018738.7964
       648.8874
 -22550103.03349 -17548929.35848  21091442.7244   21091442.9214   21091444.8454
     -2059.9764
 10  1  5  1  8 30.0000000  0 10G12G28G17G30G26G22G18G09G27G15
 -18919350.51148 -14729517.69747  22297037.1324   22297037.2514   22297038.8274
      2852.4284
  -5033819.52946  -3883746.62746  24627370.1874   24627369.3524   24627372.3804
     -3106.4304
 -17028507.16748 -13230208.15547  22264491.0854   22264491.2284   22264493.2124
       159.8464
  -3570917.50546  -2722583.17645  25314817.0254   25314814.5274   25314821.6634
      3697.8954
  -9209339.58847  -7126840.44246  23409427.5364   23409427.4744   23409430.4964
      3525.4884
  -9569013.71347  -7233539.48646  24097744.6924   24097746.2224   24097744.7394
      1038.3004
 -14325977.23848 -11153624.75046  22951933.7684   22951934.0394   22951934.9844
      -712.9004
 -30457969.93449 -23727164.75648  20172198.4424   20172198.0484   20172200.5774
      1368.8534
 -21322758.59949 -16575303.04048  21015048.1364   21015047.8694   21015050.6354
       642.6374
 -22488089.62849 -17500607.22948  21103243.5194   21103243.5974   21103245.6014
     -2074.8364
 10  1  5  1  9  0.0000000  0 10G12G28G17G30G26G22G18G09G27G15
 -19004773.77948 -14796081.26647  22280781.7834   22280781.9914   22280783.2584
      2842.2264
  -4940620.52047  -3811124.05046  24645104.3944   24645103.5184   24645107.9194
     -3107.2404
 -17033022.36248 -13233726.48147  22263631.3344   22263631.6534   22263633.2554
       140.9144
  -3681803.49246  -2808987.83645  25293715.6864   25293713.1914   25293713.0374
      3695.1524
  -9315005.40947  -7209177.42746  23389319.9854   23389321.0004   23389322.5804
      3518.5244
  -9599918.93247  -7257621.49146  24091863.5724   24091864.0534   24091864.4564
      1021.6554
 -14304331.65448 -11136758.09046  22956053.2274   22956052.4864   22956055.6314
      -730.2644
 -30498863.41049 -23759029.80048  20164416.6004   20164416.3854   20164418.9894
      1357.1334
 -21341947.14349 -16590255.15148  21011396.9164   21011396.5964   21011399.2804
       636.3904
 -22425624.49449 -17451933.10148  21115130.1344   21115130.3464   21115132.3384
     -2089.7844
 10  1  5  1  9 30.0000000  0 10G12G28G17G30G26G22G18G09G27G15
 -19089882.49148 -14862399.73247  22264585.9104   22264586.2414   22264588.1454
      2831.9754
  -4847372.86547  -3738463.57146  24662849.9254   24662850.2704   24662852.3264
     -3109.3984
 -17036959.35948 -13236794.26647  22262882.2964   22262882.7094   22262884.4034
       121.8624
  -3792625.76946  -2895342.80945  25272624.5574   25272625.7014   25272630.8074
      3693.0904
  -9420450.17747  -7291342.15846  23369254.6754   23369254.8504   23369257.1654
      3511.1324
  -9630307.31147  -7281300.73446  24086081.6224   24086081.7604   24086081.9964
      1004.8424
 -14282161.06948 -11119482.34646  22960272.8634   22960272.0834   22960272.5744
      -747.5804
 -30539394.08749 -23790612.14548  20156704.0684   20156703.5454   20156706.2774
      1345.1824
 -21360938.16849 -16605053.35048  21007782.9254   21007782.4524   21007785.4934
       629.9424
 -22362703.90249 -17402904.07248  21127103.5614   21127103.8924   21127105.8834
     -2104.7434
 10  1  5  1 10  0.0000000  0 10G12G28G17G30G26G22G18G09G27G15
 -19174679.64148 -14928475.41747  22248449.6274   22248449.4314   22248451.3354
      2821.3844
  -4754082.10547  -3665769.49546  24680601.5154   24680602.7234   24680603.4484
     -3110.2584
 -17040321.89348 -13239414.40847  22262242.3584   22262242.5874   22262244.9994
       102.4404
  -3903386.57846  -2981649.86545  25251549.1004   25251548.0874   25251551.9744
      3691.2394
  -9525675.30347  -7373335.76446  23349230.7404   23349230.7084   23349233.2754
      3503.8964
  -9660182.24547  -7304579.91646  24080396.1614   24080396.3984   24080396.1554
       987.2934
 -14259471.04348 -11101801.83046  22964589.8354   22964589.0884   22964591.1554
      -765.0124
 -30579564.95549 -23821914.11448  20149059.5934   20149059.3404   20149061.7114
      1332.9574
 -21379735.23349 -16619700.41048  21004205.8674   21004205.8144   21004208.2504
       623.2814
 -22299333.00049 -17353524.14848  21139162.7354   21139162.9304   21139164.7824
     -2119.9334
 10  1  5  1 10 30.0000000  0 10G12G28G17G30G26G22G18G09G27G15
 -19259160.52448 -14994304.66647  22232373.4244   22232373.7424   22232375.0034
      2810.7554
  -4660746.04647  -3593040.11246  24698363.8924   24698363.6774   24698366.8964
     -3111.8444
 -17043106.07148 -13241583.89247  22261712.8854   22261713.3294   22261714.8054
        83.2524
  -4014080.81347  -3067905.12945  25230485.0154   25230483.4014   25230486.0224
      3688.6704
  -9630674.22247  -7455153.10346  23329250.4584   23329251.0084   23329253.7504
      3496.0374
  -9689539.17847  -7327455.43446  24074809.9814   24074810.5434   24074810.5354
       970.0554
 -14236259.28848 -11083714.77746  22969006.6124   22969004.9944   22969008.4504
      -782.3414
 -30619371.38949 -23852932.11448  20141484.8344   20141484.8784   20141487.0134
      1320.8294
 -21398334.16649 -16634193.08848  21000666.6114   21000666.4034   21000669.4774
       616.6384
 -22235509.65849 -17303791.67348  21151307.9004   21151308.3384   21151310.3184
     -2134.8654
 10  1  5  1 11  0.0000000  0 10G12G28G17G30G26G22G18G09G27G15
 -19343326.60648 -15059888.62047  22216356.9684   22216357.1694   22216358.4274
      2800.3394
  -4567369.34647  -3520279.06746  24716132.0934   24716132.5874   24716134.4444
     -3113.0124
 -17045314.35048 -13243304.62147  22261292.5684   22261292.6574   22261294.4974
        64.1034
  -4124709.96047  -3154109.67145  25209432.6124   25209430.4574   25209436.4914
      3686.7014
  -9735447.12647  -7536794.31446  23309312.0874   23309312.4484   23309315.7204
      3488.6724
  -9718380.31547  -7349929.03646  24069321.5494   24069321.6744   24069321.0284
       952.7504
 -14212530.00748 -11065224.46546  22973521.9844   22973521.0534   22973524.3544
      -799.6024
 -30658815.32349 -23883667.64448  20133978.9724   20133978.7444   20133981.1824
      1308.7864
 -21416737.48749 -16648533.33848  20997164.5654   20997164.3114   20997167.2454
       610.1544
 -22171238.56149 -17253710.30348  21163538.3734   21163538.7094   21163540.3144
     -2149.7674
 10  1  5  1 11 30.0000000  0 10G12G28G17G30G26G22G18G09G27G15
 -19427174.74548 -15125224.82747  22200401.2494   22200401.7814   22200403.4144
      2789.6214
  -4473951.14747  -3447485.68746  24733909.0244   24733909.9464   24733911.1114
     -3114.3464
 -17046943.92748 -13244574.41647  22260982.6474   22260982.8284   22260984.6684
        44.8444
  -4235270.46747  -3240260.70345  25188392.3974   25188394.2714   25188397.8494
      3684.6054
  -9839989.14447  -7618255.62546  23289419.1934   23289418.6054   23289421.5404
      3480.9664
  -9746702.82547  -7371998.53946  24063932.8334   24063933.2884   24063931.6954
       935.5044
 -14188282.28148 -11046330.15446  22978136.3854   22978135.9674   22978138.8214
      -816.6844
 -30697893.41349 -23914118.10348  20126542.7624   20126542.5094   20126544.6144
      1296.6554
 -21434942.56049 -16662719.10948  20993700.1704   20993700.0634   20993702.9054
       603.7334
 -22106517.84449 -17203278.58048  21175854.3434   21175854.6984   21175856.4824
     -2164.6244
 10  1  5  1 12  0.0000000  0 10G12G28G17G30G26G22G18G09G27G15
 -19510704.91448 -15190313.27047  22184506.1114   22184506.2624   22184507.8094
      2778.2614
  -4380494.54647  -3374662.38546  24751692.8214   24751693.3844   24751695.7194
     -3116.5534
 -17047996.41248 -13245394.52547  22260782.2044   22260782.6164   22260784.3724
        24.6484
  -4345762.68147  -3326358.55445  25167366.2994   25167369.2054   25167371.3374
      3681.4704
  -9944298.98447  -7699536.02246  23269569.6144   23269568.7104   23269571.5354
      3472.4554
  -9774507.74347  -7393664.69046  24058642.3734   24058642.3374   24058641.0634
       917.4634
 -14163519.02548 -11027034.15146  22982848.4364   22982847.3254   22982850.4654
      -834.7654
 -30736606.18449 -23944283.89548  20119175.7814   20119175.5084   20119177.8714
      1283.4764
 -21452950.44249 -16676751.22448  20990273.3914   20990273.6214   20990275.8084
       596.2334
 -22041350.84649 -17152499.10748  21188255.0684   21188255.4154   21188257.4384
     -2180.4424
 10  1  5  1 12 30.0000000  0 10G12G28G17G30G26G22G18G09G27G15
 -19593916.39748 -15255153.38847  22168671.6604   22168671.5974   22168672.5804
      2768.6204
  -4287001.25747  -3301810.49746  24769484.1974   24769483.2144   24769486.5074
     -3116.8484
 -17048471.78748 -13245764.93647  22260691.8924   22260691.7964   22260693.9524
         6.5034
  -4456185.61247  -3412402.33045  25146354.6884   25146354.2914   25146356.9464
      3679.8564
 -10048374.24947  -7780633.63046  23249764.8004   23249764.2504   23249767.3124
      3465.4974
  -9801794.63147  -7414927.20846  24053450.7504   24053447.7004   24053449.3384
       901.0514
 -14138242.26248 -11007337.99346  22987659.1234   22987657.7194   22987658.5714
      -850.7354
 -30774952.93449 -23974164.47448  20111878.6704   20111878.5024   20111880.8214
      1272.4404
 -21470760.95849 -16690629.54748  20986884.3764   20986884.1684   20986886.9584
       590.6974
 -21975739.34949 -17101373.26548  21200740.4574   21200740.9234   21200742.5994
     -2194.2264
 10  1  5  1 13  0.0000000  0 10G12G28G17G30G26G22G18G09G27G15
 -19676805.78148 -15319742.51147  22152898.1544   22152898.6174   22152900.2084
      2757.2354
  -4193470.66646  -3228929.54246  24787282.4374   24787282.3964   24787284.4034
     -3118.4974
 -17048367.20948 -13245683.44247  22260711.4854   22260711.6544   22260713.4814
       -13.4114
  -4566535.35347  -3498389.11346  25125355.8004   25125357.3374   25125358.3154
      3676.3854
 -10152210.01547  -7861544.60646  23230005.4534   23230005.9114   23230008.7894
      3456.9924
  -9828560.15647  -7435783.45446  24048354.5984   24048355.4984   24048354.9614
       883.3234
 -14112451.04148 -10987240.96446  22992567.4374   22992566.5884   22992568.6184
      -868.6364
 -30812930.54049 -24003757.40848  20104651.5724   20104651.6024   20104654.0294
      1259.4094
 -21488371.37149 -16704351.94548  20983532.9954   20983532.7524   20983535.5344
       583.3664
 -21909682.39749 -17049900.31448  21213310.7354   21213311.1354   21213312.7294
     -2209.6154
 10  1  5  1 13 30.0000000  0 10G12G28G17G30G26G22G18G09G27G15
 -19759376.15848 -15384083.06347  22137185.6284   22137185.6424   22137187.0674
      2746.9424
  -4099908.54846  -3156024.02846  24805087.0914   24805086.5044   24805090.4474
     -3119.5274
 -17047687.09148 -13245153.48547  22260841.0644   22260840.6694   22260843.0324
       -32.3244
  -4676814.89847  -3584321.15846  25104370.4644   25104370.6364   25104374.6864
      3674.8134
 -10255807.66547  -7942270.05346  23210291.0934   23210291.9744   23210294.0344
      3449.1184
  -9854808.54147  -7456236.73946  24043359.7194   24043360.0364   24043360.9364
       866.2814
 -14086151.33448 -10966747.70446  22997571.2204   22997570.2714   22997571.7214
      -885.0204
 -30850542.32049 -24033065.28548  20097494.3224   20097494.0634   20097496.6914
      1247.5454
 -21505785.54149 -16717921.42848  20980219.1264   20980219.1614   20980221.8744
       577.0564
 -21843185.77349 -16998084.76848  21225964.8554   21225964.9774   21225966.8154
     -2224.0514
 10  1  5  1 14  0.0000000  0 10G12G28G17G30G26G22G18G09G27G15
 -19841620.34848 -15448169.44247  22121534.8184   22121534.7434   22121536.7334
      2735.7904
  -4006310.39947  -3083090.44846  24822898.7354   24822897.8434   24822902.6844
     -3120.5394
 -17046425.38148 -13244170.33247  22261081.0804   22261081.4724   22261083.1184
       -51.9114
  -4787017.10347  -3670192.99046  25083398.7434   25083399.6334   25083403.1924
      3671.8664
 -10359158.49147  -8022803.15046  23190624.7344   23190625.2354   23190627.6364
      3441.0684
  -9880533.19647  -7476281.91946  24038465.1624   24038466.0734   24038464.7554
       848.3914
 -14059338.33048 -10945854.47546  23002674.0394   23002674.4844   23002674.7584
      -902.3944
 -30887781.45749 -24062082.79348  20090408.0484   20090407.9344   20090410.3864
      1235.0064
 -21522996.94449 -16731332.91048  20976944.2174   20976943.9384   20976946.5764
       570.1934
 -21776245.11049 -16945923.21548  21238702.9754   21238703.3974   21238705.2054
     -2238.8924
 10  1  5  1 14 30.0000000  0 10G12G28G17G30G26G22G18G09G27G15
 -19923541.79648 -15512004.33247  22105945.6344   22105946.1694   22105947.4564
      2725.2884
  -3912682.11346  -3010133.38546  24840714.8094   24840714.1304   24840716.2014
     -3121.5284
 -17044585.98948 -13242737.03247  22261431.4134   22261431.3874   22261433.1724
       -70.9824
  -4897144.81547  -3756006.72746  25062442.7984   25062442.3894   25062444.4374
      3669.4784
 -10462264.02747  -8103145.13046  23171004.2174   23171004.9444   23171005.3324
      3432.5974
  -9905737.70547  -7495921.81846  24033670.2634   24033669.5434   24033668.8724
       831.3864
 -14032018.07048 -10924565.97446  23007872.2994   23007871.7254   23007873.6904
      -919.2554
 -30924651.33849 -24090812.56548  20083391.9674   20083391.8344   20083394.1314
      1222.7484
 -21540009.35049 -16744589.33048  20973706.6954   20973706.4224   20973709.2344
       563.6884
 -21708865.97049 -16893419.99248  21251524.7704   21251525.2304   21251526.9314
     -2253.4054
 10  1  5  1 15  0.0000000  0 10G12G28G17G30G26G22G18G09G27G15
 -20005139.82548 -15575587.21547  22090418.5154   22090418.1424   22090419.7284
      2714.5264
  -3819025.85146  -2937154.50346  24858536.8584   24858536.6074   24858537.6514
     -3122.1154
 -17042169.94148 -13240854.38947  22261891.0504   22261891.5394   22261892.7824
       -90.0424
  -5007197.49147  -3841762.05346  25041500.6284   25041500.1114   25041503.5254
      3667.1574
 -10565122.24147  -8183294.39346  23151431.1164   23151429.9474   23151434.0654
      3424.4574
  -9930422.44747  -7515156.68646  24028972.5664   24028973.0024   24028972.2324
       814.1484
 -14004193.01648 -10902884.12646  23013167.4634   23013166.5524   23013169.0884
      -935.8854
 -30961151.20249 -24119254.01448  20076446.2414   20076445.9984   20076448.6624
      1210.5174
 -21556822.90549 -16757690.80448  20970507.2694   20970506.9524   20970509.9014
       557.2154
 -21641050.44149 -16840576.72548  21264429.8124   21264430.1984   21264431.9304
     -2267.7594
 10  1  5  1 15 30.0000000  0 10G12G28G17G30G26G22G18G09G27G15
 -20086408.11648 -15638913.15547  22074953.3114   22074953.6784   22074955.1934
      2703.6674
  -3725337.52346  -2864150.65646  24876366.3204   24876366.6924   24876367.5614
     -3123.5034
 -17039171.18848 -13238517.69147  22262461.3874   22262461.5084   22262463.5104
      -109.2664
  -5117168.62547  -3927453.79446  25020572.7284   25020573.1544   25020575.2884
      3664.5994
 -10667725.04147  -8263244.62746  23131906.2764   23131905.6434   23131909.4764
      3416.2154
  -9954581.17047  -7533981.68346  24024374.5414   24024374.0784   24024374.0464
       796.9524
 -13975859.45548 -10880806.05046  23018559.2844   23018558.8094   23018559.8774
      -952.5364
 -30997275.29549 -24147402.65248  20069572.1394   20069571.8464   20069574.3544
      1198.3044
 -21573432.08349 -16770633.02048  20967346.6814   20967346.3454   20967349.3154
       550.7094
 -21572795.01149 -16787390.67848  21277418.3784   21277418.7354   21277420.4434
     -2281.9644
 10  1  5  1 16  0.0000000  0 10G12G28G17G30G26G22G18G09G27G15
 -20167350.74448 -15701985.32847  22059550.4294   22059550.9914   22059551.7724
      2692.5094
  -3631624.15047  -2791127.28346  24894199.6184   24894199.7134   24894201.2384
     -3124.9174
 -17035595.05848 -13235731.09347  22263141.9754   22263142.0874   22263143.5374
      -128.9214
  -5227061.72447  -4013084.76846  24999660.9734   24999661.5104   24999663.1544
      3661.4704
 -10770074.89847  -8342997.75146  23112429.3994   23112429.8884   23112432.0474
      3407.3484
  -9978219.28847  -7552400.99846  24019875.6714   24019877.5834   24019875.7844
       778.9094
 -13947023.94048 -10858336.82946  23024046.4254   23024045.7384   23024047.2724
      -969.8384
 -31033027.66149 -24175261.63648  20062768.5364   20062768.5974   20062770.7964
      1185.3484
 -21589841.24849 -16783419.38448  20964224.0644   20964223.8334   20964226.4204
       543.4274
 -21504106.30549 -16733867.01048  21290489.2714   21290489.6704   21290491.5214
     -2296.9584
 10  1  5  1 16 30.0000000  0 10G12G28G17G30G26G22G18G09G27G15
 -20247966.35848 -15764802.68147  22044210.0594   22044210.3844   22044211.7974
      2681.1484
  -3537886.69646  -2718085.11846  24912036.5254   24912034.9804   24912038.7604
     -3125.6014
 -17031441.18648 -13232494.30047  22263932.3374   22263932.9754   22263934.4124
      -148.6294
  -5336875.31747  -4098653.73246  24978764.2284   24978765.3014   24978766.7584
      3658.3784
 -10872168.79647  -8422551.44846  23093002.2684   23093001.0274   23093004.5454
      3398.4124
 -10001335.99347  -7570414.01446  24015476.1414   24015477.0574   24015478.5854
       761.1044
 -13917687.99148 -10835477.65946  23029628.9294   23029631.1984   23029630.0004
      -986.7434
 -31068407.35649 -24202830.22848  20056036.0414   20056035.8244   20056038.2954
      1172.5634
 -21606049.85949 -16796049.47148  20961139.5464   20961139.5264   20961142.3904
       536.3804
 -21434985.49949 -16680006.64648  21303642.5714   21303642.9274   21303645.1374
     -2311.7964
 10  1  5  1 17  0.0000000  0 10G12G28G17G30G26G22G18G09G27G15
 -20328249.94048 -15827361.30747  22028932.5714   22028932.4874   22028933.8514
      2671.0494
  -3444123.01747  -2645022.53646  24929879.1074   24929879.3324   24929881.9984
     -3125.5534
 -17026705.57148 -13228804.20447  22264833.7374   22264834.0324   22264835.6324
      -167.2694
  -5446604.05447  -4184156.61646  24957884.4024   24957883.6854   24957887.5774
      3656.4794
 -10973999.92847  -8501900.39546  23073624.0904   23073623.7374   23073626.2604
      3390.2104
 -10023926.40647  -7588016.93646  24011179.3024   24011179.8214   24011177.8284
       744.3524
 -13887849.14948 -10812226.63646  23035306.7894   23035306.7344   23035308.6864
     -1002.6784
 -31103408.93349 -24230104.18448  20049375.4734   20049375.0134   20049377.5454
      1160.6584
 -21622053.30549 -16808519.68948  20958094.3354   20958094.2184   20958096.9354
       530.1804
 -21365430.09049 -16625807.63248  21316878.7064   21316879.0184   21316880.6944
     -2325.6344
 10  1  5  1 17 30.0000000  0 10G12G28G17G30G26G22G18G09G27G15
 -20408196.57249 -15889657.38447  22013719.2384   22013719.4484   22013720.5824
      2659.6394
  -3350330.18247  -2571937.22946  24947727.5314   24947726.8004   24947730.5564
     -3126.5544
 -17021384.71548 -13224658.07247  22265846.2644   22265846.1344   22265847.9284
      -186.7604
  -5556242.67347  -4269589.26346  24937020.0654   24937019.8694   24937023.7834
      3653.2884
 -11075561.75647  -8581039.46146  23054297.6024   23054298.2054   23054299.5904
      3381.2474
 -10045986.44547  -7605206.55746  24006979.7504   24006979.8624   24006981.2154
       726.8544
 -13857505.52248 -10788582.25646  23041081.3074   23041080.7394   23041082.7554
     -1019.5234
 -31138027.84649 -24257079.95748  20042787.6884   20042787.7504   20042790.1514
      1147.9444
 -21637847.35349 -16820826.73848  20955088.8464   20955088.8494   20955091.4874
       523.3784
 -21295437.71249 -16571268.11848  21330197.8444   21330198.1204   21330199.7374
     -2339.9914
 10  1  5  1 18  0.0000000  0 10G12G28G17G30G26G22G18G09G27G15
 -20487818.41848 -15951700.36947  21998567.3324   21998567.4334   21998569.1354
      2648.6004
  -3256522.94347  -2498840.68646  24965578.8404   24965578.5294   24965579.0304
     -3127.1554
 -17015491.53048 -13220065.97547  22266967.5554   22266967.3814   22266969.4634
      -205.9814
  -5665802.85247  -4354960.80046  24916171.8604   24916172.5954   24916174.6444
      3650.6474
 -11176864.53147  -8659976.67446  23035020.1854   23035020.2574   23035021.5104
      3372.3384
 -10067528.96347  -7621992.94746  24002881.3234   24002880.6614   24002879.9854
       709.6184
 -13826671.72048 -10764555.93246  23046948.9784   23046948.7744   23046951.1384
     -1036.0514
 -31172276.41049 -24283767.14748  20036270.4234   20036270.1214   20036272.7164
      1135.3484
 -21653444.59449 -16832980.43048  20952120.9244   20952120.6494   20952123.6154
       516.5874
 -21225023.28849 -16516399.73448  21343597.0874   21343597.4484   21343599.1384
     -2354.2914
 10  1  5  1 18 30.0000000  0 10G12G28G17G30G26G22G18G09G27G15
 -20567107.20848 -16013483.83147  21983479.3024   21983479.4894   21983481.4834
      2637.1334
  -3162695.98047  -2425728.77445  24983432.7374   24983432.3714   24983435.7734
     -3128.0574
 -17009019.00348 -13215022.44347  22268199.4004   22268199.3454   22268201.8854
      -225.6724
  -5775276.66147  -4440265.02146  24895338.6514   24895339.9384   24895343.6724
      3647.4814
 -11277898.32347  -8738704.31746  23015794.0024   23015792.9394   23015796.7444
      3363.1074
 -10088546.33147  -7638370.12246  23998880.9924   23998881.7894   23998881.3714
       691.4814
 -13795342.38448 -10740143.50246  23052911.1844   23052909.8724   23052911.3094
     -1052.8184
 -31206146.32949 -24310159.29248  20029825.2594   20029825.0924   20029827.4314
      1122.5204
 -21668837.23049 -16844974.69248  20949191.5944   20949191.4134   20949194.1484
       509.4814
 -21154181.22649 -16461198.13248  21357077.8724   21357078.1994   21357079.7754
     -2368.7334
 10  1  5  1 19  0.0000000  0 10G12G28G17G30G26G22G18G09G27G15
 -20646059.88048 -16075005.38647  21968455.1124   21968455.2254   21968456.8774
      2626.3204
  -3068848.33147  -2352600.74145  25001291.5294   25001290.8104   25001295.4734
     -3128.0664
 -17001965.32748 -13209526.07047  22269541.4884   22269541.5934   22269543.6834
      -244.6094
  -5884660.49547  -4525499.12946  24874523.7504   24874523.8324   24874526.9414
      3644.6454
 -11378658.32547  -8817218.59546  22996619.7044   22996620.7144   22996623.1424
      3354.2694
 -10109036.24547  -7654336.29546  23994983.7464   23994981.1974   23994982.4864
       674.3254
 -13763517.30048 -10715344.77346  23058966.8104   23058965.4904   23058967.8704
     -1068.9744
 -31239634.88149 -24336254.26948  20023452.4644   20023452.3394   20023454.6454
      1110.1044
 -21684022.72149 -16856807.54148  20946301.9614   20946301.8694   20946304.3024
       502.8314
 -21082911.22349 -16405663.07248  21370639.9854   21370640.4904   21370642.4904
     -2382.6424
 10  1  5  1 19 30.0000000  0 10G12G28G17G30G26G22G18G09G27G15
 -20724679.87349 -16136267.70447  21953494.2674   21953494.7894   21953495.6004
      2614.5114
  -2974985.85847  -2279461.12945  25019153.1554   25019153.6564   25019156.2394
     -3129.4304
 -16994334.49348 -13203579.96347  22270993.7104   22270994.0494   22270995.6674
      -264.4474
  -5993957.52747  -4610665.60146  24853725.7614   24853726.0054   24853728.1724
      3641.1754
 -11479146.23147  -8895520.83246  22977497.8064   22977497.7714   22977500.4054
      3344.5214
 -10129002.61547  -7669894.49946  23991183.9584   23991182.9474   23991182.8644
       656.1624
 -13731202.77348 -10690164.65646  23065116.5564   23065115.8294   23065116.9554
     -1085.9044
 -31272745.48749 -24362054.73848  20017151.7604   20017151.6214   20017153.6834
      1096.7664
 -21699005.06149 -16868482.09148  20943450.8634   20943450.6994   20943453.5434
       495.4184
 -21011219.76649 -16349799.60148  21384282.4384   21384282.7224   21384284.7484
     -2397.4194
 10  1  5  1 20  0.0000000  0 10G12G28G17G30G26G22G18G09G27G15
 -20802962.13949 -16197266.86347  21938598.0064   21938597.8074   21938599.1784
      2604.1354
  -2881106.27447  -2206308.20745  25037017.6464   25037017.5934   25037016.9504
     -3129.4064
 -16986123.10248 -13197181.47147  22272556.3384   22272556.6304   22272558.4014
      -283.0744
  -6103162.63747  -4695760.45846  24832944.1734   24832945.2944   24832946.7044
      3639.2164
 -11579355.23147  -8973605.76646  22958428.9754   22958429.7584   22958430.5834
      3335.8014
 -10148441.36247  -7685041.56746  23987485.0024   23987484.4704   23987483.9884
       639.3984
 -13698396.38348 -10664601.28646  23071358.4334   23071357.7824   23071360.2224
     -1101.3894
 -31305472.99649 -24387556.69248  20010923.8254   20010923.5554   20010926.1024
      1084.8354
 -21713779.83849 -16879994.90248  20940639.3014   20940639.3084   20940641.9404
       489.3204
 -20939103.32649 -16293604.97548  21398005.7444   21398005.9854   21398008.0994
     -2410.6574
 10  1  5  1 20 30.0000000  0 10G12G28G17G30G26G22G18G09G27G15
 -20880910.68049 -16258005.97547  21923764.6104   21923764.6904   21923766.2164
      2592.6144
  -2787215.71047  -2133146.73545  25054884.7644   25054881.5844   25054888.3314
     -3129.4144
 -16977336.03648 -13190334.40147  22274228.5104   22274228.7794   22274230.0504
      -302.5584
  -6212279.29047  -4780786.39446  24812180.1834   24812182.1794   24812182.8824
      3635.5924
 -11679287.50847  -9051475.07146  22939412.0084   22939411.8874   22939415.5344
      3326.3994
 -10167357.41747  -7699781.36146  23983883.1754   23983884.3224   23983884.8384
       621.7614
 -13665104.87947 -10638659.89246  23077694.1244   23077693.6524   23077694.3294
     -1117.7764
 -31337821.74749 -24412763.51348  20004768.2474   20004768.1094   20004770.4834
      1071.9464
 -21728351.38349 -16891349.35448  20937866.4974   20937866.2434   20937869.1534
       482.1964
 -20866568.99049 -16237084.72048  21411808.8134   21411808.9734   21411810.8534
     -2424.8324
 10  1  5  1 21  0.0000000  0 10G12G28G17G30G26G22G18G09G27G15
 -20958518.12949 -16318479.29547  21908996.2324   21908996.3894   21908997.8114
      2580.8634
  -2693309.28946  -2059972.89045  25072754.2974   25072755.1714   25072755.5894
     -3130.5084
 -16967967.32848 -13183034.10247  22276011.1014   22276011.2364   22276013.4354
      -322.4524
  -6321299.78047  -4865737.37146  24791433.8464   24791434.9544   24791437.4574
      3631.9394
 -11778933.89447  -9129121.59046  22920450.2174   22920450.3444   22920452.9274
      3316.3884
 -10185743.98147  -7714108.54646  23980384.7674   23980385.9734   23980385.0294
       603.5204
 -13631323.61547 -10612336.85646  23084122.7984   23084121.9854   23084124.3174
     -1134.5754
 -31369784.22649 -24437669.34348  19998685.8254   19998685.5804   19998688.4984
      1058.6894
 -21742712.84649 -16902540.10648  20935133.5944   20935133.5924   20935136.2544
       474.8304
 -20793612.11549 -16180235.20948  21425692.0214   21425692.2754   21425694.1374
     -2439.3394
 10  1  5  1 21 30.0000000  0 10G12G28G17G30G26G22G18G09G27G15
 -21035787.05849 -16378688.84347  21894292.2544   21894292.3824   21894294.0014
      2570.2054
  -2599391.80346  -1986790.43445  25090626.1664   25090625.4124   25090627.7954
     -3130.6344
 -16958020.33048 -13175283.19247  22277904.0594   22277904.3554   22277905.6534
      -340.9114
  -6430226.24547  -4950615.11046  24770707.0984   24770706.9764   24770710.8624
      3629.0704
 -11878295.02747  -9206545.82846  22901542.3184   22901542.4774   22901543.8434
      3307.5234
 -10203604.34647  -7728025.74746  23976987.8664   23976987.0634   23976986.9354
       587.0024
 -13597058.34748 -10585636.69046  23090643.2374   23090642.3174   23090644.9534
     -1149.8874
 -31401363.15349 -24462276.29848  19992676.4754   19992676.5704   19992678.7224
      1046.4354
 -21756867.05349 -16913569.35848  20932439.9684   20932440.0334   20932442.4634
       468.5504
 -20720237.77249 -16123060.40448  21439654.5764   21439654.9924   21439656.9774
     -2452.4714
 10  1  5  1 22  0.0000000  0 10G12G28G17G30G26G22G18G09G27G15
 -21112715.19349 -16438632.82847  21879653.7074   21879653.5894   21879655.2114
      2558.1914
  -2505463.63846  -1913599.67145  25108500.2124   25108498.2064   25108500.7194
     -3131.3794
 -16947494.31048 -13167081.09047  22279907.0214   22279907.3544   22279909.3884
      -360.6664
  -6539056.19647  -5035417.63446  24749996.6794   24749997.1544   24750000.4334
      3626.0244
 -11977367.03347  -9283744.78646  22882689.1814   22882688.4884   22882691.1674
      3297.2044
 -10220937.07247  -7741531.76246  23973691.6524   23973688.0594   23973687.6744
       568.9294
 -13562309.65047 -10558559.82746  23097256.0084   23097256.1504   23097257.9534
     -1166.6574
 -31432556.41849 -24486582.73848  19986740.7824   19986740.4094   19986743.0184
      1033.0254
 -21770812.43349 -16924435.89048  20929786.4804   20929786.1894   20929788.9114
       460.9404
 -20646446.76049 -16065560.92048  21453696.5724   21453696.5234   21453698.6504
     -2466.9474
 10  1  5  1 22 30.0000000  0 10G12G28G17G30G26G22G18G09G27G15
 -21189300.33549 -16498309.53548  21865079.9814   21865079.9064   21865081.6874
      2546.8104
  -2411524.58946  -1840400.42145  25126376.3334   25126378.1914   25126382.0974
     -3131.9054
 -16936388.07648 -13158426.87647  22282020.5454   22282020.5384   22282022.2444
      -380.3134
  -6647786.66747  -5120142.62746  24729305.7844   24729305.1544   24729309.3404
      3622.1044
 -12076145.68647  -9360715.16246  22863892.1164   22863892.0194   22863895.0414
      3287.2294
 -10237740.39947  -7754625.27346  23970490.8894   23970491.4044   23970490.9354
       550.6304
 -13527078.08848 -10531106.68346  23103960.2394   23103958.4184   23103960.5644
     -1182.8294
 -31463361.62849 -24510586.79848  19980878.8234   19980878.6854   19980880.9044
      1019.9144
 -21784546.88449 -16935138.06048  20927172.8264   20927172.5564   20927175.4134
       453.8274
 -20572239.20949 -16007736.86048  21467817.5874   21467818.2394   21467819.9574
     -2480.9924
 10  1  5  1 23  0.0000000  0 10G12G28G17G30G26G22G18G09G27G15
 -21265546.02349 -16557721.74148  21850571.0064   21850570.9664   21850572.5334
      2535.8454
  -2317580.88846  -1767197.57745  25144253.6294   25144254.0654   25144256.8734
     -3131.9004
 -16924706.68048 -13149324.48447  22284243.5544   22284243.8564   22284245.1524
      -398.9794
  -6756421.47547  -5204793.08346  24708633.9694   24708633.4084   24708637.1024
      3619.3664
 -12174632.78547  -9437458.34546  22845151.2794   22845150.8874   22845153.7064
      3277.9684
 -10254019.08247  -7767309.97946  23967394.1124   23967392.8824   23967394.6404
       533.9274
 -13491369.87047 -10503282.11646  23110754.7934   23110756.4534   23110756.1834
     -1198.1924
 -31493782.35849 -24534291.26548  19975089.8514   19975089.7054   19975092.1734
      1007.5844
 -21798074.79449 -16945679.29048  20924598.5484   20924598.7034   20924601.2114
       447.4244
 -20497621.41049 -15949593.12648  21482017.1144   21482017.3994   21482019.2034
     -2494.1014
 10  1  5  1 23 30.0000000  0 10G12G28G17G30G26G22G18G09G27G15
 -21341447.99549 -16616866.12348  21836127.0604   21836127.2854   21836128.8434
      2524.6204
  -2223630.17046  -1693989.25345  25162131.4444   25162132.7044   25162132.5374
     -3130.9884
 -16912446.51548 -13139771.10947  22286576.6304   22286576.9284   22286578.2354
      -417.8854
  -6864955.63447  -5289365.12146  24687979.5554   24687980.2514   24687982.9224
      3616.1524
 -12272821.76048  -9513969.22346  22826466.4234   22826466.8684   22826468.8284
      3268.4024
 -10269768.86847  -7779582.54046  23964395.8074   23964396.1024   23964395.3544
       516.7604
 -13455183.35548 -10475084.85446  23117641.5544   23117640.3994   23117642.6154
     -1213.7914
 -31523814.32249 -24557692.79648  19969374.9494   19969374.9004   19969377.4214
       994.9334
 -21811391.83649 -16956056.20948  20922064.4364   20922064.3664   20922067.0244
       440.7754
 -20422591.66649 -15891128.39948  21496294.8904   21496295.0364   21496297.2934
     -2507.5444
 10  1  5  1 24  0.0000000  0 10G12G28G17G30G26G22G18G09G27G15
 -21417007.10049 -16675743.32948  21821748.6984   21821748.9974   21821750.2094
      2512.6514
  -2129675.92946  -1620778.16645  25180010.7764   25180011.9714   25180011.8254
     -3131.2904
 -16899610.40948 -13129768.94647  22289018.9164   22289018.8794   22289021.0334
      -437.5834
  -6973389.94147  -5373859.35046  24667345.9144   24667347.0164   24667346.6854
      3612.6034
 -12370711.90747  -9590247.24546  22807838.7004   22807837.9364   22807840.8784
      3257.8604
 -10284992.45247  -7791445.08046  23961498.9324   23961498.7644   23961497.7054
       498.7994
 -13418522.71147 -10446518.15146  23124617.1704   23124616.4664   23124618.4234
     -1230.2644
 -31553458.91149 -24580792.47348  19963733.8214   19963733.6014   19963735.9554
       981.4474
 -21824499.60949 -16966270.05648  20919570.0404   20919569.8054   20919572.6584
       433.1134
 -20347153.53749 -15832345.44748  21510650.2834   21510650.4294   21510652.7294
     -2521.5224
 10  1  5  1 24 30.0000000  0 10G12G28G17G30G26G22G18G09G27G15
 -21492218.55449 -16734349.64348  21807436.2474   21807436.6274   21807437.8454
      2500.8134
  -3611135.38656  -2775162.21055  25197888.1094   25197889.7194   25197893.6034
     -3129.7934
 -16886194.43548 -13119314.93547  22291571.9954   22291571.9484   22291573.9724
      -457.3024
  -7081719.37547  -5458271.88346  24646731.5694   24646730.6824   24646733.4094
      3608.6784
 -12468296.62648  -9666287.28546  22789269.0204   22789268.5074   22789270.8724
      3247.4254
 -10299685.22247  -7802894.00146  23958702.4674   23958703.9724   23958703.1384
       480.6624
 -13381385.91348 -10417580.38446  23131684.1854   23131684.1614   23131684.4264
     -1246.3504
 -31582710.90949 -24603586.23748  19958167.2154   19958167.1574   19958169.7064
       968.0234
 -21837393.55749 -16976317.28848  20917116.3594   20917116.0524   20917118.9154
       425.8834
 -20271304.83049 -15773242.56648  21525083.6754   21525084.0424   21525086.0204
     -2535.5044
 10  1  5  1 25  0.0000000  0 10G12G28G17G30G26G22G18G09G27G15
 -21567094.47149 -16792694.49948  21793187.9674   21793188.2554   21793189.7834
      2489.9504
  -3517183.27346  -2701952.80145  25215770.0414   25215768.8984   25215772.4904
     -3131.5644
 -16872212.12448 -13108419.62247  22294232.7584   22294233.1794   22294234.9534
      -475.8384
  -7189955.36747  -5542611.61046  24626134.3054   24626134.2554   24626136.8814
      3605.8034
 -12565586.17147  -9742097.30846  22770755.0334   22770754.6464   22770757.1744
      3237.7294
 -10313860.61847  -7813939.76646  23956005.2764   23956005.4854   23956004.8474
       463.7234
 -13343787.99948 -10388283.32346  23138839.5664   23138839.0144   23138839.8224
     -1261.0284
 -31611582.53349 -24626083.60848  19952673.0794   19952672.9334   19952675.2904
       955.8104
 -21850086.17249 -16986207.64248  20914701.1244   20914701.2054   20914703.7224
       419.4944
 -20195060.83349 -15713831.66848  21539592.6864   21539592.8784   21539594.5094
     -2548.2814
 10  1  5  1 25 30.0000000  0 10G12G28G17G30G26G22G18G09G27G15
 -21641614.82049 -16850762.28348  21779007.1754   21779007.5744   21779009.3054
      2477.9444
  -3423221.33146  -2628735.73045  25233649.0784   25233647.2644   25233650.8954
     -3131.9544
 -16857644.43248 -13097068.16647  22297004.7704   22297004.7224   22297006.8064
      -495.5394
  -7298077.37147  -5626862.48046  24605560.2024   24605561.6904   24605561.8044
      3602.1394
 -12662558.08748  -9817659.82846  22752302.0354   22752302.2644   22752305.0534
      3227.0774
 -10327498.99947  -7824567.07546  23953410.5774   23953409.5174   23953410.4744
       445.7054
 -13305711.73448 -10358613.52646  23146084.8624   23146084.5814   23146085.7384
     -1277.4274
 -31640053.62949 -24648268.87748  19947255.1544   19947255.2494   19947257.5754
       942.2524
 -21862557.46249 -16995925.52848  20912327.7334   20912327.5134   20912330.3804
       411.7684
 -20118403.51049 -15654098.69348  21554179.6874   21554180.1734   21554181.9554
     -2562.3404
 10  1  5  1 26  0.0000000  0 10G12G28G17G30G26G22G18G09G27G15
 -21715785.27449 -16908557.42748  21764893.0074   21764893.5584   21764894.8824
      2466.4154
  -3329258.22046  -2555517.73145  25251530.3774   25251529.1704   25251531.4514
     -3132.2704
 -16842498.73748 -13085266.31747  22299886.9334   22299886.8844   22299889.1714
      -514.6794
  -7406091.14547  -5711029.03946  24585005.0974   24585005.7154   24585009.3394
      3598.4534
 -12759216.67348  -9892978.20147  22733908.8334   22733908.4334   22733911.7174
      3216.5084
 -10340607.15247  -7834781.21446  23950915.1564   23950916.8594   23950916.1834
       427.8734
 -13267165.73647 -10328577.70546  23153419.2804   23153418.4674   23153421.1124
     -1292.6834
 -31668129.84749 -24670146.44948  19941912.6574   19941912.2724   19941915.0484
       929.1794
 -21874813.76149 -17005475.89448  20909995.8134   20909995.4834   20909998.0604
       404.7304
 -20041341.38649 -15594050.29148  21568844.5204   21568844.6614   21568846.5814
     -2575.3924
 10  1  5  1 26 30.0000000  0 10G12G28G17G30G26G22G18G09G27G15
 -21789607.95849 -16966081.58848  21750845.1374   21750845.4124   21750846.8644
      2455.1404
  -3235297.73646  -2482301.78045  25269410.1434   25269410.6044   25269413.4204
     -3132.1934
 -16826778.43148 -13073016.72347  22302878.3584   22302878.4364   22302880.5694
      -533.4374
  -7513998.29947  -5795112.53146  24564471.3554   24564471.7314   24564474.1414
      3595.3964
 -12855562.27248  -9968052.69347  22715574.7454   22715575.7294   22715576.7084
      3206.3424
 -10353188.12347  -7844584.57346  23948521.9474   23948521.6944   23948521.9344
       410.6444
 -13228155.49748 -10298180.16046  23160843.5224   23160843.8624   23160845.7884
     -1308.0024
 -31695813.74549 -24691718.31648  19936644.4354   19936644.4344   19936646.8684
       916.3604
 -21886857.72549 -17014860.80348  20907703.7474   20907703.6814   20907706.3394
       398.1264
 -19963879.66249 -15533690.51248  21583584.8244   21583585.0624   21583586.9534
     -2588.6584
 10  1  5  1 27  0.0000000  0 10G12G28G17G30G26G22G18G09G27G15
 -21863080.98149 -17023333.28548  21736863.8944   21736864.1174   21736865.5094
      2443.2834
  -3141339.95146  -2409087.93145  25287289.4824   25287287.4494   25287290.0844
     -3132.2524
 -16810482.74348 -13060318.78047  22305979.4744   22305979.7284   22305981.1164
      -553.2684
  -7621796.23247  -5879110.90646  24543958.4114   24543958.7534   24543960.3824
      3591.1814
 -12951590.56148 -10042879.91847  22697301.1444   22697300.1524   22697303.4304
      3195.4024
 -10365240.66747  -7853976.15046  23946230.4694   23946227.9844   23946227.2694
       392.2044
 -13188681.39048 -10267421.15346  23168354.9754   23168355.4354   23168355.8594
     -1323.6414
 -31723102.99349 -24712982.66248  19931451.5484   19931451.3574   19931453.8954
       903.0114
 -21898687.40149 -17024078.73248  20905452.6094   20905452.4604   20905455.0944
       390.8404
 -19886018.97249 -15473019.84948  21598401.2414   21598401.9524   21598403.3914
     -2602.2034
 10  1  5  1 27 30.0000000  0 10G12G28G17G30G26G22G18G09G27G15
 -21936204.77749 -17080312.84848  21722948.4474   21722948.5344   21722950.3774
      2431.5604
  -3047387.45047  -2335878.19246  25305168.8354   25305167.7194   25305169.6834
     -3132.1844
 -16793613.42848 -13047173.84947  22309189.2064   22309189.6814   22309191.6424
      -571.7974
  -7729484.91147  -5963024.15046  24523465.2554   24523466.1904   24523467.8454
      3587.6994
 -13047299.86548 -10117458.58847  22679087.9424   22679089.1454   22679091.0354
      3184.9224
 -10376766.12247  -7862957.04546  23944037.3674   23944034.5154   23944035.1414
       375.1804
 -13148746.69848 -10236303.24346  23175954.3014   23175953.8904   23175956.2184
     -1339.0084
 -31749998.08549 -24733939.87648  19926333.6274   19926333.5874   19926336.0784
       889.8184
 -21910303.54249 -17033130.27348  20903241.9254   20903242.0274   20903244.6374
       383.4974
 -19807761.94749 -15412040.35448  21613293.3664   21613293.5484   21613295.4744
     -2615.2714
 10  1  5  1 28  0.0000000  0 10G12G28G17G30G26G22G18G09G27G15
 -22008975.41949 -17137017.23448  21709100.6614   21709100.8224   21709102.3954
      2420.3924
  -2953438.77746  -2262671.44646  25323045.9134   25323046.4054   25323047.4674
     -3131.2354
 -16776168.10148 -13033580.08247  22312509.3124   22312509.1764   22312511.3284
      -590.6124
  -7837060.01247  -6046848.89446  24502994.7234   24502995.0464   24502995.6794
      3584.4544
 -13142684.46648 -10191784.24247  22660937.2134   22660938.0234   22660939.6354
      3174.5504
 -10387761.69347  -7871525.02746  23941942.9584   23941942.2694   23941943.2754
       358.3584
 -13108350.74547 -10204825.90946  23183641.9024   23183642.0134   23183641.7414
     -1353.6914
 -31776494.88849 -24754586.73648  19921291.6904   19921291.3594   19921293.7454
       877.0304
 -21921702.37149 -17042012.47948  20901072.9134   20901072.7194   20901075.5164
       376.7884
 -19729107.55049 -15350751.21348  21628260.4804   21628260.6494   21628262.5614
     -2627.9594
 10  1  5  1 28 30.0000000  0 10G12G28G17G30G26G22G18G09G27G15
 -22081394.47749 -17193447.65748  21695319.9674   21695319.9744   21695321.3894
      2408.1544
  -2859497.55246  -2189470.48146  25340921.8134   25340922.6624   25340924.2904
     -3130.8534
 -16758149.51148 -13019539.62047  22315938.1704   22315937.9354   22315940.1164
      -609.9734
  -7944522.79547  -6130586.14146  24482544.8074   24482544.5454   24482549.2664
      3580.1494
 -13237743.98048 -10265856.59247  22642847.5734   22642848.3004   22642850.2404
      3163.3274
 -10398229.62147  -7879681.85846  23939952.6504   23939951.2154   23939952.0484
       340.4564
 -13067497.78647 -10172992.47846  23191415.3794   23191413.5244   23191417.0354
     -1369.3474
 -31802594.71349 -24774924.26248  19916324.8844   19916324.6294   19916327.1064
       863.4514
 -21932885.84349 -17050726.88048  20898944.9974   20898944.5494   20898947.1294
       369.1424
 -19650059.80449 -15289155.57448  21643302.9234   21643303.2514   21643305.1914
     -2641.4104
 10  1  5  1 29  0.0000000  0 10G12G28G17G30G26G22G18G09G27G15
 -22153460.42349 -17249602.91848  21681606.0334   21681606.4164   21681607.8044
      2395.9604
  -2765564.55547  -2116275.94546  25358797.4904   25358796.2414   25358800.0134
     -3131.6424
 -16739557.85648 -13005052.60947  22319476.0734   22319476.3744   22319477.6254
      -629.7134
  -8051871.19947  -6214234.23046  24462117.4864   24462118.5924   24462120.4714
      3575.7564
 -13332474.93348 -10339672.91447  22624820.8864   22624821.1264   22624823.4824
      3151.7484
 -10408169.44047  -7887427.16646  23938057.9274   23938059.3274   23938059.9124
       322.4434
 -13026189.52847 -10140804.24246  23199276.2954   23199275.8374   23199276.7904
     -1384.8294
 -31828296.60049 -24794951.70548  19911433.8504   19911433.6764   19911436.4104
       849.6384
 -21943852.82049 -17059272.57548  20896857.8974   20896857.8404   20896860.4214
       361.3314
 -19570620.32849 -15227254.68848  21658419.4424   21658420.0914   21658421.9524
     -2654.9424
 10  1  5  1 29 30.0000000  0 10G12G28G17G30G26G22G18G09G27G15
 -22225169.72249 -17305480.27748  21667960.2484   21667960.5244   21667961.7564
      2384.8744
  -2671638.26147  -2043086.63146  25376670.7004   25376670.8994   25376673.0344
     -3130.2454
 -16720390.78148 -12990117.21947  22323123.3964   22323124.1554   22323125.3804
      -647.7694
  -8159101.57647  -6297790.34646  24441712.4404   24441712.7614   24441713.6934
      3573.2034
 -13426871.89148 -10413228.98347  22606857.5004   22606857.4854   22606860.6004
      3141.6374
 -10417578.95947  -7894759.25646  23936269.1844   23936268.0044   23936269.0684
       305.5454
 -12984425.71447 -10108261.02846  23207223.8754   23207222.6964   23207224.4414
     -1398.9444
 -31853596.95449 -24814666.26448  19906619.4244   19906619.4924   19906621.7344
       837.2294
 -21954600.11249 -17067647.09148  20894812.7874   20894812.6884   20894815.2764
       355.1724
 -19490788.65749 -15165048.19648  21673611.3004   21673611.5284   21673613.6804
     -2666.9254
 10  1  5  1 30  0.0000000  0 10G12G28G17G30G26G22G18G09G27G15
 -22296527.45649 -17361083.69248  21654381.3854   21654381.6484   21654383.1014
      2373.0244
  -2577725.59147  -1969907.92845  25394541.3674   25394540.5534   25394542.3014
     -3129.0324
 -16700654.74648 -12974738.48447  22326879.0174   22326879.0464   22326880.8544
      -666.9714
  -8266218.30947  -6381257.91346  24421329.0274   24421328.6404   24421331.1944
      3568.7284
 -13520937.73648 -10486527.03547  22588957.2004   22588958.4654   22588960.9514
      3130.2324
 -10426463.67247  -7901682.40746  23934578.0444   23934577.5184   23934577.9794
       287.3744
 -12942213.91547 -10075368.74846  23215256.5054   23215255.7374   23215258.3414
     -1414.1184
 -31878500.61649 -24834071.71548  19901880.5264   19901880.3894   19901882.6994
       823.8244
 -21965132.77649 -17075854.36548  20892808.5514   20892808.3734   20892810.9234
       347.7784
 -19410571.95349 -15102541.68148  21688875.8554   21688876.5454   21688877.9514
     -2680.0004
 10  1  5  1 30 30.0000000  0 10G12G28G17G30G26G22G18G09G27G15
 -22367528.45749 -17416409.14148  21640870.3034   21640870.5284   21640871.9744
      2360.7704
  -2483823.57047  -1896737.55745  25412411.4644   25412412.3164   25412413.5464
     -3129.6954
 -16680345.73148 -12958913.27547  22330743.7314   22330743.9974   22330745.8304
      -686.3954
  -8373215.58847  -6464632.40546  24400967.4624   24400967.9154   24400970.0374
      3564.5134
 -13614664.94448 -10559561.22247  22571121.7884   22571121.8134   22571125.8044
      3118.7164
 -10434819.15847  -7908193.18846  23932986.9604   23932989.1404   23932988.9524
       269.7424
 -12899551.65647 -10042125.44746  23223373.8634   23223372.3434   23223376.8354
     -1429.6164
 -31903001.89449 -24853163.61848  19897217.8374   19897217.6014   19897220.2414
       810.0854
 -21975445.63349 -17083890.36048  20890845.9904   20890845.8004   20890848.5374
       340.1004
 -19329967.55949 -15039733.06948  21704214.3604   21704214.8644   21704216.6984
     -2693.2104
 10  1  5  1 31  0.0000000  0 10G12G28G17G30G26G22G18G09G27G15
 -22438172.56749 -17471456.48248  21627427.2424   21627427.4114   21627428.9394
      2348.8974
  -2389934.11447  -1823576.91045  25430277.3164   25430278.6794   25430279.4554
     -3129.4264
 -16659465.55048 -12942642.99647  22334716.9134   22334717.0264   22334718.6404
      -705.4174
  -8480093.22647  -6547913.64946  24380629.6644   24380630.0564   24380632.3954
      3560.8244
 -13708051.86048 -10632330.24747  22553350.9064   22553351.2754   22553352.9604
      3107.2944
 -10442646.92147  -7914292.73846  23931499.9744   23931497.5274   23931498.9444
       252.1904
 -12856442.61347 -10008534.00946  23231578.5414   23231577.1994   23231578.1454
     -1444.3244
 -31927100.93049 -24871942.08648  19892632.0344   19892631.9404   19892634.2354
       796.6904
 -21985539.22149 -17091755.49648  20888925.2844   20888924.9024   20888927.8214
       332.9034
 -19248977.92049 -14976624.26448  21719626.0344   21719626.5424   21719628.2654
     -2705.9704
 10  1  5  1 31 30.0000000  0 10G12G28G17G30G26G22G18G09G27G15
 -22508459.70149 -17526225.65548  21614052.2464   21614052.2304   21614053.7314
      2336.4884
  -2296059.08646  -1750427.53145  25448141.1494   25448141.1944   25448142.1154
     -3129.6294
 -16638015.32048 -12925928.52347  22338798.5104   22338798.8114   22338800.3944
      -724.8154
  -8586850.44447  -6631101.07346  24360314.2444   24360314.1884   24360318.2874
      3556.2144
 -13801096.06148 -10704832.21747  22535645.0574   22535645.8434   22535647.4474
      3095.1994
 -10449947.42147  -7919981.45246  23930109.4964   23930109.6374   23930108.8994
       233.8774
 -12812888.97347  -9974596.10946  23239866.0204   23239864.9944   23239868.1404
     -1459.5734
 -31950797.57149 -24890407.00248  19888122.8364   19888122.5814   19888125.0134
       782.6254
 -21995413.32849 -17099449.60848  20887046.3634   20887046.1624   20887049.0064
       325.0084
 -19167606.13449 -14913217.68348  21735110.7494   21735110.7064   21735112.9304
     -2719.3844
 10  1  5  1 32  0.0000000  0 10G12G28G17G30G26G22G18G09G27G15
 -22578387.47549 -17580714.80248  21600745.1994   21600745.4604   21600746.9134
      2324.8224
  -2202198.41547  -1677289.34445  25466002.6114   25466001.7304   25466007.3234
     -3128.2564
 -16615994.35548 -12908769.32347  22342989.3094   22342989.4924   22342991.2804
      -743.4594
  -8693484.50047  -6714192.54146  24340022.4724   24340021.7974   24340025.2074
      3552.4854
 -13893793.24148 -10777063.78247  22518005.7964   22518005.8894   22518009.1134
      3083.9714
 -10456719.88247  -7925258.69146  23928820.8844   23928820.9604   23928820.8254
       217.1344
 -12768891.82847  -9940312.62946  23248237.9684   23248237.9264   23248239.5934
     -1473.7804
 -31974089.70549 -24908556.71548  19883690.2744   19883689.9974   19883692.6674
       769.6364
 -22005065.92049 -17106971.11048  20885209.4444   20885209.3704   20885211.8304
       318.1674
 -19085852.61849 -14849513.65248  21750667.9414   21750668.2824   21750670.0354
     -2731.3704
 10  1  5  1 32 30.0000000  0 10G12G28G17G30G26G22G18G09G27G15
 -22647954.80849 -17634923.09948  21587506.8624   21587507.1784   21587508.6014
      2313.2934
  -2108352.70446  -1604162.81445  25483861.2164   25483860.1234   25483862.0514
     -3127.2164
 -16593402.89848 -12891165.58147  22347288.4804   22347288.6264   22347290.5274
      -761.9484
  -8799993.78047  -6797186.76446  24319754.2794   24319754.5794   24319758.3054
      3548.5034
 -13986140.16748 -10849022.42947  22500432.9454   22500434.0954   22500434.1804
      3072.8944
 -10462963.60247  -7930123.94346  23927632.0344   23927631.9954   23927630.9154
       199.7814
 -12724452.78947  -9905684.82746  23256695.1964   23256694.4874   23256696.0814
     -1488.1284
 -31996975.75649 -24926390.00248  19879335.2134   19879335.1884   19879337.5264
       756.6724
 -22014496.00149 -17114319.23148  20883415.0404   20883414.7674   20883417.6094
       311.3094
 -19003718.73249 -14785513.23348  21766297.4254   21766297.8694   21766299.7114
     -2743.5054
 10  1  5  1 33  0.0000000  0 10G12G28G17G30G26G22G18G09G27G15
 -22717165.11249 -17688853.19548  21574336.6224   21574336.6784   21574338.1054
      2301.3294
  -2014527.29946  -1531052.10645  25501715.3364   25501716.3964   25501719.6324
     -3127.1504
 -16570245.89348 -12873121.15847  22351694.8014   22351695.2744   22351697.0714
      -781.1894
  -8906381.00547  -6880085.90546  24299509.8314   24299509.0614   24299513.4874
      3544.4384
 -14078138.32448 -10920709.30547  22482926.0654   22482925.7274   22482927.8684
      3060.7874
 -10468683.23547  -7934580.81546  23926543.6914   23926544.1664   23926543.2904
       182.0594
 -12679578.00347  -9870717.48946  23265234.0944   23265234.0164   23265234.3804
     -1503.0094
 -32019458.88149 -24943909.31948  19875056.8614   19875056.9334   19875059.2524
       742.7584
 -22023706.96049 -17121496.60448  20881662.1414   20881661.9814   20881664.4874
       303.3224
 -18921210.61949 -14721221.20448  21781998.3124   21781998.3814   21782000.4414
     -2756.6064
 10  1  5  1 33 30.0000000  0 10G12G28G17G30G26G22G18G09G27G15
 -22786015.87349 -17742503.12848  21561234.7694   21561234.7594   21561236.4784
      2288.7814
  -1920721.36346  -1457956.54945  25519565.4254   25519565.9034   25519565.1704
     -3126.7784
 -16546521.71448 -12854634.77747  22356209.4434   22356209.8154   22356211.6724
      -800.5364
  -9012643.21347  -6962887.60946  24279288.4144   24279288.3494   24279291.8274
      3539.6754
 -14169782.57448 -10992120.41447  22465486.6984   22465487.0604   22465489.1434
      3048.6974
 -10473877.10847  -7938628.02546  23925557.1424   23925554.9354   23925555.1214
       164.4224
 -12634268.14547  -9835411.13846  23273856.5054   23273855.6164   23273857.1704
     -1517.7634
 -32041536.59849 -24961112.73548  19870855.6304   19870855.4504   19870857.7864
       729.0254
 -22032696.31049 -17128501.29348  20879951.6464   20879951.2464   20879954.1484
       295.7944
 -18838327.96449 -14656637.32648  21797770.0174   21797770.6214   21797772.7534
     -2769.1694
 10  1  5  1 34  0.0000000  0 10G12G28G17G30G26G22G18G09G27G15
 -22854503.55249 -17795870.13348  21548202.0694   21548202.1314   21548203.6954
      2276.8414
  -1826933.71946  -1384875.30045  25537414.2334   25537412.0254   25537412.7454
     -3125.3584
 -16522228.66748 -12835705.11947  22360832.2834   22360832.0804   22360834.6184
      -819.1734
  -9118776.13647  -7045588.58246  24259091.6724   24259092.1664   24259094.9904
      3535.6944
 -14261067.40348 -11063251.45147  22448115.4984   22448114.8664   22448117.9574
      3036.8834
 -10478542.69347  -7942263.53546  23924665.6754   23924668.2864   23924668.0174
       147.0034
 -12588522.85447  -9799765.49546  23282561.6534   23282561.2914   23282562.0004
     -1532.0214
 -32063205.14949 -24977997.32348  19866732.2334   19866732.1494   19866734.3264
       715.5034
 -22041460.79849 -17135330.76748  20878283.7444   20878283.4454   20878286.5474
       288.3824
 -18755070.29349 -14591761.22448  21813613.5734   21813614.1174   21813615.5814
     -2781.4314
 10  1  5  1 34 30.0000000  0 10G12G28G17G30G26G22G18G09G27G15
 -22922628.79949 -17848954.73448  21535238.2534   21535238.4024   21535239.7694
      2264.6964
  -1733166.87646  -1311810.19845  25555255.8564   25555255.4204   25555255.6594
     -3125.3714
 -16497369.56448 -12816334.38047  22365562.8434   22365562.8774   22365565.0754
      -838.0634
  -9224780.27647  -7128189.20946  24238919.8654   24238921.3854   24238923.5014
      3531.3024
 -14351991.68248 -11134101.54947  22430813.3564   22430812.9364   22430816.2694
      3024.5784
 -10482682.01647  -7945489.00046  23923880.1524   23923879.5384   23923879.6384
       128.9694
 -12542345.78547  -9763783.37746  23291348.3204   23291348.1524   23291351.0134
     -1546.5044
 -32084465.37949 -24994563.73648  19862686.4804   19862686.1724   19862688.6454
       701.8054
 -22050001.24349 -17141985.66448  20876658.5224   20876658.4614   20876661.3174
       280.8974
 -18671441.17149 -14526595.68048  21829527.6964   21829528.0554   21829530.0294
     -2793.9234
 10  1  5  1 35  0.0000000  0 11G12G28G17G30G26G22G18G14G09G27G15
 -22990389.45349 -17901755.22548  21522343.7214   21522343.9164   21522345.4434
      2252.9004
  -1639420.40746  -1238761.06345  25573094.9344   25573096.5164   25573092.7594
     -3124.5794
 -16471943.06748 -12796521.51747  22370400.8474   22370401.0494   22370403.2544
      -856.7994
  -9330652.84947  -7210687.30246  24218772.6694   24218774.1684   24218776.5584
      3526.9704
 -14442550.99948 -11204667.24647  22413580.5784   22413580.0284   22413583.6224
      3012.8384
 -10486294.12947  -7948303.65046  23923192.6964   23923192.7214   23923193.8304
       111.7734
 -12495737.77747  -9727465.48846  23300218.0014   23300216.8694   23300219.1824
     -1560.5494
  -1224945.76146   -901418.38445  25476018.2414   25476018.0824   25476019.9584
      3600.4134
 -32105315.01049 -25010810.20348  19858719.1204   19858718.9084   19858721.3554
       688.3114
 -22058315.60249 -17148464.38848  20875076.4664   20875076.3474   20875078.7424
       273.4274
 -18587441.15849 -14461141.13148  21845512.3554   21845512.9534   21845514.7104
     -2805.9254
 10  1  5  1 35 30.0000000  0 11G12G28G17G30G26G22G18G14G09G27G15
 -23057791.44949 -17954276.24848  21509517.4764   21509517.6294   21509519.0974
      2240.7944
  -1545702.20246  -1165733.84145  25590930.0744   25590931.3584   25590933.1424
     -3123.2204
 -16445956.82448 -12776272.49047  22375346.1674   22375346.4414   22375348.3654
      -875.6934
  -9436399.42547  -7293087.23846  24198649.9524   24198650.8764   24198653.4414
      3522.7754
 -14532749.11048 -11274951.48547  22396416.3434   22396416.0514   22396417.7584
      3000.6604
 -10489385.61147  -7950712.61646  23922606.2514   23922604.4764   23922604.5164
        94.4264
 -12448707.87047  -9690818.83546  23309167.1634   23309168.3124   23309168.8994
     -1574.8684
  -1332934.45347   -985565.41145  25455468.4774   25455468.2274   25455471.7624
      3598.6764
 -32125759.64949 -25026741.09048  19854828.4094   19854828.3374   19854830.8904
       674.7854
 -22066409.74849 -17154771.51748  20873536.0904   20873535.9284   20873538.9184
       266.1324
 -18503078.23048 -14395403.79248  21861566.1994   21861566.7664   21861568.3434
     -2818.0364
 10  1  5  1 36  0.0000000  0 11G12G28G17G30G26G22G18G14G09G27G15
 -23124826.24149 -18006511.12748  21496761.3574   21496761.3114   21496762.9974
      2228.3794
  -1452005.561 6  -1092723.51845  25608758.703                    25608762.0384
     -3123.324
 -16419404.31348 -12755582.21247  22380399.0484   22380399.2834   22380400.9394
      -894.4344
  -9542011.18747  -7375382.10246  24178553.0804   24178552.3724   24178556.1924
      3518.4154
 -14622575.58248 -11344946.13947  22379322.9784   22379322.6074   22379325.0894
      2988.1894
 -10491949.49147  -7952710.45246  23922114.6794   23922116.1504   23922116.0454
        76.4894
 -12401250.32747  -9653838.98846  23318197.7214   23318197.9874   23318200.2594
     -1589.1394
  -1440864.64446  -1069666.83445  25434929.8864   25434929.2684   25434929.0724
      3597.0934
 -32145790.80249 -25042349.78248  19851016.7464   19851016.6114   19851019.0624
       660.8744
 -22074275.54349 -17160900.70848  20872039.4634   20872039.1054   20872041.4744
       258.4914
 -18418347.22748 -14329379.63448  21877689.9674   21877690.2334   21877692.4084
     -2830.3964
 10  1  5  1 36 30.0000000  0 11G12G28G17G30G26G22G18G14G09G27G15
 -23191496.19449 -18058461.72248  21484074.4284   21484074.5124   21484075.8834
      2216.3234
  -1358334.57046  -1019733.14245  25626583.8584   25626582.1354   25626582.9844
     -3121.9434
 -16392288.90548 -12734453.31947  22385558.9164   22385558.8284   22385561.0844
      -913.1894
  -9647489.36347  -7457572.88546  24158481.1874   24158481.0324   24158482.9874
      3513.8104
 -14712030.11048 -11414650.96247  22362300.4144   22362300.6534   22362302.8204
      2975.6174
 -10493988.84747  -7954299.56246  23921728.0514   23921729.4654   23921729.9254
        59.4844
 -12353370.36047  -9616529.96646  23327310.1114   23327309.4344   23327311.7464
     -1602.8544
  -1548736.48547  -1153722.81545  25414402.3204   25414403.1334   25414405.3944
      3594.7894
 -32165410.25549 -25057637.66748  19847283.2934   19847283.0474   19847285.3044
       647.2644
 -22081914.85749 -17166853.42248  20870585.5694   20870585.1934   20870588.1414
       251.0094
 -18333252.79848 -14263072.29748  21893882.6344   21893883.0204   21893885.1334
     -2842.4194
 10  1  5  1 37  0.0000000  0 10G12G17G30G26G22G18G14G09G27G15
 -23257801.39649 -18110128.09348  21471457.0064   21471456.9594   21471458.5864
      2203.9964
 -16364612.27448 -12712887.10347  22390825.4714   22390825.4814   22390827.2074
      -932.0904
  -9752833.32747  -7539659.07346  24138434.8754   24138436.0384   24138438.0074
      3509.0174
 -14801110.66248 -11484064.37847  22345348.8414   22345349.1274   22345352.3014
      2963.0624
 -10495504.93247  -7955480.92746  23921439.0454   23921440.9144   23921439.2784
        41.5124
 -12305071.51147  -9578894.54246  23336500.0234   23336499.4254   23336501.2454
     -1617.0844
  -1656548.73146  -1237732.35845  25393886.6404   25393887.5714   25393886.1844
      3592.4434
 -32184618.03849 -25072604.77348  19843628.1204   19843627.9554   19843630.5514
       633.2934
 -22089328.02349 -17172629.91848  20869175.0764   20869174.7144   20869177.4954
       243.1724
 -18247797.68448 -14196483.90848  21910144.3924   21910144.8194   21910146.6594
     -2854.6884
 10  1  5  1 37 30.0000000  0 10G12G17G30G26G22G18G14G09G27G15
 -23323739.22749 -18161508.20448  21458909.3904   21458909.7204   21458910.8304
      2191.8174
 -16336373.48148 -12690882.84947  22396199.0694   22396199.6734   22396200.9764
      -950.7674
  -9858040.23647  -7621638.47246  24118414.5634   24118413.7544   24118417.9474
      3504.5444
 -14889812.64048 -11553182.80347  22328469.4284   22328470.2304   22328472.4874
      2950.4954
 -10496496.31047  -7956253.45146  23921250.7324   23921252.1084   23921251.2544
        24.4614
 -12256353.82047  -9540932.74646  23345770.6654   23345771.5184   23345772.8954
     -1631.0294
  -1764297.28146  -1321692.22745  25373384.0474   25373386.4924   25373381.9244
      3591.1014
 -32203411.49449 -25087249.02648  19840051.9084   19840051.8694   19840054.1934
       619.4894
 -22096512.46449 -17178228.18948  20867807.6884   20867807.6844   20867810.0254
       235.5684
 -18161982.16648 -14129614.67848  21926474.4404   21926474.6544   21926477.0734
     -2866.6004
 10  1  5  1 38  0.0000000  0  9G12G17G30G26G22G18G09G27G15
 -23389309.99249 -18212602.29148  21446431.6914   21446431.9634   21446433.0714
      2179.4964
 -16307574.57748 -12668442.14047  22401679.6954   22401679.4784   22401681.5594
      -969.4104
  -9963109.92547  -7703510.93346  24098420.6004   24098422.0554   24098423.6354
      3499.9044
 -14978134.31148 -11622004.87247  22311662.5734   22311662.6994   22311664.4064
      2937.5574
 -10496964.50247  -7956618.29646  23921161.2514   23921162.5924   23921161.4444
         6.7834
 -12207221.06547  -9502647.52646  23355120.7864   23355120.0194   23355122.4814
     -1644.7764
 -32221790.84049 -25101570.59648  19836554.3884   19836554.2624   19836556.6024
       605.6144
 -22103468.69849 -17183648.63248  20866484.0914   20866483.6054   20866486.9544
       227.9684
 -18075809.32848 -14062467.02248  21942872.6284   21942873.2774   21942874.7464
     -2878.4934
 10  1  5  1 38 30.0000000  0 10G12G17G30G26G22G18G14G09G27G15
 -23454512.94349 -18263409.76748  21434024.1004   21434024.0294   21434025.2184
      2167.1994
 -16278216.44348 -12645565.66547  22407266.1044   22407266.2044   22407268.5074
      -988.0814
 -10068041.22647  -7785275.57446  24078452.7614   24078453.0684   24078455.0814
      3495.5314
 -15066072.85748 -11690528.41847  22294928.3274   22294928.1804   22294930.4464
      2924.7044
 -10496910.26647  -7956576.05746  23921173.2794   23921172.4554   23921172.7834
       -10.7344
 -12157675.45047  -9464040.60046  23364548.4404   23364549.5624   23364550.1444
     -1658.5024
  -1979598.33846  -1489459.26845  25332412.4274   25332411.1054   25332415.3174
      3585.8304
 -32239755.28249 -25115568.86548  19833135.9714   19833135.9534   19833138.1694
       591.8214
 -22110195.95549 -17188890.65448  20865203.9204   20865203.8414   20865206.4224
       220.3324
 -17989281.48148 -13995042.73448  21959338.4624   21959338.6534   21959340.7994
     -2890.3454
 10  1  5  1 39  0.0000000  0 10G12G17G30G26G22G18G14G09G27G15
 -23519348.95749 -18313931.31748  21421685.9684   21421686.3204   21421687.4974
      2154.8614
 -16248301.66148 -12622255.43747  22412958.7044   22412958.9224   22412961.1314
     -1006.5564
 -10172834.07347  -7866932.32746  24058511.6524   24058511.2564   24058514.5914
      3490.4064
 -15153626.73248 -11758752.20747  22278267.0954   22278267.3084   22278270.0204
      2911.7844
 -10496335.32347  -7956128.05746  23921282.6744   23921281.4224   23921282.8734
       -27.9754
 -12107721.07047  -9425115.13046  23374055.8274   23374055.7924   23374055.1944
     -1672.3264
  -2087147.53846  -1573263.77345  25311946.3254   25311946.4514   25311947.7274
      3583.9754
 -32257305.23449 -25129244.15348  19829796.2634   19829796.0254   19829798.5204
       577.9194
 -22116694.93049 -17193954.79248  20863967.1004   20863966.8714   20863969.8924
       212.5764
 -17902401.25948 -13927343.86948  21975871.3874   21975871.3364   21975873.3984
     -2902.0604
 10  1  5  1 39 30.0000000  0 10G12G17G30G26G22G18G14G09G27G15
 -23583814.37849 -18364164.08848  21409418.6234   21409418.9894   21409419.9864
      2142.5114
 -16217827.97148 -12598509.69947  22418757.6474   22418757.9694   22418759.9564
     -1025.3594
 -10277484.48747  -7948478.08346  24038597.2904   24038597.0314   24038598.9534
      3485.9364
 -15240789.84248 -11826671.50647  22261680.2824   22261680.5774   22261682.5074
      2898.7624
 -10495237.07247  -7955272.28746  23921490.3114   23921491.2964   23921491.6614
       -45.4884
 -12057356.78947  -9385870.27346  23383639.4354   23383639.1364   23383640.7954
     -1685.9624
  -2194623.35846  -1657011.15545  25291494.6384   25291495.1544   25291496.7554
      3581.4354
 -32274437.00449 -25142593.58748  19826536.0974   19826535.9764   19826538.4544
       563.8724
 -22122961.91349 -17198838.16048  20862774.6724   20862774.5244   20862777.1904
       204.8174
 -17815167.91148 -13859369.83648  21992471.4494   21992471.7824   21992473.3974
     -2913.8204
 10  1  5  1 40  0.0000000  0  9G12G17G30G26G22G18G09G27G15
 -23647910.40249 -18414109.02348  21397221.5464   21397221.8984   21397223.1294
      2130.1064
 -16186798.19048 -12574330.64747  22424662.4474   22424662.6854   22424664.7854
     -1043.8524
 -10381992.96247  -8029913.23046  24018709.3674   24018709.6804   24018711.9254
      3481.0984
 -15327561.35348 -11894285.66047  22245168.7654   22245169.0544   22245171.0424
      2885.5754
 -10493617.80647  -7954010.54246  23921799.9384   23921799.4214   23921798.7144
       -62.9824
 -12006587.11447  -9346309.52546  23393300.8544   23393300.0804   23393303.0324
     -1699.2444
 -32291151.52449 -25155617.89148  19823355.5264   19823355.3744   19823357.9454
       549.8694
 -22128998.06449 -17203541.65748  20861626.0114   20861625.8564   20861628.4644
       197.0944
 -17727585.60348 -13791123.88548  22009137.4814   22009138.0114   22009140.0254
     -2925.3874
 10  1  5  1 40 30.0000000  0 10G12G17G30G26G22G18G14G09G27G15
 -23711637.41349 -18463766.41648  21385094.7074   21385094.8454   21385096.2014
      2117.5344
 -16155214.51348 -12549719.98247  22430672.8004   22430672.6924   22430674.5694
     -1062.4374
 -10486359.20247  -8111237.55846  23998849.0504   23998848.4194   23998852.6454
      3475.9154
 -15413939.66048 -11961593.43147  22228731.8154   22228732.3674   22228734.2204
      2872.1964
 -10491479.44947  -7952344.31046  23922205.3714   23922205.6284   23922206.4954
       -80.4714
 -11955415.67847  -9306435.70546  23403037.6544   23403037.2404   23403040.4614
     -1712.8704
  -2409353.31346  -1824333.20345  25250631.8084   25250629.4114   25250632.2704
      3575.6774
 -32307449.19849 -25168317.38248  19820254.2884   19820254.1094   19820256.4674
       535.9204
 -22134803.67349 -17208065.51248  20860521.0384   20860521.0444   20860523.9414
       189.2604
 -17639657.45748 -13722608.45448  22025869.8704   22025869.8784   22025871.8234
     -2936.9964
 10  1  5  1 41  0.0000000  0 10G12G17G30G26G22G18G14G09G27G15
 -23774993.12949 -18513134.47748  21373038.3944   21373038.4644   21373039.6924
      2105.0114
 -16123076.31048 -12524677.22147  22436788.3744   22436788.4864   22436789.8984
     -1081.1764
 -10590580.37647  -8192448.83446  23979017.4834   23979017.1284   23979018.7434
      3470.9844
 -15499919.97348 -12028591.07447  22212370.1044   22212369.5124   22212371.4324
      2858.7934
 -10488820.60047  -7950272.48246  23922711.8634   23922712.2694   23922712.4454
       -98.0464
 -11903842.80247  -9266249.08046  23412852.9134   23412851.1834   23412852.6484
     -1726.4604
  -2516602.01046  -1907903.63345  25230223.8944   25230225.1594   25230227.3444
      3572.9034
 -32323327.50349 -25180690.09148  19817232.6364   19817232.2954   19817234.9404
       521.5934
 -22140376.50649 -17212407.98348  20859460.8604   20859460.4914   20859463.1584
       181.2094
 -17551383.84648 -13653823.82347  22042667.6784   22042668.4164   22042669.9964
     -2948.7564
 10  1  5  1 41 30.0000000  0 10G12G17G30G26G22G18G14G09G27G15
 -23837978.24949 -18562213.76948  21361052.8454   21361053.1884   21361054.3894
      2093.3234
 -16090386.01948 -12499204.26047  22443009.3274   22443009.2394   22443011.2884
     -1098.7584
 -10694656.52347  -8273547.10546  23959211.2024   23959212.0124   23959215.7014
      3466.8124
 -15585500.85348 -12095277.46747  22196084.4134   22196084.5194   22196085.3644
      2846.0844
 -10485643.34447  -7947796.73246  23923315.4554   23923317.0044   23923317.6784
      -114.7284
 -11851872.75047  -9225752.97746  23422742.2144   23422740.8404   23422744.1844
     -1739.0744
  -2623770.96346  -1991411.92045  25209830.1014   25209829.1954   25209833.0924
      3570.9584
 -32338787.07749 -25192736.51348  19814290.6424   19814290.5124   19814293.2444
       508.3404
 -22145717.16949 -17216569.54148  20858444.4954   20858444.3254   20858447.1394
       174.1864
 -17462768.36348 -13584772.80647  22059530.8914   22059530.8674   22059533.4374
     -2959.5344
 10  1  5  1 42  0.0000000  0 10G12G17G30G26G22G18G14G09G27G15
 -23900587.93149 -18611000.50948  21349138.3634   21349138.8054   21349139.7634
      2080.6154
 -16057140.13248 -12473298.37447  22449335.5724   22449335.7694   22449337.7104
     -1117.6424
 -10798581.54047  -8354527.61946  23939435.0754   23939436.3274   23939437.9464
      3461.7784
 -15670674.97448 -12161646.91147  22179876.1464   22179877.2544   22179878.4794
      2832.1574
 -10481944.02147  -7944914.15446  23924020.4574   23924021.6864   23924020.5304
      -132.1024
 -11799503.22047  -9184945.56746  23432707.8984   23432707.4794   23432707.9614
     -1752.2784
  -2730853.57446  -2074852.94045  25189454.0284   25189457.6374   25189458.9154
      3567.9654
 -32353822.33549 -25204452.29948  19811429.7814   19811429.5124   19811432.0374
       493.9774
 -22150820.53149 -17220546.18848  20857473.3284   20857473.0964   20857475.7294
       166.0044
 -17373807.82748 -13515452.91447  22076459.2914   22076459.6664   22076461.1174
     -2971.1314
 10  1  5  1 42 30.0000000  0 10G12G17G30G26G22G18G14G09G27G15
 -23962826.58149 -18659498.13348  21337294.9304   21337294.9294   21337296.2694
      2068.1844
 -16023345.24448 -12446964.68647  22455766.6324   22455766.4464   22455768.6264
     -1135.9784
 -10902360.13647  -8435394.03546  23919686.8034   23919688.0304   23919689.0274
      3456.5044
 -15755444.64148 -12227701.19047  22163745.0684   22163745.7764   22163747.5834
      2818.5814
 -10477728.43347  -7941629.29146  23924822.5404   23924823.5174   23924823.8584
      -149.4034
 -11746742.01047  -9143832.96846  23442747.7024   23442747.7704   23442748.6194
     -1765.7404
  -2837852.48946  -2158228.74145  25169093.0494   25169093.1824   25169093.5054
      3564.5964
 -32368437.73649 -25215840.92648  19808648.5354   19808648.3894   19808650.7724
       479.9264
 -22155691.14249 -17224341.47148  20856546.5924   20856546.2314   20856549.0164
       158.2504
 -17284509.95348 -13445870.16047  22093452.3014   22093452.5684   22093455.0554
     -2982.3914
 10  1  5  1 43  0.0000000  0 10G12G17G30G26G22G18G14G09G27G15
 -24024692.80649 -18707705.55948  21325522.1984   21325522.1404   21325523.3324
      2056.0874
 -15989001.56448 -12420203.37647  22462301.8454   22462301.7914   22462304.0074
     -1153.8054
 -11005989.93147  -8516144.49246  23899967.1834   23899967.0544   23899969.4734
      3451.6944
 -15839806.34048 -12293437.58547  22147691.7134   22147691.8184   22147694.4384
      2805.2144
 -10472996.48547  -7937942.07846  23925723.3474   23925723.2294   23925722.8494
      -166.3004
 -11693590.81947  -9102416.47046  23452861.3734   23452859.5314   23452863.4624
     -1778.1964
  -2944764.68946  -2241536.94445  25148748.2584   25148747.2744   25148750.5424
      3562.3234
 -32382631.64549 -25226901.11948  19805947.4464   19805947.3004   19805949.6034
       466.2384
 -22160327.33049 -17227954.09248  20855664.1024   20855663.8734   20855667.1014
       150.7414
 -17194876.09248 -13376025.60047  22110508.9694   22110508.9694   22110511.3434
     -2993.3464
 10  1  5  1 43 30.0000000  0 10G12G17G30G26G22G18G14G09G27G15
 -24086185.16249 -18755621.65848  21313820.4894   21313820.5794   21313822.0294
      2043.2474
 -15954109.16148 -12393014.48147  22468941.6704   22468941.7354   22468943.4884
     -1172.5094
 -11109468.87347  -8596777.42246  23880275.5864   23880275.3344   23880278.5414
      3446.5854
 -15923756.16048 -12358853.01647  22131716.6154   22131716.7704   22131719.9454
      2791.0734
 -10467747.76147  -7933852.16846  23926722.0674   23926723.0054   23926723.0844
      -183.5444
 -11640051.26647  -9060697.36546  23463050.1094   23463050.4284   23463052.7284
     -1791.2454
  -3051586.81246  -2324774.96945  25128420.2774   25128418.9534   25128423.5664
      3558.9154
 -32396402.19449 -25237631.41448  19803326.8794   19803326.7934   19803329.2394
       451.6934
 -22164727.25749 -17231382.60948  20854827.0824   20854827.1424   20854829.6474
       142.4934
 -17104907.33148 -13305920.07547  22127629.4044   22127629.6694   22127631.7094
     -3004.8284
 10  1  5  1 44  0.0000000  0 10G12G17G30G26G22G18G14G09G27G15
 -24147303.08349 -18803245.99348  21302190.1344   21302190.3404   21302191.3574
      2030.7064
 -15918669.48948 -12365399.14747  22475685.7454   22475685.8974   22475687.1114
     -1190.5784
 -11212796.22647  -8677292.20646  23860613.5414   23860613.2654   23860617.1224
      3441.5984
 -16007291.78648 -12423945.72147  22115820.0644   22115820.6654   22115822.7074
      2777.4454
 -10461983.52147  -7929360.56646  23927820.1584   23927818.8314   23927819.3034
      -200.6844
 -11586126.26147  -9018677.90546  23473311.9614   23473311.2044   23473313.2164
     -1803.8334
  -3158316.88546  -2407941.26445  25108109.1624   25108107.8854   25108111.1064
      3556.3024
 -32409749.40249 -25248031.84048  19800787.1424   19800787.0374   19800789.3954
       437.6524
 -22168890.88849 -17234627.00348  20854034.4204   20854034.3744   20854037.1524
       134.6884
 -17014606.52748 -13235555.81947  22144813.0404   22144813.1394   22144815.0584
     -3015.7104
 10  1  5  1 44 30.0000000  0 10G12G17G30G26G22G18G14G09G27G15
 -24208043.96649 -18850576.52748  21290631.5314   21290631.8044   21290632.9594
      2018.5454
 -15882681.26648 -12337356.37047  22482533.8074   22482534.4474   22482535.3494
     -1208.6104
 -11315968.21247  -8757685.93146  23840979.6294   23840980.6364   23840982.8674
      3436.4444
 -16090407.82748 -12488711.46747  22100003.5374   22100004.0844   22100006.3124
      2763.6704
 -10455702.00747  -7924465.90846  23929014.4574   23929014.2334   23929014.5914
      -217.9664
 -11531815.51547  -8976357.87946  23483647.1234   23483647.1174   23483648.7014
     -1816.5034
  -3264950.25347  -2491032.20545  25087817.9014   25087815.5694   25087820.2614
      3553.0824
 -32422669.68849 -25258099.59548  19798328.4314   19798328.6454   19798330.8654
       423.6624
 -22172815.02749 -17237684.77548  20853287.8684   20853287.8364   20853290.5114
       126.8834
 -16923972.76648 -13164932.11447  22162060.0754   22162060.4134   22162062.1754
     -3026.5074
 10  1  5  1 45  0.0000000  0 10G12G17G30G26G22G18G14G09G27G15
 -24268409.98749 -18897614.96548  21279144.2184   21279144.4354   21279145.7324
      2006.5104
 -15846148.71948 -12308889.44047  22489485.9864   22489486.1354   22489487.5084
     -1226.2454
 -11418986.17547  -8837959.65146  23821375.7344   23821376.3884   23821379.0024
      3432.0204
 -16173104.11148 -12553150.13447  22084266.6524   22084267.2074   22084269.8714
      2750.1154
 -10448906.65347  -7919170.84046  23930306.5344   23930306.8634   23930308.0524
      -234.6194
 -11477124.63247  -8933741.62246  23494053.5364   23494054.0324   23494055.4204
     -1828.7454
  -3371487.22646  -2574048.02745  25067545.3354   25067545.9774   25067544.7314
      3550.1074
 -32435165.08749 -25267836.27248  19795950.6234   19795950.5924   19795953.0194
       409.9494
 -22176501.79449 -17240557.58548  20852586.2744   20852586.0034   20852588.9454
       119.3714
 -16833011.47348 -13094053.19047  22179369.4354   22179369.8854   22179371.2234
     -3037.0364
 10  1  5  1 45 30.0000000  0 10G12G17G30G26G22G18G14G09G27G15
 -24328400.79449 -18944361.02848  21267728.3774   21267728.6874   21267730.0924
      1993.6374
 -15809073.38048 -12279999.56447  22496541.3234   22496541.1114   22496542.8994
     -1244.6774
 -11521849.38047  -8918112.76346  23801802.2074   23801803.1574   23801804.9614
      3426.4464
 -16255378.41848 -12617259.98047  22068610.8584   22068611.3294   22068613.3784
      2735.6364
 -10441598.76247  -7913476.40246  23931698.5854   23931697.3574   23931698.2244
      -251.7574
 -11422056.62547  -8890831.49446  23504533.1324   23504533.2574   23504534.9084
     -1841.4204
  -3477925.85046  -2656987.21645  25047290.9614   25047288.5234   25047290.1084
      3546.3804
 -32447235.58849 -25277241.85848  19793653.7844   19793653.5014   19793656.0054
       395.5554
 -22179950.78049 -17243245.11348  20851930.1444   20851929.9334   20851932.5754
       111.2534
 -16741724.75148 -13022920.68647  22196740.6644   22196741.3824   22196742.7974
     -3048.0284
 10  1  5  1 46  0.0000000  0 11G12G01G17G30G26G22G18G14G09G27G15
 -24388015.75949 -18990814.23548  21256383.9414   21256384.1804   21256385.5164
      1980.6554
  -1180676.12247   -903351.38146  24267726.2844   24267726.5294   24267729.0354
      3354.1124
 -15771456.27448 -12250687.52647  22503699.4844   22503699.7044   22503701.4934
     -1263.2544
 -11624556.58247  -8998144.32046  23782257.4844   23782257.5064   23782261.7324
      3420.6804
 -16337227.76848 -12681038.69447  22053035.4874   22053035.1664   22053038.1214
      2721.0504
 -10433778.98947  -7907383.07946  23933185.4784   23933186.5274   23933186.4164
      -269.1694
 -11366613.55747  -8847629.10346  23515083.2974   23515082.2664   23515085.5954
     -1854.7014
  -3584263.76046  -2739847.93145  25027055.2454   25027054.6524   25027055.7924
      3542.7274
 -32458879.61549 -25286315.12948  19791437.8024   19791437.7994   19791440.1924
       380.7804
 -22183161.04749 -17245746.62048  20851319.1814   20851319.0464   20851321.9514
       102.8034
 -16650114.52548 -12951536.10247  22214173.5354   22214173.8814   22214175.6834
     -3059.2784
 10  1  5  1 46 30.0000000  0 11G12G01G17G30G26G22G18G14G09G27G15
 -24447251.44149 -19036971.90048  21245111.7754   21245111.8994   21245113.2684
      1968.0254
  -1281231.44947   -981706.19046  24248592.2764   24248592.2884   24248594.6254
      3349.1974
 -15733295.42748 -12220951.79047  22510961.0674   22510961.4924   22510963.1454
     -1281.1344
 -11727102.91447  -9078050.52346  23762743.6644   23762742.6234   23762745.6824
      3415.3334
 -16418645.42448 -12744481.02547  22037542.1724   22037543.0644   22037544.6064
      2706.6804
 -10425444.44947  -7900888.64046  23934771.5294   23934772.2114   23934772.5264
      -286.4364
 -11310794.70247  -8804133.90146  23525706.4234   23525704.9804   23525707.2214
     -1866.9744
  -3690494.73646  -2822625.31645  25006839.9484   25006840.8004   25006840.6234
      3539.4044
 -32470093.24949 -25295053.02848  19789303.9834   19789304.0204   19789306.4064
       366.5774
 -22186128.23149 -17248058.71448  20850754.3724   20850754.4464   20850757.2424
        94.7694
 -16558179.38948 -12879898.34047  22231668.4814   22231668.7924   22231670.4694
     -3069.9124
 10  1  5  1 47  0.0000000  0 11G12G01G17G30G26G22G18G14G09G27G15
 -24506111.57649 -19082836.93048  21233911.1894   21233911.1864   21233912.5134
      1955.8704
  -1381638.81447  -1059945.69746  24229484.2984   24229484.8704   24229487.4834
      3344.3104
 -15694596.64048 -12190796.88547  22518325.3694   22518325.6274   22518327.1344
     -1298.5214
 -11829492.23247  -9157834.39346  23743259.7654   23743258.9624   23743263.2344
      3410.4274
 -16499634.03748 -12807589.03747  22022130.4664   22022130.0484   22022133.1174
      2692.4194
 -10416601.09047  -7893997.73646  23936454.5294   23936454.5234   23936455.3164
      -303.0294
 -11254608.08147  -8760352.12646  23536398.4004   23536395.9084   23536399.1334
     -1878.6184
  -3796621.55546  -2905321.54545  24986645.2964   24986644.7284   24986647.2534
      3536.1244
 -32480880.62249 -25303458.77648  19787251.2384   19787251.0374   19787253.6014
       352.5854
 -22188856.97949 -17250185.01948  20850235.3224   20850235.1564   20850237.8904
        87.1294
 -16465926.78248 -12808013.19947  22249223.2654   22249223.6924   22249225.5434
     -3080.2474
 10  1  5  1 47 30.0000000  0 11G12G01G17G30G26G22G18G14G09G27G15
 -24564593.49649 -19128407.24648  21222782.1774   21222782.5074   21222783.8484
      1942.9104
  -1481895.07547  -1138067.45446  24210405.7224   24210406.5844   24210409.4004
      3339.1464
 -15655359.12048 -12160222.19247  22525791.7904   22525791.8074   22525793.9334
     -1316.9094
 -11931721.05247  -9237493.17346  23723806.2764   23723806.6724   23723809.5374
      3404.8374
 -16580188.29248 -12870358.58047  22006801.7254   22006801.8504   22006804.1694
      2677.4964
 -10407247.61447  -7886709.32746  23938236.7644   23938235.0824   23938235.4624
      -320.4024
 -11198053.09347  -8716283.33346  23547160.0174   23547159.8554   23547162.3014
     -1891.7024
  -3902639.08446  -2987932.62145  24966470.5184   24966474.0494   24966471.8494
      3531.8274
 -32491238.61849 -25311529.94348  19785280.1154   19785280.0534   19785282.5374
       337.9434
 -22191344.14249 -17252123.07248  20849762.2174   20849762.0064   20849764.6654
        78.7444
 -16373356.51248 -12735880.52847  22266838.8684   22266839.0294   22266841.1774
     -3091.0064
 10  1  5  1 48  0.0000000  0 11G12G01G17G30G26G22G18G14G09G27G15
 -24622698.63449 -19173683.96748  21211725.3654   21211725.2654   21211726.7644
      1930.9084
  -1582000.36347  -1216071.55246  24191356.7784   24191357.3584   24191359.5894
      3334.4664
 -15615586.02048 -12129230.16947  22533360.6814   22533360.6304   22533362.1254
     -1334.3404
 -12033789.68247  -9317027.16546  23704382.7724   23704382.6124   23704385.6004
      3399.9594
 -16660307.23848 -12932788.92847  21991555.3754   21991555.7764   21991557.3134
      2663.7734
 -10397386.39447  -7879025.26846  23940112.1604   23940111.5674   23940111.4524
      -336.8404
 -11141134.51647  -8671931.19946  23557990.5454   23557991.6724   23557993.3334
     -1902.8214
  -4008547.25146  -3070458.47545  24946316.6414   24946316.6264   24946313.9684
      3529.0274
 -32501168.34349 -25319267.39648  19783390.5924   19783390.4844   19783392.9804
       324.0934
 -22193590.72949 -17253873.66448  20849334.4794   20849334.2914   20849337.0854
        71.2444
 -16280472.20348 -12663503.15047  22284514.1534   22284514.7744   22284516.5784
     -3101.1204
 10  1  5  1 48 30.0000000  0 11G12G01G17G30G26G22G18G14G09G27G15
 -24680423.23349 -19218664.16548  21200740.5954   21200740.8134   21200742.1474
      1917.7804
  -1681950.58147  -1293954.82146  24172337.6344   24172336.6664   24172339.7814
      3329.0444
 -15575275.44348 -12097819.32247  22541031.1664   22541031.4694   22541033.2424
     -1352.6664
 -12135694.20347  -9396433.24846  23684991.6024   23684992.8044   23684993.8424
      3394.2204
 -16739984.71048 -12994875.27447  21976393.2594   21976393.7134   21976396.2434
      2648.5574
 -10387015.28247  -7870943.88646  23942084.1674   23942084.4814   23942084.7394
      -354.2224
 -11083851.79947  -8627295.33846  23568891.1684   23568890.4094   23568892.8014
     -1915.3374
  -4114340.30147  -3152894.59245  24926184.2444   24926183.2304   24926186.8814
      3524.7624
 -32510666.05449 -25326668.21348  19781583.3224   19781582.9904   19781585.6184
       309.3084
 -22195592.84649 -17255433.75848  20848953.5144   20848953.3154   20848956.0844
        62.6344
 -16187273.28348 -12590880.62547  22302249.2664   22302249.7334   22302251.1114
     -3111.9574
 10  1  5  1 49  0.0000000  0 11G12G01G17G30G26G22G18G14G09G27G15
 -24737765.48549 -19263346.43148  21189828.7334   21189828.8454   21189830.3274
      1904.8674
  -1781743.13247  -1371715.25446  24153347.4124   24153347.5974   24153350.1724
      3323.5734
 -15534427.28448 -12065989.58447  22548804.2104   22548804.8244   22548806.1384
     -1370.5554
 -12237431.53547  -9475709.07346  23665631.3654   23665632.1894   23665634.3284
      3388.3764
 -16819216.67948 -13056614.46347  21961316.0584   21961316.2364   21961318.1204
      2633.4794
 -10376133.88347  -7862464.89246  23944157.0144   23944157.0164   23944154.3734
      -371.1704
 -11026206.39247  -8582376.87746  23579861.5664   23579860.4874   23579862.4954
     -1927.6104
  -4220014.27647  -3235237.92445  24906075.3244   24906075.5264   24906077.9214
      3520.5674
 -32519729.37249 -25333730.54148  19779858.6684   19779858.3564   19779860.8544
       294.8324
 -22197348.07449 -17256801.47148  20848619.3384   20848618.9524   20848622.1304
        54.3374
 -16093760.53348 -12518013.55647  22320044.2934   22320044.4264   22320046.1804
     -3122.3764
 10  1  5  1 49 30.0000000  0 11G12G01G17G30G26G22G18G14G09G27G15
 -24794734.27349 -19307737.68248  21178988.0724   21178988.1064   21178989.2714
      1891.4324
  -1881386.20547  -1449359.19846  24134386.0614   24134385.9464   24134387.9204
      3317.8554
 -15493052.07348 -12033749.15347  22556677.9544   22556677.8484   22556679.8554
     -1389.0044
 -12339010.00447  -9554861.09646  23646301.7384   23646301.6794   23646305.4294
      3381.9904
 -16898009.80948 -13118011.70947  21946322.3334   21946322.2544   21946324.4124
      2617.8554
 -10364752.22547  -7853596.07546  23946321.3624   23946321.7084   23946321.0164
      -388.9144
 -10968209.78247  -8537184.72746  23590897.2314   23590896.6384   23590899.9584
     -1940.3504
  -4325576.20246  -3317493.94645  24885987.9074   24885988.4344   24885987.4044
      3515.6374
 -32528366.83549 -25340461.03548  19778214.9514   19778214.7394   19778217.2834
       279.5394
 -22198865.07949 -17257983.55648  20848330.9344   20848330.5274   20848333.2574
        45.3734
 -15999944.96348 -12444910.52747  22337896.5334   22337896.9294   22337899.4924
     -3133.4084
 10  1  5  1 50  0.0000000  0 11G12G01G17G30G26G22G18G14G09G27G15
 -24851317.46649 -19351828.47448  21168220.6684   21168220.8204   21168221.7534
      1880.1014
  -1980867.19147  -1526876.83246  24115455.2484   24115455.2824   24115457.6724
      3313.6214
 -15451139.97748 -12001090.36947  22564653.4684   22564653.3334   22564654.9154
     -1405.5984
 -12440416.85047  -9633879.39546  23627004.0964   23627004.3254   23627006.7814
      3377.7524
 -16976349.53148 -13179055.64647  21931415.0254   21931414.9134   21931417.3364
      2604.1554
 -10352860.10947  -7844329.50146  23948584.8644   23948584.9484   23948584.3984
      -404.4564
 -10909853.27447  -8491712.14246  23602001.5354   23602001.5294   23602004.3814
     -1950.7394
  -4431012.08947  -3399651.77446  24865924.3884   24865923.4614   24865926.2494
      3512.6924
 -32536566.40849 -25346850.31648  19776654.6894   19776654.3984   19776657.0794
       266.4284
 -22200131.77249 -17258970.59348  20848089.8464   20848090.0404   20848092.4214
        38.5764
 -15905817.35648 -12371564.35047  22355808.8714   22355809.2094   22355810.7684
     -3142.3734
 10  1  5  1 50 30.0000000  0 11G12G01G17G30G26G22G18G14G09G27G15
 -24907522.04249 -19395624.23648  21157525.0174   21157525.0224   21157526.7264
      1866.6584
  -2080192.02247  -1604272.78546  24096554.3034   24096554.8274   24096556.6924
      3308.0084
 -15408699.83148 -11968020.12047  22572729.4634   22572729.3774   22572731.7184
     -1423.9934
 -12541658.29347  -9712768.79646  23607738.6974   23607738.3064   23607741.2514
      3371.5854
 -17054240.29448 -13239749.74047  21916592.7944   21916591.7924   21916595.4934
      2588.3924
 -10340465.60447  -7834671.45146  23950942.8584   23950942.5464   23950944.4724
      -422.0074
 -10851146.88247  -8445966.91446  23613173.8374   23613173.0954   23613176.6014
     -1963.2894
  -4536326.68346  -3481715.09945  24845882.9944   24845880.4814   24845884.3014
      3508.3044
 -32544334.46849 -25352903.35448  19775176.5204   19775176.5104   19775178.6024
       251.2684
 -22201154.56349 -17259767.57948  20847895.2684   20847895.1314   20847897.7914
        29.5564
 -15811387.99848 -12297983.03547  22373777.8904   22373778.1904   22373780.3614
     -3153.1714
 10  1  5  1 51  0.0000000  0 11G12G01G17G30G26G22G18G14G09G27G15
 -24963348.51749 -19439125.37348  21146901.6354   21146901.8134   21146902.9764
      1854.2504
  -2179360.37647  -1681546.80646  24077682.8394   24077683.6294   24077686.4394
      3302.5264
 -15365733.46248 -11934539.83147  22580905.7504   22580906.3734   22580907.4444
     -1441.3304
 -12642733.96047  -9791529.01646  23588504.2674   23588504.2524   23588507.6234
      3366.2654
 -17131680.26248 -13300092.57247  21901856.4344   21901856.5854   21901858.3764
      2573.5264
 -10327570.42947  -7824623.28346  23953399.5574   23953398.1594   23953397.3994
      -438.6384
 -10792093.86547  -8399951.59446  23624411.2344   23624409.5744   23624411.4764
     -1974.6324
  -4641518.39146  -3563682.64845  24825866.7044   24825864.4834   24825866.8634
      3503.5764
 -32551671.11349 -25358620.22348  19773780.2214   19773780.2164   19773782.5854
       237.0134
 -22201933.34349 -17260374.42348  20847747.0034   20847746.5864   20847749.5414
        21.4954
 -15716658.70748 -12224168.00847  22391804.5764   22391804.2924   22391806.3564
     -3163.0934
 10  1  5  1 51 30.0000000  0 11G12G01G17G30G26G22G18G14G09G27G15
 -25018790.71249 -19482327.06748  21136351.4034   21136351.7694   21136352.7734
      1841.9594
  -2278365.81047  -1758693.85646  24058842.3784   24058843.2904   24058845.9054
      3297.7444
 -15322236.97148 -11900646.45447  22589182.7544   22589183.5484   22589185.0764
     -1458.3404
 -12743637.44847  -9870155.09446  23569303.0674   23569303.9544   23569307.8374
      3360.9814
 -17208661.44648 -13360077.90547  21887207.0294   21887207.6004   21887210.2414
      2558.6354
 -10314170.45547  -7814181.75346  23955947.5214   23955947.6704   23955947.8704
      -454.8334
 -10732691.69847  -8353664.20046  23635715.1174   23635714.2424   23635717.0124
     -1985.7244
  -4746579.33046  -3645548.28545  24805872.1314   24805869.8174   24805875.0664
      3499.8614
 -32558570.29149 -25363996.20748  19772467.3274   19772467.1354   19772469.8144
       222.8714
 -22202462.34949 -17260786.63748  20847646.3864   20847646.2274   20847649.0344
        13.7664
 -15621626.75648 -12150117.14447  22409888.3024   22409888.1844   22409890.9204
     -3172.5664
 10  1  5  1 52  0.0000000  0 11G12G01G17G30G26G22G18G14G09G27G15
 -25073850.02649 -19525230.41648  21125874.1374   21125874.3064   21125875.6764
      1828.9994
  -2377209.16647  -1835714.63046  24040034.1614   24040034.0824   24040036.9574
      3292.3334
 -15278213.71148 -11866342.61447  22597559.9594   22597560.3654   22597562.2414
     -1475.9814
 -12844368.83247  -9948647.04446  23550134.9044   23550134.4064   23550138.0944
      3355.0104
 -17285182.53048 -13419704.72347  21872645.7644   21872645.8524   21872647.6954
      2543.0474
 -10300268.34447  -7803348.94846  23958593.2344   23958592.6884   23958592.7094
      -471.3424
 -10672944.84747  -8307108.24046  23647084.3854   23647084.7944   23647086.8914
     -1997.1664
  -4851508.57646  -3727311.31445  24785905.7424   24785903.8824   24785907.8634
      3495.9314
 -32565032.75549 -25369031.89748  19771237.6964   19771237.6024   19771240.0454
       208.2434
 -22202742.45549 -17261004.90648  20847593.0544   20847592.8774   20847595.4934
         5.2584
 -15526295.93648 -12075833.39347  22428029.2064   22428029.2774   22428031.4634
     -3182.3574
 10  1  5  1 52 30.0000000  0 11G12G01G17G30G26G22G18G14G09G27G15
 -25128528.64349 -19567837.12448  21115468.9314   21115469.3414   21115470.4594
      1816.1744
  -2475891.58847  -1912609.99946  24021254.6334   24021255.3204   24021258.5914
      3286.5824
 -15233667.50648 -11831631.27647  22606036.9584   22606037.8274   22606039.6364
     -1493.6954
 -12944929.44647 -10027005.93146  23530998.5494   23530998.7584   23531001.6774
      3349.0114
 -17361243.28648 -13478972.83847  21858171.6854   21858171.2324   21858174.0684
      2527.6094
 -10285867.56547  -7792127.55846  23961333.0134   23961333.6934   23961333.0644
      -488.1524
 -10612857.99447  -8260287.33646  23658518.7344   23658517.1304   23658519.5984
     -2008.2394
  -4956306.40047  -3808971.95446  24765964.0524   24765963.8954   24765965.1454
      3490.7724
 -32571060.54149 -25373728.87548  19770090.6444   19770090.5274   19770093.2424
       193.6664
 -22202775.41049 -17261030.58948  20847586.6074   20847586.3514   20847589.4344
        -3.1334
 -15430671.02748 -12001320.48447  22446225.9914   22446226.1814   22446228.7844
     -3192.4514
 10  1  5  1 53  0.0000000  0 11G12G01G17G30G26G22G18G14G09G27G15
 -25182825.29049 -19610146.19548  21105136.6474   21105136.8094   21105138.0064
      1803.8974
  -2574410.84447  -1989378.21146  24002507.7004   24002507.7644   24002510.6144
      3281.3604
 -15188598.84048 -11796512.83447  22614613.6344   22614613.6244   22614615.2034
     -1510.5094
 -13045317.45447 -10105230.32646  23511895.7994   23511896.5844   23511898.3384
      3343.7534
 -17436840.08048 -13537879.43247  21843786.1434   21843786.2194   21843788.8554
      2512.3954
 -10270968.25747  -7780517.72746  23964167.6054   23964168.0484   23964167.5854
      -504.7954
 -10552433.31847  -8213203.19146  23670017.8014   23670016.4614   23670018.3614
     -2019.2474
  -5060969.12947  -3890527.31446  24746047.6754   24746047.3934   24746050.6704
      3486.6454
 -32576651.73249 -25378085.64848  19769026.6834   19769026.6874   19769029.1614
       179.4764
 -22202559.48149 -17260862.33648  20847627.8754   20847627.7734   20847630.4244
       -11.0274
 -15334753.49848 -11926579.55847  22464478.5974   22464479.0814   22464481.0044
     -3201.8184
 10  1  5  1 53 30.0000000  0 11G12G01G17G30G26G22G18G14G09G27G15
 -25236737.85649 -19652155.97448  21094877.5574   21094877.5594   21094878.9884
      1790.6784
  -2672764.51247  -2066017.40246  23983791.1544   23983791.1514   23983793.7434
      3275.8844
 -15143008.03848 -11760987.52947  22623288.9204   22623289.3674   22623291.1344
     -1528.2314
 -13145530.08547 -10183318.06846  23492825.7244   23492826.5534   23492830.0234
      3337.3314
 -17511968.65848 -13596421.18147  21829489.7964   21829489.5034   21829491.3794
      2496.5394
 -10255569.99747  -7768519.09046  23967099.1054   23967098.1024   23967098.4114
      -521.7484
 -10491671.96447  -8165856.70446  23681580.1634   23681578.9814   23681581.0554
     -2031.0074
  -5165492.88746  -3971974.40346  24726156.9224   24726155.6254   24726158.7534
      3481.8704
 -32581804.34249 -25382100.67248  19768046.1404   19768046.0314   19768048.6394
       164.3794
 -22202092.22349 -17260498.24248  20847716.6174   20847716.5084   20847719.4104
       -19.8384
 -15238544.14648 -11851611.23147  22482786.6534   22482786.0684   22482789.1454
     -3211.8274
 10  1  5  1 54  0.0000000  0 11G12G01G17G30G26G22G18G14G09G27G15
 -25290265.83349 -19693866.07448  21084691.2554   21084691.4834   21084692.8774
      1778.4574
  -2770951.75047  -2142526.91346  23965106.8124   23965107.6114   23965110.1254
      3270.7754
 -15096896.08748 -11725056.13947  22632063.8754   22632063.0824   22632066.0374
     -1545.0614
 -13245566.04447 -10261268.15246  23473789.4094   23473790.0304   23473791.1824
      3332.1684
 -17586626.13048 -13654595.83747  21815283.0494   21815282.8114   21815285.0804
      2481.2644
 -10239673.96547  -7756132.58446  23970122.1764   23970123.1284   23970122.3814
      -537.5124
 -10430576.27747  -8118249.69746  23693204.3474   23693205.1714   23693206.0124
     -2041.4554
  -5269875.06946  -4053311.16046  24706292.7814   24706292.5824   24706292.2724
      3477.7064
 -32586517.47749 -25385773.24848  19767149.3904   19767149.0884   19767151.6184
       150.3104
 -22201372.86449 -17259937.70748  20847853.6894   20847853.3134   20847856.3044
       -27.5654
 -15142044.71648 -11776416.87747  22501149.8144   22501149.5634   22501151.9344
     -3220.8504
 10  1  5  1 54 30.0000000  0 11G12G01G17G30G26G22G18G14G09G27G15
 -25343409.97949 -19735277.09148  21074578.4104   21074578.4994   21074579.4404
      1765.1004
  -2868971.81347  -2218906.17046  23946454.6034   23946454.6534   23946456.0954
      3264.6964
 -15050265.70548 -11688720.77347  22640937.4564   22640937.6114   22640938.9714
     -1562.8804
 -13345425.10447 -10339080.38146  23454787.0714   23454786.6704   23454788.9964
      3325.6054
 -17660810.88348 -13712402.13347  21801165.4964   21801165.8724   21801168.6874
      2464.8794
 -10223282.09447  -7743359.71446  23973243.1144   23973242.6124   23973242.8114
      -554.6874
 -10369150.06947  -8070385.13546  23704894.8874   23704894.0554   23704896.5704
     -2053.3384
  -5374114.19447  -4134536.44446  24686457.5404   24686456.4334   24686459.7954
      3471.8944
 -32590791.45849 -25389103.62748  19766336.0294   19766335.9634   19766338.5904
       135.1504
 -22200401.72049 -17259180.97948  20848038.4634   20848038.2524   20848040.9234
       -36.5634
 -15045258.47948 -11700999.03547  22519567.2574   22519567.6484   22519570.5714
     -3231.0854
 10  1  5  1 55  0.0000000  0 11G12G01G17G30G26G22G18G14G09G27G15
 -25396171.69349 -19776390.10848  21064538.1674   21064538.4154   21064539.4114
      1752.2454
  -2966825.46847  -2295155.74046  23927833.2624   23927834.2794   23927835.9794
      3258.8594
 -15003120.33848 -11651984.11547  22649908.7574   22649909.4554   22649911.0214
     -1580.3164
 -13445107.94848 -10416755.30746  23435818.0164   23435818.2004   23435819.6594
      3319.6994
 -17734521.99948 -13769839.36747  21787138.9244   21787139.3534   21787141.3834
      2448.9724
 -10206397.26047  -7730202.71046  23976456.6944   23976456.4904   23976456.6104
      -571.0834
 -10307398.14147  -8022266.78846  23716646.0714   23716647.4274   23716648.5444
     -2064.1404
  -5478209.43247  -4215649.62146  24666648.6504   24666648.5784   24666650.5154
      3467.7224
 -32594627.54349 -25392092.78548  19765605.9674   19765605.8624   19765608.1654
       120.4854
 -22199179.76849 -17258228.81448  20848270.9824   20848270.9774   20848273.7824
       -45.0104
 -14948189.74248 -11625361.06547  22538039.0504   22538039.3724   22538041.9394
     -3240.4594
 10  1  5  1 55 30.0000000  0 11G12G01G17G30G26G22G18G14G09G27G15
 -25448550.15349 -19817204.48448  21054570.9134   21054571.2994   21054572.4104
      1739.7084
  -3064511.42647  -2371274.64446  23909244.2234   23909244.5984   23909246.7574
      3253.4474
 -14955460.70748 -11614846.73547  22658978.0324   22658978.2854   22658979.6824
     -1597.0194
 -13544612.77147 -10494291.49246  23416882.5174   23416882.0154   23416885.4794
      3313.9884
 -17807756.14548 -13826904.93547  21773203.4984   21773203.4414   21773205.2094
      2433.3424
 -10189020.32047  -7716662.26446  23979763.2514   23979763.3944   23979762.9324
      -587.4014
 -10245322.75947  -7973896.38246  23728459.4564   23728458.5934   23728459.8914
     -2074.3994
  -5582157.82847  -4296648.37046  24646869.0854   24646869.2394   24646869.7084
      3462.4694
 -32598024.12949 -25394739.47648  19764959.7614   19764959.4794   19764961.8864
       105.9804
 -22197705.94149 -17257080.38148  20848551.2764   20848551.4034   20848554.1384
       -53.1984
 -14850839.97148 -11549504.10247  22556564.3194   22556564.2964   22556566.7584
     -3249.6394
 10  1  5  1 56  0.0000000  0 11G12G01G17G30G26G22G18G14G09G27G15
 -25500542.82349 -19857718.24148  21044676.8274   21044677.0924   21044678.3514
      1726.8244
  -3162026.03247  -2447260.01446  23890687.7354   23890688.2244   23890690.6154
      3247.8034
 -14907286.46648 -11577308.35847  22668145.4054   22668146.0604   22668147.0784
     -1614.2054
 -13643936.13147 -10571686.28946  23397982.1064   23397982.0134   23397984.6144
      3307.8564
 -17880508.24448 -13883594.88147  21759358.8234   21759359.0424   21759361.0964
      2417.2294
 -10171150.18347  -7702737.49846  23983162.7454   23983162.8254   23983162.7694
      -603.8144
 -10182923.87847  -7925273.92146  23740333.4754   23740331.6894   23740333.1764
     -2085.2344
  -5685954.62446  -4377528.99746  24627116.5344   24627114.2964   24627116.4304
      3457.8894
 -32600978.49549 -25397041.58348  19764397.6624   19764397.3094   19764399.6944
        91.1894
 -22195977.01449 -17255733.17148  20848880.3794   20848880.3634   20848882.7564
       -61.6794
 -14753209.27348 -11473428.23647  22575142.7584   22575143.0894   22575144.9414
     -3258.9034
 10  1  5  1 56 30.0000000  0 11G12G01G17G30G26G22G18G14G09G27G15
 -25552151.24449 -19897932.58348  21034856.0964   21034856.5394   21034857.6604
      1714.0054
  -3259370.33147  -2523112.67846  23872163.9314   23872164.3244   23872167.2434
      3242.1494
 -14858601.32048 -11539371.88247  22677409.8824   22677409.8064   22677411.6724
     -1630.9834
 -13743078.84247 -10648940.33146  23379115.4424   23379116.0824   23379118.7204
      3301.8094
 -17952777.83848 -13939908.85847  21745606.6574   21745606.6304   21745608.4864
      2400.9634
 -10152790.07347  -7688430.97046  23986657.2184   23986658.3554   23986657.9984
      -620.1754
 -10120206.17047  -7876403.02146  23752267.2654   23752267.2524   23752270.9744
     -2095.8304
  -5789599.17446  -4458290.99846  24607393.7104   24607393.8304   24607394.1344
      3452.7214
 -32603492.51349 -25399000.55948  19763919.0414   19763918.9874   19763921.5744
        76.5954
 -22193994.22449 -17254188.14348  20849257.8654   20849257.5374   20849260.3124
       -70.3874
 -14655301.96748 -11397136.83847  22593773.8374   22593774.3004   22593776.6454
     -3268.0204
 10  1  5  1 57  0.0000000  0 11G12G01G17G30G26G22G18G14G09G27G15
 -25603373.45649 -19937845.98848  21025108.9584   21025109.1614   21025110.5084
      1701.2264
  -3356541.46447  -2598830.40746  23853672.6734   23853672.9864   23853675.6404
      3236.2864
 -14809405.09248 -11501037.15947  22686771.6454   22686772.2374   22686773.4274
     -1648.2764
 -13842038.31147 -10726051.57546  23360283.9844   23360284.2364   23360286.9944
      3295.7544
 -18024560.61248 -13995843.48547  21731946.5474   21731947.0924   21731948.8594
      2384.8024
 -10133939.58347  -7673742.28046  23990242.7324   23990244.7814   23990245.6334
      -636.2564
 -10057171.20747  -7827284.89946  23764262.1234   23764262.3284   23764264.2654
     -2106.2304
  -5893087.16146  -4538930.99446  24587700.1974   24587698.5754   24587699.7794
      3446.9554
 -32605563.30749 -25400614.16848  19763524.8804   19763524.8684   19763527.3514
        61.8234
 -22191755.14049 -17252443.40848  20849683.9744   20849683.7624   20849686.4234
       -78.7564
 -14557118.70948 -11320630.41247  22612457.3904   22612457.1694   22612460.0414
     -3277.1554
 10  1  5  1 57 30.0000000  0 11G12G01G17G30G26G22G18G14G09G27G15
 -25654211.44349 -19977459.99648  21015434.7544   21015435.0394   21015436.4304
      1688.0924
  -3453540.86947  -2674414.32346  23835214.5174   23835213.9704   23835217.2564
      3230.4884
 -14759701.69148 -11462307.23647  22696230.0314   22696229.6894   22696231.8694
     -1665.4354
 -13940815.40447 -10803020.70346  23341487.2244   23341487.4104   23341490.7574
      3289.5844
 -18095856.13548 -14051398.44247  21718379.5934   21718378.9764   21718381.7714
      2368.1354
 -10114602.32147  -7658674.29546  23993924.5444   23993922.3924   23993923.9564
      -652.6994
  -9993824.00347  -7777923.47446  23776317.1524   23776316.0684   23776319.5864
     -2116.9644
  -5996418.47546  -4619448.92246  24568036.8434   24568036.8864   24568038.3414
      3442.0084
 -32607192.53349 -25401883.69748  19763214.9444   19763214.6724   19763217.3334
        46.8544
 -22189261.40749 -17250500.23948  20850158.3514   20850158.1274   20850160.8394
       -87.4224
 -14458664.39048 -11243912.76847  22631192.9364   22631192.4154   22631194.8024
     -3286.1554
 10  1  5  1 58  0.0000000  0 11G12G01G17G30G26G22G18G14G09G27G15
 -25704661.58949 -20016771.79248  21005834.4814   21005834.6434   21005835.9604
      1675.1364
  -3550364.05247  -2749860.92446  23816789.8194   23816790.1024   23816791.3244
      3224.3564
 -14709489.46848 -11423180.82747  22705784.7754   22705785.0844   22705787.0904
     -1682.2074
 -14039406.01847 -10879844.52446  23322726.2914   23322727.8994   23322728.8254
      3283.1894
 -18166658.27948 -14106568.94647  21704906.3974   21704905.7234   21704908.6434
      2351.7394
 -10094776.05147  -7643225.28346  23997695.4884   23997697.1044   23997696.0114
      -669.3564
  -9930163.99147  -7728318.28846  23788431.1174   23788432.1214   23788433.1264
     -2127.1004
  -6099587.15746  -4699840.08646  24548404.7744   24548403.3044   24548405.9234
      3436.4194
 -32608376.49249 -25402806.26448  19762989.6034   19762989.6624   19762992.0734
        31.9484
 -22186508.86949 -17248355.40948  20850682.1714   20850681.7324   20850684.8794
       -96.0884
 -14359937.27848 -11166982.55647  22649979.8824   22649980.0734   22649981.9844
     -3295.4164
 10  1  5  1 58 30.0000000  0 11G12G01G17G30G26G22G18G14G09G27G15
 -25754726.98349 -20055783.78348  20996307.3174   20996307.4504   20996308.6374
      1661.8734
  -3647013.17147  -2825171.90846  23798397.7364   23798397.5894   23798401.4394
      3218.2594
 -14658773.29348 -11383661.73847  22715435.8994   22715436.1154   22715437.2694
     -1699.2274
 -14137812.19848 -10956524.65446  23304000.4684   23304001.5304   23304003.6644
      3276.5124
 -18236967.65348 -14161355.47847  21691526.8094   21691526.3924   21691529.6704
      2334.8254
 -10074465.68647  -7627399.03646  24001562.5454   24001561.7724   24001561.2654
      -685.5584
  -9866196.95447  -7678473.86246  23800605.0834   23800603.4994   23800605.0454
     -2137.7954
  -6202593.98247  -4780105.11846  24528803.4044   24528805.1704   24528805.8564
      3430.3714
 -32609117.67249 -25403383.81148  19762848.6124   19762848.4934   19762850.9934
        16.6964
 -22183500.05049 -17246010.88248  20851254.8274   20851254.7334   20851257.4044
      -105.0464
 -14260942.91048 -11089844.10247  22668817.7584   22668817.9534   22668820.0554
     -3304.8264
 10  1  5  1 59  0.0000000  0 11G12G01G17G30G26G22G18G14G09G27G15
 -25804408.81149 -20094496.88748  20986853.2724   20986853.3054   20986854.4574
      1649.2954
  -3743488.20847  -2900347.23446  23780039.2734   23780039.3394   23780042.0674
      3212.4144
 -14607556.17348 -11343752.29147  22725182.0484   22725182.8804   22725184.0384
     -1715.8914
 -14236033.75548 -11033060.91546  23285309.6384   23285310.9454   23285311.7294
      3270.8794
 -18306782.93148 -14215756.99747  21678241.7254   21678241.4774   21678243.8504
      2318.5504
 -10053673.38048  -7611197.27246  24005519.7044   24005519.6704   24005519.3144
      -701.9054
  -9801927.09047  -7628393.46146  23812833.3884   23812835.3434   23812835.1854
     -2147.7174
  -6305437.53047  -4860242.94546  24509232.6784   24509232.8754   24509231.9404
      3425.1354
 -32609416.46849 -25403616.64248  19762792.0484   19762791.7334   19762793.8794
         2.1834
 -22180235.24549 -17243466.88248  20851875.9824   20851875.7124   20851878.7454
      -113.3944
 -14161684.95048 -11012500.24847  22687706.0994   22687705.8964   22687708.0124
     -3313.3814
 10  1  5  1 59 30.0000000  0 11G12G01G17G30G26G22G18G14G09G27G15
 -25853701.51249 -20132906.77348  20977473.0834   20977473.3254   20977474.4644
      1636.4624
  -3839783.77947  -2975382.72146  23761714.3934   23761714.6884   23761717.9554
      3206.5534
 -14555835.22248 -11303450.24847  22735024.4164   22735024.4174   22735025.9264
     -1732.6214
 -14334065.30048 -11109449.10146  23266654.7734   23266654.2854   23266656.7314
      3264.4664
 -18376096.87048 -14269767.86447  21665051.3884   21665051.9344   21665054.2654
      2302.0214
 -10032396.06347  -7594617.56446  24009566.0784   24009567.5824   24009568.5704
      -717.3044
  -9737352.70147  -7578075.78046  23825122.7164   23825121.4844   23825124.9344
     -2157.6794
  -6408110.83647  -4940248.11746  24489694.4724   24489694.8004   24489696.3024
      3419.4924
 -32609267.98949 -25403500.94748  19762820.0504   19762819.8594   19762822.2504
       -12.4994
 -22176709.28849 -17240719.38948  20852546.9394   20852546.8974   20852549.8354
      -121.9724
 -14062161.67148 -10934949.65147  22706644.8314   22706645.1184   22706646.7444
     -3321.9874
                            4  1
RINEX FILE SPLICE; other post-header comments skipped       COMMENT
 10  1  5  2  0  0.0000000  0 11G12G01G17G30G26G22G18G14G09G27G15
 -25902607.94749 -20171015.67048  20968166.4274   20968166.5784   20968167.8454
      1624.2914
  -3935901.45347  -3050279.58946  23743424.2294   23743424.4434   23743426.8074
      3201.4744
 -14503614.97748 -11262759.14947  22744961.7774   22744961.7074   22744963.3474
     -1748.5944
 -14431908.42248 -11185690.47646  23248035.5674   23248036.8044   23248038.0034
      3259.0734
 -18444909.89748 -14323388.40447  21651956.7854   21651956.8754   21651959.8034
      2285.9194
 -10010637.95547  -7577663.20146  24013708.7364   24013707.7394   24013707.4734
      -732.9174
  -9672479.39347  -7527525.16446  23837466.9084   23837466.5274   23837469.5054
     -2166.8894
  -6510613.99347  -5020120.70246  24470189.0804   24470189.0424   24470189.8724
      3414.5574
 -32608674.74349 -25403038.67948  19762932.9914   19762932.9634   19762935.3974
       -26.6244
 -22172924.14849 -17237769.93448  20853267.0424   20853267.1324   20853269.8794
      -130.0604
 -13962377.35548 -10857195.65047  22725633.2804   22725633.5824   22725635.2854
     -3329.9614
 10  1  5  2  0 30.0000000  0 11G12G01G17G30G26G22G18G14G09G27G15
 -25951129.10749 -20208824.35048  20958933.1304   20958933.2924   20958934.4114
      1611.2004
  -4031841.64247  -3125038.15346  23725167.2024   23725167.6144   23725169.7094
      3195.3164
 -14450898.29048 -11221681.20247  22754993.2924   22754993.7194   22754994.8154
     -1765.1634
 -14529563.11148 -11261785.03046  23229452.4534   23229452.6694   23229454.9614
      3251.9864
 -18513220.37548 -14376617.35447  21638958.0334   21638958.0044   21638960.3604
      2268.9704
  -9988401.69947  -7560336.26546  24017937.4214   24017940.5504   24017941.4884
      -749.0054
  -9607310.92847  -7476744.54946  23849867.6154   23849867.5844   23849870.5124
     -2176.6744
  -6612945.69647  -5099859.68746  24450715.1354   24450715.1704   24450717.0844
      3408.7524
 -32607636.98949 -25402230.04448  19763130.3734   19763130.3814   19763132.8024
       -41.7654
 -22168880.32949 -17234618.91248  20854036.7214   20854036.8104   20854039.5724
      -138.8334
 -13862335.73648 -10779241.15047  22744670.1904   22744670.4844   22744673.4844
     -3338.6034
 10  1  5  2  1  0.0000000  0 11G12G01G17G30G26G22G18G14G09G27G15
 -25999263.09049 -20246331.33548  20949773.7074   20949773.7154   20949775.0964
      1597.6404
  -4127601.25047  -3199656.00046  23706944.4134   23706944.4624   23706947.9484
      3188.6694
 -14397685.12448 -11180216.39847  22765119.0364   22765119.1214   22765120.7894
     -1782.4794
 -14627026.19347 -11337730.26646  23210905.5764   23210906.3784   23210910.3074
      3245.5834
 -18581023.81448 -14429451.20247  21626055.0794   21626055.1914   21626057.6454
      2251.1394
  -9965686.68847  -7542636.27846  24022262.7584   24022262.8244   24022261.5524
      -765.4444
  -9541848.28547  -7425734.73146  23862326.1304   23862325.2324   23862326.1134
     -2187.6914
  -6715101.21047  -5179461.36546  24431276.8684   24431275.9644   24431279.8234
      3401.8544
 -32606152.03649 -25401072.94048  19763412.9654   19763412.8374   19763415.4044
       -57.3614
 -22164575.05349 -17231264.15348  20854856.0554   20854855.7074   20854858.6624
      -148.2424
 -13762037.39448 -10701086.60747  22763756.6614   22763756.8954   22763758.7804
     -3347.8494
 10  1  5  2  1 30.0000000  0 11G12G01G17G30G26G22G18G14G09G27G15
 -26047008.79549 -20283535.76948  20940687.8724   20940688.0374   20940689.0744
      1584.1594
  -4223178.85247  -3274132.02846  23688756.6764   23688757.7024   23688758.9624
      3181.9504
 -14343976.82448 -11138365.77547  22775339.7934   22775339.7134   22775341.5574
     -1799.4644
 -14724296.24548 -11413525.09446  23192396.0474   23192396.2464   23192398.7774
      3238.0404
 -18648317.20848 -14481887.61447  21613249.9654   21613250.2574   21613251.9764
      2233.7944
  -9942493.86047  -7524563.93946  24026674.7234   24026675.6844   24026674.9914
      -781.9204
  -9476093.85847  -7374497.53846  23874838.1534   23874837.7964   23874840.1104
     -2197.7024
  -6817077.47347  -5258923.38146  24411871.5594   24411870.4614   24411872.6624
      3395.4904
 -32604218.71149 -25399566.45448  19763780.9874   19763780.7194   19763783.4114
       -72.9064
 -22160007.11749 -17227704.72948  20855725.2244   20855725.1244   20855728.0804
      -157.5504
 -13661484.09648 -10622733.40247  22782891.1834   22782891.8044   22782894.0014
     -3356.9534
 10  1  5  2  2  0.0000000  0 11G12G01G17G30G26G22G18G14G09G27G15
 -26094364.83049 -20320436.56348  20931676.1524   20931676.6324   20931677.6714
      1572.0034
  -4318571.33547  -3348463.80346  23670604.5624   23670605.3314   23670607.2654
      3176.9004
 -14289773.46448 -11096129.39547  22785654.0214   22785654.2614   22785655.5014
     -1814.8554
 -14821370.67548 -11489167.47146  23173923.2394   23173922.5604   23173925.4634
      3232.4494
 -18715096.45548 -14533923.39347  21600542.4914   21600542.3674   21600544.1824
      2217.3384
  -9918823.14747  -7506119.25046  24031180.3764   24031179.2484   24031180.2864
      -797.0584
  -9410048.78847  -7323033.86646  23887405.9074   23887405.1854   23887407.0964
     -2206.2714
  -6918870.67447  -5338242.75946  24392500.4194   24392498.4594   24392500.5704
      3390.1754
 -32601835.27649 -25397709.23448  19764234.5854   19764234.5414   19764236.8164
       -86.9464
 -22155174.03849 -17223938.69748  20856645.0684   20856644.9884   20856647.4794
      -165.5294
 -13560676.62648 -10544182.13047  22802074.2384   22802074.7534   22802076.4354
     -3364.5174
 10  1  5  2  2 30.0000000  0 11G12G01G17G30G26G22G18G14G09G27G15
 -26141336.78549 -20357038.07548  20922737.8514   20922737.9724   20922739.2094
      1558.9534
  -4413783.97047  -3422655.45747  23652486.2874   23652485.6774   23652488.8574
      3170.4664
 -14235082.84948 -11053513.32547  22796061.2984   22796061.2564   22796063.4714
     -1831.5134
 -14918254.35748 -11564661.23446  23155486.8864   23155487.0604   23155489.3474
      3225.7894
 -18781365.02448 -14585561.23447  21587931.6364   21587932.0744   21587934.4914
      2200.3024
  -9894682.02947  -7487308.00246  24035771.7474   24035773.5254   24035774.9174
      -812.8394
  -9343722.25547  -7271350.87746  23900027.7424   23900028.3934   23900029.5384
     -2215.9444
  -7020483.97547  -5417421.94346  24373163.3824   24373162.0424   24373163.9184
      3383.6484
 -32599007.10749 -25395505.46948  19764772.7164   19764772.5084   19764775.2034
      -101.9854
 -22150081.18849 -17219970.24548  20857614.1634   20857614.0994   20857616.8524
      -174.4154
 -13459623.28548 -10465439.27947  22821304.0674   22821304.3884   22821306.5624
     -3372.8174
 10  1  5  2  3  0.0000000  0 11G12G01G17G30G26G22G18G14G09G27G15
 -26187920.01249 -20393336.68948  20913873.4724   20913873.7484   20913875.0264
      1546.1574
  -4508811.33547  -3496702.71846  23634402.8464   23634402.7934   23634405.3834
      3164.4514
 -14179902.26948 -11010515.46747  22806561.7894   22806561.8534   22806564.2274
     -1847.7094
 -15014941.41948 -11640001.77146  23137088.1484   23137087.8314   23137089.6834
      3219.6904
 -18847115.65448 -14636795.48847  21575419.9294   21575420.6324   21575421.9124
      2182.8434
  -9870067.33947  -7468127.74546  24040457.2674   24040457.4444   24040457.5594
      -828.5494
  -9277112.38947  -7219447.10346  23912702.8414   23912701.6934   23912705.6784
     -2225.2584
  -7121910.27247  -5496455.40346  24353862.3044   24353863.8844   24353864.5684
      3377.7064
 -32595729.02649 -25392951.12348  19765396.4784   19765396.1734   19765398.8414
      -116.9104
 -22144723.43449 -17215795.37848  20858633.7824   20858633.5474   20858636.4644
      -183.1444
 -13358321.97548 -10386503.20347  22840581.1314   22840581.1164   22840582.9514
     -3380.9464
 10  1  5  2  3 30.0000000  0 11G12G01G17G30G26G22G18G14G09G27G15
 -26234113.39649 -20429331.52648  20905082.8854   20905083.1864   20905084.4244
      1532.9804
  -4603651.60648  -3570604.20946  23616355.3874   23616355.9944   23616358.4774
      3157.7784
 -14124232.91248 -10967136.75447  22817155.4504   22817155.4704   22817157.4024
     -1863.9414
 -15111430.39548 -11715187.96846  23118726.5304   23118727.6744   23118730.2094
      3212.7634
 -18912345.17248 -14687623.68247  21563007.2094   21563007.5514   21563009.7244
      2165.3194
  -9844979.76147  -7448578.99346  24045230.6924   24045232.4184   24045232.4704
      -844.2864
  -9210221.15347  -7167324.09346  23925432.3244   23925431.1774   23925433.3364
     -2234.8504
  -7223146.10547  -5575340.48346  24334599.2634   24334598.1314   24334599.1124
      3371.1414
 -32591999.69949 -25390045.15848  19766106.2014   19766106.0414   19766108.5244
      -132.1064
 -22139099.17449 -17211412.84348  20859704.0674   20859703.9274   20859706.6134
      -192.2254
 -13256774.35048 -10307375.18947  22859905.1804   22859905.2184   22859906.9824
     -3389.3654
 10  1  5  2  4  0.0000000  0 11G12G01G17G30G26G22G18G14G09G27G15
 -26279920.88449 -20465025.67348  20896366.0784   20896366.3654   20896367.4954
      1520.5194
  -4698307.73247  -3644362.20146  23598343.1374   23598343.4064   23598345.3104
      3152.1994
 -14068080.38048 -10923381.53247  22827840.6964   22827841.2204   22827842.9584
     -1879.7644
 -15207723.95448 -11790221.90846  23100402.4804   23100403.2724   23100404.6754
      3206.4494
 -18977055.06448 -14738046.97547  21550693.3574   21550693.0534   21550695.9564
      2148.4804
  -9819424.81447  -7428666.02746  24050095.8914   24050094.0114   24050094.0864
      -859.6084
  -9143055.48147  -7114987.25546  23938213.5594   23938213.9084   23938215.2024
     -2243.7414
  -7324192.69747  -5654078.09046  24315370.1394   24315369.0484   24315370.3384
      3365.1564
 -32587822.56249 -25386790.25148  19766900.9194   19766900.5924   19766903.5214
      -146.6254
 -22133211.68649 -17206825.19748  20860824.3114   20860824.4084   20860827.0814
      -200.5494
 -13154986.35948 -10228059.88947  22879274.4864   22879274.4154   22879276.5634
     -3396.7584
 10  1  5  2  4 30.0000000  0 11G12G01G17G30G26G22G18G14G09G27G15
 -26325336.37849 -20500414.36748  20887723.9544   20887723.9854   20887725.3834
      1507.5714
  -4792772.86348  -3717971.37846  23580366.8134   23580367.2684   23580369.4014
      3146.1564
 -14011441.13348 -10879247.06147  22838618.7804   22838619.1404   22838620.6504
     -1895.9334
 -15303815.04348 -11865098.06446  23082117.4904   23082117.8614   23082119.9534
      3199.8024
 -19041237.01148 -14788058.88347  21538479.7674   21538479.7244   21538481.4934
      2130.6314
  -9793398.35647  -7408385.68846  24055047.2754   24055047.3514   24055048.6454
      -874.7404
  -9075612.81747  -7062434.58446  23951047.3614   23951047.6224   23951047.7104
     -2252.5424
  -7425042.31447  -5732662.18646  24296178.5594   24296178.2284   24296180.5824
      3358.7564
 -32583191.23449 -25383181.42548  19767782.1754   19767782.1584   19767784.5474
      -161.7274
 -22127054.50849 -17202027.39948  20861996.0314   20861995.9274   20861998.5674
      -209.6014
 -13052954.98648 -10148554.93347  22898690.6364   22898691.1774   22898692.6924
     -3404.8664
 10  1  5  2  5  0.0000000  0 11G12G01G17G30G26G22G18G14G09G27G15
 -26370369.97949 -20535505.47648  20879154.2424   20879154.4654   20879155.5334
      1494.9154
  -4887056.23347  -3791438.90647  23562425.4524   23562424.6234   23562427.7804
      3139.8054
 -13954326.94848 -10834742.50147  22849487.1614   22849487.9044   22849488.8594
     -1911.6264
 -15399712.74348 -11939823.52446  23063868.6454   23063868.4304   23063871.6674
      3193.5174
 -19104898.57748 -14837665.29647  21526365.2724   21526365.6014   21526367.2414
      2113.3764
  -9766912.01247  -7387746.98246  24060087.6304   24060087.3844   24060086.9854
      -890.4914
  -9007905.69447  -7009675.81546  23963931.7094   23963930.7564   23963933.5754
     -2261.3044
  -7525701.91447  -5811098.22746  24277024.8164   24277023.0544   24277024.8534
      3352.3324
 -32578115.29049 -25379226.14948  19768748.3154   19768748.2344   19768750.4894
      -176.5224
 -22120636.98149 -17197026.73548  20863217.0974   20863216.8654   20863219.7554
      -218.2024
 -12950692.18248 -10068869.64547  22918150.5764   22918150.3564   22918152.6174
     -3412.4404
 10  1  5  2  5 30.0000000  0 11G12G01G17G30G26G22G18G14G09G27G15
 -26415011.77149 -20570291.28148  20870659.2664   20870659.5004   20870660.5854
      1481.4514
  -4981146.70847  -3864756.12547  23544520.4404   23544520.3974   23544523.3444
      3133.1824
 -13896729.81948 -10789861.61747  22860447.8104   22860448.2554   22860449.9014
     -1928.0624
 -15495406.20548 -12014389.83046  23045658.9234   23045659.5484   23045661.4564
      3186.5144
 -19168027.62248 -14886856.75947  21514352.3264   21514352.4894   21514354.0844
      2095.4324
  -9739957.53747  -7366743.51146  24065217.7554   24065216.4174   24065216.2104
      -906.3454
  -8939927.25347  -6956705.63846  23976867.2774   23976867.2174   23976869.1904
     -2270.0664
  -7626159.07646  -5889376.52946  24257907.2344   24257906.7564   24257907.4054
      3345.1034
 -32572584.42649 -25374916.38948  19769800.6744   19769800.6434   19769803.1874
      -192.0394
 -22113948.04849 -17191814.58448  20864490.0824   20864489.7144   20864492.7574
      -227.5764
 -12848191.07248  -9988998.65947  22937655.8194   22937656.7494   22937658.3734
     -3420.7414
 10  1  5  2  6  0.0000000  0 11G12G01G17G30G26G22G18G14G09G27G15
 -26459264.29549 -20604773.76048  20862238.2194   20862238.4984   20862239.5944
      1468.4944
  -5075046.71547  -3937924.93147  23526651.9034   23526651.4174   23526653.3874
      3126.8024
 -13838654.58648 -10744608.18047  22871499.5534   22871499.8164   22871500.6334
     -1943.9084
 -15590897.42248 -12088798.54846  23027487.1474   23027488.8214   23027487.4664
      3179.6124
 -19230624.46348 -14935633.51547  21502440.4384   21502440.5274   21502442.6444
      2077.5824
  -9712539.56447  -7345378.88646  24070434.3974   24070434.5934   24070434.2574
      -921.6484
  -8871683.35847  -6903528.61046  23989853.7404   23989854.0774   23989855.8654
     -2279.1964
  -7726414.20347  -5967497.39046  24238829.7614   24238830.5144   24238832.3814
      3338.3644
 -32566601.76149 -25370254.57448  19770939.0754   19770938.9444   19770941.5004
      -207.0484
 -22106990.25549 -17186392.93248  20865814.2084   20865814.0084   20865816.8354
      -236.5074
 -12745456.34548  -9908945.63647  22957205.8164   22957205.7444   22957207.6974
     -3428.2884
 10  1  5  2  6 30.0000000  0 11G12G01G17G30G26G22G18G14G09G27G15
 -26503130.14349 -20638954.93448  20853890.7734   20853890.8924   20853892.1814
      1455.9334
  -5168757.16747  -4010946.05347  23508819.4224   23508820.1944   23508822.5484
      3120.7984
 -13780105.39548 -10698985.42947  22882640.9314   22882641.7384   22882642.2214
     -1959.2564
 -15686187.13748 -12163050.25646  23009353.9214   23009354.0344   23009358.2714
      3173.0544
 -19292689.03448 -14983995.51847  21490629.9164   21490629.9364   21490631.6494
      2059.9394
  -9684661.88847  -7323656.02846  24075740.3824   24075738.5424   24075739.5714
      -936.5984
  -8803179.02247  -6850148.62346  24002889.3494   24002888.7074   24002891.5674
     -2287.2464
  -7826466.89447  -6045460.52746  24219790.1164   24219789.4934   24219791.1814
      3331.8354
 -32560168.45249 -25365241.61048  19772163.4634   19772163.4554   19772165.9174
      -221.8154
 -22099765.16249 -17180762.99648  20867188.9324   20867188.9194   20867191.7814
      -245.0524
 -12642492.71448  -9828714.24947  22976798.8844   22976799.0004   22976801.7054
     -3435.6594
 10  1  5  2  7  0.0000000  0 11G12G01G17G30G26G22G18G14G09G27G15
 -26546607.41449 -20672833.31948  20845617.4674   20845617.7054   20845618.6344
      1442.8594
  -5262275.34847  -4083817.32547  23491023.2594   23491023.3054   23491026.1534
      3114.3544
 -13721082.59148 -10652993.63347  22893872.1514   22893872.1134   22893874.0854
     -1975.2174
 -15781272.94848 -12237143.06847  22991259.9424   22991259.3214   22991262.1934
      3166.2064
 -19354217.03348 -15031939.41147  21478921.6134   21478921.6014   21478923.3884
      2042.1954
  -9656324.57947  -7301575.07846  24081132.2984   24081132.5144   24081131.6114
      -952.1144
  -8734415.59947  -6796566.75546  24015974.7344   24015974.3374   24015977.0334
     -2296.2844
  -7926312.86947  -6123262.57546  24200790.4094   24200789.3254   24200791.8704
      3324.8924
 -32553282.30549 -25359875.78348  19773473.6874   19773473.5554   19773475.9324
      -236.8124
 -22092270.25649 -17174922.81448  20868615.1504   20868615.1364   20868617.8404
      -254.1904
 -12539301.11348  -9748305.22047  22996435.7934   22996435.4864   22996438.1004
     -3443.3214
 10  1  5  2  7 30.0000000  0 11G12G01G17G30G26G22G18G14G09G27G15
 -26589694.11249 -20706407.36348  20837418.3064   20837418.4854   20837419.5204
      1430.3704
  -5355598.78047  -4156536.87347  23473264.4424   23473264.6094   23473265.7574
      3108.2214
 -13661586.59148 -10606633.10547  22905194.2914   22905194.1034   22905195.8614
     -1990.5204
 -15876152.09348 -12311074.84946  22973205.1564   22973205.5924   22973208.1924
      3159.8724
 -19415204.64048 -15079462.22147  21467315.8414   21467315.9934   21467318.2794
      2024.4424
  -9627527.66447  -7279135.94846  24086610.0014   24086612.3664   24086613.2084
      -966.7334
  -8665394.28547  -6742783.92246  24029109.6054   24029109.3784   24029111.4624
     -2304.1564
  -8025947.78347  -6200900.16846  24181830.0044   24181829.9234   24181830.6594
      3318.3364
 -32545941.03449 -25354155.31948  19774870.8894   19774870.8534   19774873.3034
      -251.6094
 -22084502.96549 -17168870.38648  20870093.4714   20870093.2744   20870096.1674
      -262.8134
 -12435882.47048  -9667719.27547  23016115.6454   23016115.9584   23016117.5804
     -3450.3604
 10  1  5  2  8  0.0000000  0 11G12G01G17G30G26G22G18G14G09G27G15
 -26632392.95949 -20739679.18148  20829292.8514   20829292.9184   20829294.1044
      1416.4654
  -5448729.31847  -4229106.09547  23455542.4754   23455543.1464   23455543.4364
      3100.6914
 -13601622.05748 -10559907.49747  22916604.6364   22916605.0914   22916606.4744
     -2007.2034
 -15970826.21848 -12384846.85347  22955189.2594   22955188.6014   22955189.5894
      3152.0604
 -19475652.01048 -15126564.07147  21455813.1064   21455813.4494   21455815.7074
      2005.5684
  -9598275.43847  -7256342.02746  24092177.3004   24092178.9424   24092178.4994
      -982.6584
  -8596120.85847  -6688804.64946  24042291.2024   24042290.6474   24042293.5174
     -2314.0804
  -8125371.74247  -6278373.36046  24162910.5214   24162909.7704   24162911.0984
      3310.6174
 -32538147.43949 -25348082.39348  19776353.8484   19776353.6904   19776356.3454
      -267.6584
 -22076465.48149 -17162607.41948  20871622.8294   20871622.7174   20871625.5534
      -272.7444
 -12332241.57448  -9586960.14547  23035837.9894   23035838.0954   23035840.2714
     -3458.8184
 10  1  5  2  8 30.0000000  0 11G12G01G17G30G26G22G18G14G09G27G15
 -26674702.15149 -20772647.37748  20821241.8994   20821242.0534   20821243.0684
      1402.9924
  -5541663.99348  -4301522.70547  23437857.3214   23437856.7954   23437860.1364
      3093.8574
 -13541189.05748 -10512816.85147  22928105.3354   22928104.4384   22928106.8214
     -2022.8794
 -16065292.26048 -12458456.72847  22937212.7464   22937213.7524   22937215.6784
      3144.6074
 -19535555.05548 -15173241.77047  21444414.1644   21444414.1104   21444416.1424
      1986.8294
  -9568567.49347  -7233193.04046  24097831.1934   24097833.0804   24097831.2534
      -998.7904
  -8526595.83847  -6634629.31646  24055522.7114   24055520.8294   24055521.8564
     -2322.1604
  -8224580.09647  -6355678.55846  24144032.2404   24144032.1794   24144034.3074
      3303.0834
 -32529898.83949 -25341654.91348  19777923.5824   19777923.4994   19777925.9244
      -283.4514
 -22068155.14949 -17156131.84548  20873204.1484   20873204.2244   20873206.6774
      -282.1744
 -12228378.90148  -9506028.20547  23055602.4434   23055602.5154   23055605.1944
     -3466.7014
 10  1  5  2  9  0.0000000  0 11G12G01G17G30G26G22G18G14G09G27G15
 -26716622.20049 -20805312.34448  20813264.5644   20813264.9034   20813265.9934
      1390.0514
  -5634403.03448  -4373786.87847  23420209.8714   23420210.6614   23420212.2294
      3087.1394
 -13480290.58948 -10465363.49547  22939693.7514   22939693.8564   22939694.6824
     -2038.5374
 -16159550.54648 -12531904.72947  22919275.9574   22919275.3844   22919278.6474
      3137.7724
 -19594912.48348 -15219494.31947  21433118.6894   21433119.1514   21433120.7804
      1968.4524
  -9538407.01147  -7209691.37746  24103569.3284   24103568.9434   24103569.1864
     -1013.6514
  -8456823.92247  -6580261.61146  24068798.6694   24068797.9224   24068801.1884
     -2331.0024
  -8323571.32847  -6432814.58246  24125193.8444   24125193.5134   24125195.4184
      3295.4234
 -32521196.01549 -25334873.50148  19779579.7514   19779579.5314   19779582.0664
      -298.5424
 -22059572.42749 -17149444.01048  20874837.5124   20874837.6584   20874840.0014
      -291.4194
 -12124298.11048  -9424926.29847  23075408.0814   23075409.1414   23075409.5544
     -3473.6684
 10  1  5  2  9 30.0000000  0 11G12G01G17G30G26G22G18G14G09G27G15
 -26758156.16349 -20837676.47148  20805361.0384   20805361.1924   20805362.4224
      1377.5434
  -5726947.99348  -4445899.81647  23402599.0824   23402598.9344   23402602.3164
      3081.1854
 -13418931.27648 -10417551.03747  22951369.8374   22951369.3534   22951372.5744
     -2053.4424
 -16253602.57748 -12605192.00147  22901378.5354   22901379.2114   22901380.3894
      3131.1834
 -19653724.30748 -15265321.71947  21421927.1994   21421927.0924   21421929.0304
      1950.8384
  -9507798.00647  -7185840.26846  24109396.3864   24109396.2304   24109395.3374
     -1027.9864
  -8386810.28247  -6525705.54046  24082122.3634   24082121.9414   24082124.3004
     -2338.2524
  -8422345.51947  -6509781.45646  24106397.8694   24106397.2734   24106399.9754
      3288.1634
 -32512040.75649 -25327739.54048  19781321.9074   19781321.7504   19781324.0724
      -313.2454
 -22050719.06349 -17142545.29048  20876522.1194   20876521.9724   20876524.7464
      -299.9524
 -12020004.17148  -9343658.30647  23095254.7504   23095255.2144   23095256.2264
     -3480.4314
 10  1  5  2 10  0.0000000  0 11G12G01G17G30G26G22G18G14G09G27G15
 -26799298.45449 -20869735.39348  20797531.8294   20797532.0584   20797533.0954
      1365.1924
  -5819292.39348  -4517856.47847  23385026.2594   23385026.5714   23385029.2524
      3075.0834
 -13357107.95848 -10369377.02247  22963134.1724   22963134.2794   22963137.0914
     -2068.1104
 -16347441.92648 -12678313.55647  22883521.4284   22883521.6034   22883524.5914
      3124.5804
 -19711983.16148 -15310718.23247  21410840.8584   21410841.0684   21410843.2684
      1933.0324
  -9476737.02547  -7161636.93246  24115305.8954   24115306.7434   24115305.9344
     -1042.4194
  -8316552.64547  -6470959.31946  24095491.5534   24095491.4114   24095494.1944
     -2345.4644
  -8520894.79947  -6586573.08546  24087644.7564   24087644.9304   24087646.0934
      3281.5894
 -32502427.71849 -25320248.86648  19783151.2514   19783151.1914   19783153.6194
      -327.6424
 -22041589.10649 -17135431.04248  20878259.4874   20878259.3564   20878262.3814
      -308.6584
 -11915493.97848  -9262221.79747  23115142.2104   23115142.3404   23115144.7774
     -3486.9004
 10  1  5  2 10 30.0000000  0 11G12G01G17G30G26G22G18G14G09G27G15
 -26840052.40549 -20901491.71348  20789776.6394   20789776.8154   20789778.0224
      1351.7404
  -5911438.76048  -4589658.82647  23367491.2044   23367492.2004   23367493.0674
      3068.1644
 -13294825.59548 -10320845.30047  22974986.4944   22974986.3374   22974988.1324
     -2083.9554
 -16441070.40748 -12751270.80547  22865704.8984   22865705.1884   22865706.8704
      3117.2734
 -19769689.57948 -15355684.27147  21399859.7144   21399859.6594   21399862.1714
      1914.0444
  -9445228.85947  -7137085.12646  24121300.8704   24121301.6834   24121302.2164
     -1058.1244
  -8246057.14247  -6416027.77546  24108906.4074   24108905.8014   24108907.3664
     -2354.0314
  -8619219.40147  -6663189.65946  24068934.5014   24068934.3374   24068935.2024
      3273.4144
 -32492359.34049 -25312403.38548  19785067.0694   19785066.9724   19785069.6084
      -343.5274
 -22032184.55449 -17128102.82748  20880049.1804   20880049.1424   20880051.7114
      -318.2854
 -11810773.13348  -9180621.15647  23135069.7944   23135069.7684   23135071.4144
     -3494.4214
 10  1  5  2 11  0.0000000  0 11G12G01G17G30G26G22G18G14G09G27G15
 -26880416.48249 -20932944.23948  20782095.5294   20782095.7984   20782096.8334
      1338.9364
  -6003384.60548  -4661304.92547  23349994.9154   23349994.9644   23349997.8164
      3061.5704
 -13232084.94448 -10271956.48447  22986925.3754   22986925.4424   22986927.6284
     -2099.1404
 -16534485.96048 -12824062.11747  22847927.9424   22847927.9674   22847929.9324
      3110.1984
 -19826839.97848 -15400217.05247  21388984.3384   21388984.4024   21388987.0694
      1895.6874
  -9413273.95347  -7112185.25446  24127384.3164   24127382.5464   24127382.7134
     -1072.8724
  -8175325.14047  -6360911.94046  24122365.5624   24122366.1864   24122368.8884
     -2361.7784
  -8717315.23947  -6739627.96846  24050267.8554   24050266.3084   24050268.9104
      3265.9654
 -32481833.98249 -25304201.81548  19787070.0514   19787069.8934   19787072.4874
      -358.4604
 -22022503.57149 -17120559.21048  20881891.2454   20881891.3134   20881893.9594
      -327.3544
 -11705842.75748  -9098857.23847  23155037.2564   23155037.4384   23155039.7354
     -3501.0974
 10  1  5  2 11 30.0000000  0 11G12G01G17G30G26G22G18G14G09G27G15
 -26920391.83449 -20964093.86548  20774488.5394   20774488.7514   20774489.7814
      1325.8764
  -6095130.23848  -4732795.00747  23332536.6284   23332535.9274   23332539.3734
      3054.5424
 -13168889.47548 -10222713.24447  22998951.6584   22998951.6094   22998952.9054
     -2114.2044
 -16627688.89948 -12896687.76447  22830192.2644   22830192.3134   22830195.0674
      3102.9624
 -19883433.34548 -15444315.78547  21378215.2644   21378215.1844   21378217.3034
      1877.0804
  -9380875.44947  -7086939.73446  24133546.6574   24133547.5554   24133548.6984
     -1087.4484
  -8104360.94247  -6305615.18346  24135870.9644   24135870.9114   24135870.9474
     -2369.3334
  -8815180.87547  -6815886.89446  24031644.2184   24031643.5064   24031645.8754
      3258.1204
 -32470852.51849 -25295644.83748  19789159.6874   19789159.5404   19789162.1254
      -373.8844
 -22012546.83949 -17112800.72548  20883786.1244   20883785.8864   20883788.6564
      -336.7624
 -11600706.50148  -9016932.89447  23175044.0394   23175045.4054   23175047.3984
     -3508.1614
 10  1  5  2 12  0.0000000  0 11G12G01G17G30G26G22G18G14G09G27G15
 -26959980.44049 -20994942.12448  20766955.0724   20766955.2404   20766956.3984
      1313.1734
  -6186676.54648  -4804129.78047  23315115.8854   23315115.4884   23315118.6684
      3048.1084
 -13105242.85448 -10173118.47047  23011062.9034   23011063.1354   23011064.4254
     -2129.0824
 -16720679.71548 -12969148.11247  22812496.5484   22812498.5494   22812499.9054
      3096.1234
 -19939469.04248 -15487979.96447  21367551.8794   21367552.1894   21367553.7644
      1858.4894
  -9348037.06047  -7061351.40246  24139797.1694   24139797.5244   24139798.1604
     -1101.6004
  -8033169.10747  -6250141.06846  24149417.7834   24149418.0614   24149418.0074
     -2376.9334
  -8912815.70847  -6891965.96846  24013065.2974   24013063.6944   24013066.6104
      3250.7594
 -32459416.69349 -25286733.80948  19791335.8554   19791335.4914   19791338.2664
      -388.8204
 -22002315.38649 -17104828.17248  20885733.1654   20885732.7214   20885735.8914
      -345.6474
 -11495368.44248  -8934851.30547  23195089.4794   23195090.1304   23195091.3474
     -3514.6374
 10  1  5  2 12 30.0000000  0 11G12G01G17G30G26G22G18G14G09G27G15
 -26999177.82749 -21025485.53448  20759496.2774   20759496.4534   20759497.5084
      1300.1744
  -6278018.39948  -4875305.23147  23297733.7384   23297733.5464   23297735.8774
      3041.4364
 -13041143.17648 -10123170.65847  23023260.9004   23023261.3854   23023262.6324
     -2144.0594
 -16813453.31448 -13041439.20247  22794842.1324   22794842.9174   22794844.6724
      3088.6694
 -19994940.75048 -15531204.67547  21356995.9704   21356996.1104   21356998.0494
      1839.5684
  -9314756.16847  -7035418.33046  24146128.3844   24146130.2004   24146130.5504
     -1116.4254
  -7961748.49847  -6194488.66146  24163008.5374   24163008.5564   24163010.4354
     -2384.1684
  -9010212.94747  -6967859.92146  23994531.8344   23994532.0334   23994532.2354
      3242.9004
 -32447521.38349 -25277464.74348  19793599.4514   19793599.3804   19793601.7364
      -404.0974
 -21991804.06549 -17096637.53848  20887733.4414   20887733.0554   20887735.8864
      -354.9514
 -11389826.89848  -8852611.14747  23215173.0654   23215172.8194   23215175.2634
     -3521.3794
 10  1  5  2 13  0.0000000  0 11G12G01G17G30G26G22G18G14G09G27G15
 -27037986.18449 -21055725.80348  20752111.0324   20752111.0534   20752112.4224
      1286.6164
  -6369157.18348  -4946322.44047  23280390.8904   23280390.6894   23280391.9924
      3034.0974
 -12976594.22248 -10072872.76347  23035544.2384   23035543.7274   23035545.4434
     -2159.6914
 -16906010.63448 -13113561.76747  22777228.9034   22777229.4144   22777230.5924
      3081.1844
 -20049848.28348 -15573989.76847  21346547.4834   21346547.6244   21346549.8684
      1820.2324
  -9281036.95747  -7009143.65946  24152545.7694   24152546.2764   24152546.4704
     -1132.0064
  -7890104.32447  -6138662.03946  24176641.6334   24176642.2894   24176643.6904
     -2392.1674
  -9107371.67147  -7043568.02546  23976041.8864   23976042.0384   23976043.8394
      3234.2004
 -32435168.05349 -25267838.78148  19795950.5224   19795950.2434   19795952.6214
      -419.8474
 -21981014.20549 -17088229.86048  20889786.5784   20889786.4404   20889789.3334
      -364.8204
 -11284086.14948  -8770215.77447  23235295.2254   23235294.9304   23235297.9064
     -3528.5504
 10  1  5  2 13 30.0000000  0 11G12G01G17G30G26G22G18G14G09G27G15
 -27076407.61749 -21085664.57348  20744799.6004   20744799.9624   20744800.9724
      1274.2424
  -6460093.79148  -5017182.13147  23263085.7784   23263086.3864   23263088.4614
      3027.7164
 -12911600.02548 -10022227.93747  23047911.7174   23047911.3194   23047913.5794
     -2173.9324
 -16998352.74848 -13185516.64447  22759657.0864   22759657.6044   22759658.4364
      3074.3694
 -20104191.50648 -15616335.13647  21336206.3784   21336206.1294   21336208.5124
      1801.9634
  -9246883.15547  -6982530.32946  24159047.6744   24159044.8084   24159046.4144
     -1145.6504
  -7818241.22647  -6082664.85646  24190316.7384   24190315.3114   24190321.2084
     -2398.9794
  -9204291.23247  -7119089.75646  23957598.6904   23957597.5064   23957601.3914
      3226.2654
 -32422358.72849 -25257857.49448  19798388.0164   19798387.7294   19798389.9944
      -434.6764
 -21969947.16349 -17079606.19648  20891892.5574   20891892.3324   20891895.0404
      -373.5594
 -11178150.81648  -8687668.76347  23255454.1474   23255455.1624   23255456.4164
     -3534.5234
 10  1  5  2 14  0.0000000  0 11G12G01G17G30G26G22G18G14G09G27G15
 -27114437.86249 -21115298.52048  20737562.8004   20737562.9854   20737564.0304
      1260.9514
  -6550822.80148  -5087880.03647  23245821.0374   23245821.1364   23245823.1034
      3020.7764
 -12846158.64548  -9971234.65047  23060364.8574   23060365.2224   23060366.7634
     -2189.0084
 -17090474.23748 -13257299.61547  22742127.0324   22742126.6764   22742129.7054
      3066.8304
 -20157963.88148 -15658235.69447  21325973.5004   21325973.3364   21325975.8874
      1782.6474
  -9212292.21047  -6955576.40946  24165627.7634   24165628.3794   24165630.7224
     -1160.2104
  -7746158.11647  -6026496.21946  24204034.4484   24204032.4434   24204035.9844
     -2406.3064
  -9300964.76247  -7194419.76446  23939202.9024   23939203.4894   23939205.4334
      3218.1684
 -32409089.28349 -25247517.67248  19800912.9364   19800912.9314   19800915.3364
      -450.0894
 -21958598.10449 -17070762.78048  20894052.1664   20894051.8624   20894054.8574
      -383.1594
 -11072018.80548  -8604968.50747  23275650.5354   23275650.6014   23275653.2534
     -3541.2294
 10  1  5  2 14 30.0000000  0 11G12G01G17G30G26G22G18G14G09G27G15
 -27152079.32049 -21144629.51748  20730399.7854   20730399.9104   20730401.0794
      1248.5304
  -6641345.72848  -5158417.34747  23228594.8484   23228594.2734   23228597.3674
      3014.4744
 -12780274.66248  -9919896.47947  23072902.0394   23072901.9444   23072903.8534
     -2203.2324
 -17182376.69448 -13328911.88647  22724638.4324   22724637.7694   22724642.0974
      3059.9984
 -20211165.81648 -15699691.74947  21315849.8894   21315849.6034   21315851.8434
      1764.2644
  -9177268.42747  -6928285.20346  24172294.7814   24172293.7604   24172292.0184
     -1174.3984
  -7673860.27247  -5970160.23446  24217791.9124   24217791.3084   24217794.9474
     -2412.9284
  -9397391.83547  -7269557.73446  23920852.3014   23920852.2534   23920855.1424
      3210.3214
 -32395361.24649 -25236820.50748  19803525.2684   19803525.0384   19803527.6764
      -464.9184
 -21946968.81049 -17061700.99848  20896265.3414   20896265.2284   20896267.7854
      -392.0044
 -10965695.31848  -8522119.04147  23295883.0664   23295883.4004   23295884.5844
     -3547.1054
 10  1  5  2 15  0.0000000  0 11G12G01G17G30G26G22G18G14G09G27G15
 -27189334.64649 -21173659.63948  20723310.4564   20723310.6494   20723311.8904
      1235.3244
  -6731664.42248  -5228795.51247  23211407.4834   23211407.5664   23211409.3574
      3006.8894
 -12713952.75648  -9868217.07847  23085522.7104   23085522.8704   23085525.6244
     -2218.1264
 -17274061.28848 -13400354.42347  22707191.4814   22707192.4384   22707194.0144
      3052.2934
 -20263797.14348 -15740703.17747  21305834.2934   21305834.2774   21305836.9004
      1744.7604
  -9141815.90147  -6900659.91346  24179041.3174   24179040.7524   24179039.2064
     -1189.0144
  -7601353.12247  -5913661.15546  24231589.9024   24231590.0154   24231589.9794
     -2420.8334
  -9493572.18947  -7344503.46446  23902550.3454   23902549.2354   23902552.2474
      3201.6624
 -32381176.60149 -25225767.54248  19806224.5494   19806224.4454   19806226.7694
      -480.5464
 -21935060.64849 -17052421.92148  20898531.2364   20898531.4524   20898534.0144
      -401.7014
 -10859184.97248  -8439123.98247  23316151.2794   23316151.9794   23316153.3924
     -3553.5374
 10  1  5  2 15 30.0000000  0 11G12G01G17G30G26G22G18G14G09G27G15
 -27226200.83149 -21202386.52748  20716295.0004   20716295.1794   20716296.2264
      1221.5734
  -6821774.97748  -5299011.49747  23194260.6374   23194260.8744   23194263.8194
      2999.5164
 -12647192.25348  -9816195.89647  23098226.7134   23098226.4474   23098229.5654
     -2233.3544
 -17365524.49648 -13471624.44147  22689786.4864   22689786.5824   22689788.4484
      3044.1894
 -20315853.20448 -15781266.34147  21295928.3454   21295928.3114   21295930.7134
      1724.8214
  -9105934.28547  -6872700.25146  24185867.1044   24185866.0654   24185868.0494
     -1203.9024
  -7528636.43647  -5856998.77046  24245427.5414   24245427.7374   24245430.0884
     -2428.4064
  -9589500.28947  -7419252.65346  23884296.4494   23884296.1544   23884297.4854
      3192.7024
 -32366532.58749 -25214356.62648  19809011.1324   19809011.0974   19809013.4824
      -496.5854
 -21922870.11249 -17042922.80548  20900851.2174   20900850.9394   20900853.9524
      -411.7854
 -10752487.30548  -8355982.94647  23336455.1944   23336455.7384   23336457.2194
     -3560.5474
 10  1  5  2 16  0.0000000  0 11G12G01G17G30G26G22G18G14G09G27G15
 -27262677.31949 -21230809.75648  20709353.5594   20709353.9994   20709354.8644
      1208.8984
  -6911675.50948  -5369063.82147  23177152.7334   23177153.6064   23177154.7344
      2992.6624
 -12579994.67948  -9763834.15147  23111014.0044   23111013.6094   23111016.0524
     -2247.5744
 -17456764.84848 -13542720.83247  22672423.9734   22672424.5384   22672427.2114
      3037.2634
 -20367331.18948 -15821379.06347  21286132.5544   21286132.4594   21286134.7094
      1705.6054
  -9069624.62047  -6844407.05746  24192779.0324   24192778.9174   24192776.8094
     -1218.0044
  -7455713.12847  -5800175.41646  24259304.3064   24259304.1274   24259306.4884
     -2434.2804
  -9685173.04347  -7493802.83846  23866089.7324   23866089.4304   23866091.8134
      3184.4744
 -32351428.17049 -25202586.95448  19811885.3874   19811885.2874   19811887.8454
      -511.6514
 -21910395.88049 -17033202.63248  20903224.7744   20903224.4794   20903227.3784
      -421.0784
 -10645604.08748  -8272697.33047  23356794.3094   23356793.9904   23356796.4414
     -3566.4484
 10  1  5  2 16 30.0000000  0 11G12G01G17G30G26G22G18G14G09G27G15
 -27298766.35149 -21258931.07448  20702486.0744   20702486.2944   20702487.6654
      1196.6134
  -7001367.85548  -5438953.92447  23160084.4234   23160084.5634   23160086.7994
      2986.3614
 -12512364.02148  -9711134.93547  23123883.5194   23123884.2044   23123886.2724
     -2261.6514
 -17547782.99448 -13613644.05647  22655103.6214   22655105.0764   22655107.4354
      3030.2704
 -20418230.75149 -15861041.06347  21276446.5454   21276446.6514   21276448.7374
      1687.1664
  -9032891.17547  -6815783.61346  24199765.8534   24199767.0674   24199767.7774
     -1231.4054
  -7382587.98747  -5743194.81546  24273219.9874   24273218.4984   24273220.6124
     -2440.5934
  -9780589.83247  -7568153.57746  23847933.0904   23847932.6354   23847934.5484
      3176.2254
 -32335864.89149 -25190459.73048  19814847.0164   19814846.8474   19814849.4864
      -526.2174
 -21897639.20949 -17023262.37748  20905652.4034   20905652.1094   20905655.0124
      -429.8204
 -10538539.77748  -8189270.59947  23377168.0894   23377168.2364   23377169.9444
     -3571.7604
 10  1  5  2 17  0.0000000  0 11G12G01G17G30G26G22G18G14G09G27G15
 -27334465.04849 -21286748.22848  20695692.9094   20695693.1664   20695694.2764
      1183.6454
  -7090848.44548  -5508679.03347  23143057.0654   23143057.2134   23143058.8804
      2979.2274
 -12444299.99048  -9658098.02047  23136836.0534   23136836.7474   23136838.1814
     -2275.7864
 -17638575.28548 -13684391.27847  22637826.9844   22637827.4664   22637829.3904
      3022.8004
 -20468547.60249 -15900249.00647  21266871.7684   21266871.9424   21266874.3444
      1667.5884
  -8995733.33647  -6786829.50146  24206839.1204   24206838.2864   24206838.3414
     -1245.4564
  -7309261.37147  -5686057.15746  24287172.7604   24287174.8984   24287174.6844
     -2447.4904
  -9875745.49347  -7642300.84346  23829825.1404   23829825.4714   23829827.1154
      3166.9934
 -32319840.20449 -25177972.97048  19817896.3094   19817896.2424   19817898.8784
      -541.7464
 -21884596.91849 -17013099.56248  20908134.3184   20908134.1764   20908136.8934
      -439.3484
 -10431294.67948  -8105702.99747  23397576.2504   23397576.7174   23397578.5714
     -3577.9094
 10  1  5  2 17 30.0000000  0 11G12G01G17G30G26G22G18G14G09G27G15
 -27369776.67249 -21314263.77148  20688973.1934   20688973.4704   20688974.6794
      1170.4604
  -7180118.53148  -5578240.10947  23126069.7454   23126069.1684   23126071.4844
      2972.0514
 -12375807.12148  -9604726.95147  23149869.6734   23149870.5064   23149871.8724
     -2290.4484
 -17729143.21448 -13754963.68547  22620592.1514   22620592.6844   22620593.6464
      3015.1354
 -20518281.84748 -15939002.96547  21257407.4044   21257407.4664   21257409.5564
      1647.9704
  -8958155.22147  -6757547.88346  24213988.4124   24213988.1514   24213989.5794
     -1260.0034
  -7235738.57147  -5628766.65446  24301164.1254   24301163.6544   24301166.2834
     -2454.0474
  -9970639.49747  -7716244.22846  23811767.3864   23811766.3104   23811768.3744
      3158.7304
 -32303355.99549 -25165128.13848  19821033.4494   19821033.0574   19821035.4364
      -557.2964
 -21871270.54849 -17002715.38348  20910670.3334   20910669.9594   20910672.8454
      -449.0514
 -10323873.08948  -8021997.87847  23418017.6484   23418018.3804   23418019.7534
     -3583.8154
 10  1  5  2 18  0.0000000  0 11G12G01G17G30G26G22G18G14G09G27G15
 -27404702.59249 -21341478.77148  20682327.3154   20682327.3634   20682328.5314
      1157.7404
  -7269179.25648  -5647638.04747  23109121.8584   23109121.2934   23109124.3394
      2964.8644
 -12306889.36348  -9551024.80547  23162984.4244   23162984.9844   23162986.6464
     -2304.4374
 -17819487.74148 -13825362.00947  22603400.2834   22603400.6094   22603402.2934
      3007.6254
 -20567433.12748 -15977302.66847  21248054.1144   21248054.2154   21248056.5784
      1628.4884
  -8920160.59047  -6727941.73846  24221218.7624   24221219.1824   24221220.0634
     -1273.6934
  -7162024.31147  -5571326.95346  24315190.9784   24315191.1724   24315191.4254
     -2460.6904
 -10065270.59947  -7789982.76046  23793760.4464   23793760.4234   23793761.9844
      3149.7424
 -32286413.64849 -25151926.31848  19824257.3284   19824257.1944   19824259.6094
      -572.4724
 -21857661.22749 -16992110.72448  20913259.8794   20913259.8054   20913262.8964
      -458.4774
 -10216279.79048  -7938158.96247  23438492.0074   23438491.9174   23438493.9414
     -3589.3754
 10  1  5  2 18 30.0000000  0 11G12G01G17G30G26G22G18G14G09G27G15
 -27439237.89749 -21368389.39048  20675755.2374   20675755.4744   20675756.5904
      1144.6504
  -7358024.67948  -5716868.22247  23092215.0584   23092213.8604   23092218.6024
      2957.7124
 -12237544.24048  -9496989.63847  23176181.0244   23176180.2064   23176182.1744
     -2318.6684
 -17909602.92148 -13895581.61347  22586252.2324   22586251.9404   22586254.2584
      2999.9824
 -20615994.66449 -16015142.83247  21238813.4304   21238813.2734   21238815.5184
      1608.8194
  -8881746.86747  -6698009.00446  24228530.5854   24228528.9574   24228530.7504
     -1287.4674
  -7088117.07047  -5513736.89346  24329255.7664   24329253.9684   24329256.4624
     -2466.7724
 -10159631.66547  -7863510.87046  23775803.9084   23775803.0434   23775805.2404
      3140.8234
 -32269008.00449 -25138363.48448  19827569.5974   19827569.5534   19827571.9234
      -587.8764
 -21843763.59749 -16981281.40748  20915904.6034   20915904.3014   20915907.3014
      -468.1964
 -10108512.14548  -7854184.18747  23458999.7814   23458999.8484   23459002.0524
     -3595.3034
 10  1  5  2 19  0.0000000  0 11G12G01G17G30G26G22G18G14G09G27G15
 -27473385.64749 -21394998.02348  20669257.1564   20669257.3074   20669258.5514
      1131.4314
  -7446656.63448  -5785932.04847  23075348.8754   23075350.2654   23075351.3754
      2950.6904
 -12167776.29948  -9442625.00647  23189456.7574   23189457.3054   23189458.0184
     -2332.7864
 -17999490.45948 -13965623.84547  22569146.5164   22569146.4574   22569148.8944
      2992.1064
 -20663966.86249 -16052523.76747  21229684.5334   21229684.6574   21229686.9674
      1588.9604
  -8842918.43447  -6667753.12946  24235918.1964   24235918.0974   24235918.6214
     -1301.5824
  -7014022.10747  -5456000.54846  24343355.1874   24343354.0104   24343356.7804
     -2473.1624
 -10253722.61847  -7936828.50746  23757898.7794   23757897.1394   23757900.2274
      3132.0324
 -32251141.73449 -25124441.72248  19830969.4744   19830969.1504   19830971.7584
      -603.5704
 -21829579.37049 -16970228.77148  20918603.8024   20918603.6814   20918606.4634
      -477.9304
 -10000574.61048  -7770077.03347  23479539.2644   23479539.6354   23479541.1634
     -3600.9434
 10  1  5  2 19 30.0000000  0 11G12G01G17G30G26G22G18G14G09G27G15
 -27507145.36949 -21421304.30048  20662832.8864   20662833.0424   20662834.3594
      1118.9634
  -7535073.57548  -5854828.35747  23058523.9564   23058523.6684   23058525.6704
      2943.9624
 -12097587.68948  -9387932.58247  23202813.1794   23202813.6454   23202815.2114
     -2346.3744
 -18089148.74748 -14035487.42247  22552085.4124   22552085.6104   22552087.8234
      2985.0234
 -20711347.36649 -16089443.64147  21220668.2744   21220668.3204   21220670.2214
      1569.4844
  -8803676.81947  -6637175.29146  24243386.6924   24243385.4544   24243387.2864
     -1314.4614
  -6939741.57547  -5398119.62346  24357489.9214   24357489.0264   24357492.0104
     -2479.1484
 -10347540.02347  -8009932.99046  23740046.2494   23740045.2994   23740048.2394
      3122.6924
 -32232813.95149 -25110160.33748  19834457.0474   19834456.8854   19834459.5024
      -618.5064
 -21815107.46649 -16958951.96948  20921357.6734   20921357.6334   20921360.3264
      -487.0074
  -9892469.32548  -7685839.16047  23500110.9004   23500111.2944   23500114.2284
     -3606.0784
 10  1  5  2 20  0.0000000  0 11G12G01G17G30G26G22G18G14G09G27G15
 -27540519.47349 -21447310.08948  20656482.0394   20656482.3494   20656483.2284
      1105.9214
  -7623277.43148  -5923558.62247  23041739.3974   23041739.9854   23041741.1424
      2936.4034
 -12026982.87348  -9332915.83547  23216249.0044   23216248.6474   23216250.7094
     -2360.5574
 -18178579.41648 -14105173.62647  22535067.3294   22535067.8454   22535070.1724
      2977.1954
 -20758136.92149 -16125903.03847  21211764.6074   21211764.6694   21211766.9584
      1549.6234
  -8764026.72147  -6606279.11946  24250932.8154   24250930.9714   24250930.9924
     -1329.0304
  -6865281.81547  -5340099.01846  24371658.8574   24371657.9264   24371661.3414
     -2484.5924
 -10441083.93547  -8082824.35746  23722244.9244   23722243.7194   23722246.6474
      3113.2734
 -32214026.60449 -25095520.84848  19838032.2204   19838032.0044   19838034.6424
      -634.0054
 -21800349.75549 -16947452.45948  20924165.9734   20924165.8634   20924168.5544
      -496.8774
  -9784201.48248  -7601474.60847  23520713.5564   23520714.6284   23520717.2354
     -3611.7644
 10  1  5  2 20 30.0000000  0 11G12G01G17G30G26G22G18G14G09G27G15
 -27573503.43149 -21473011.87148  20650205.4444   20650205.3794   20650206.7694
      1093.1454
  -7711262.10148  -5992118.09047  23024996.2904   23024995.6394   23024999.0064
      2929.2064
 -11955958.98748  -9277572.54347  23229764.1494   23229764.7504   23229766.6904
     -2374.1214
 -18267776.49148 -14174677.82747  22518093.7354   22518093.8964   22518095.3544
      2969.5024
 -20804328.16749 -16161896.21647  21202974.5354   21202974.8914   21202977.1984
      1529.9904
  -8723965.20447  -6575062.37646  24258554.9664   24258554.8394   24258554.3984
     -1341.9994
  -6790640.10147  -5281936.67146  24385863.2084   24385861.2844   24385864.6474
     -2490.9564
 -10534346.29947  -8155496.32946  23704497.4964   23704498.7974   23704499.7634
      3104.3064
 -32194774.65549 -25080519.33548  19841695.5584   19841695.2904   19841698.0234
      -649.3904
 -21785300.35949 -16935725.66348  20927029.9044   20927029.8044   20927032.4164
      -506.4244
  -9675768.82648  -7516981.63647  23541347.4764   23541347.5294   23541350.9204
     -3616.8534
 10  1  5  2 21  0.0000000  0 11G12G01G17G30G26G22G18G14G09G27G15
 -27606103.23249 -21498414.30648  20644001.9614   20644002.0974   20644003.1634
      1079.5714
  -7799032.57448  -6060510.63447  23008293.9184   23008294.5094   23008296.0094
      2921.3214
 -11884523.96748  -9221908.89047  23243357.7264   23243358.3264   23243359.5324
     -2388.6784
 -18356744.67748 -14244003.65647  22501163.9264   22501164.9754   22501165.9754
      2961.1614
 -20849925.07249 -16197426.27347  21194297.8094   21194297.7884   21194300.1764
      1509.2994
  -8683500.06847  -6543531.16546  24266253.2224   24266253.0714   24266255.0894
     -1356.4454
  -6715825.32147  -5223639.44545  24400100.3354   24400100.1474   24400101.1714
     -2497.3894
 -10627329.95147  -8227951.14246  23686804.2374   23686802.9354   23686805.1704
      3094.1574
 -32175063.94449 -25065160.34448  19845446.4654   19845446.4114   19845448.9644
      -665.3684
 -21769964.39449 -16923775.56448  20929948.3524   20929948.2154   20929950.6644
      -516.6404
  -9567178.94047  -7432366.14747  23562011.3114   23562011.4964   23562013.3454
     -3623.1454
 10  1  5  2 21 30.0000000  0 11G12G01G17G30G26G22G18G14G09G27G15
 -27638313.76049 -21523513.41548  20637872.4974   20637872.7234   20637873.8974
      1066.4054
  -7886583.16348  -6128731.84847  22991633.4094   22991633.2114   22991636.4054
      2913.8994
 -11812675.32448  -9165922.93547  23257030.2214   23257029.1534   23257031.9944
     -2402.5844
 -18445478.15248 -14313146.59947  22484278.2554   22484278.4314   22484281.4954
      2953.0874
 -20894920.71849 -16232487.81647  21185735.3184   21185735.3614   21185737.7084
      1489.0994
  -8642628.61447  -6511683.28546  24274030.4584   24274030.8054   24274033.4654
     -1369.9184
  -6640835.64547  -5165205.90845  24414368.8054   24414368.4424   24414370.3284
     -2503.6814
 -10720028.10747  -8300183.47546  23669164.3944   23669163.8864   23669165.5684
      3084.5524
 -32154889.42949 -25049439.95248  19849285.5414   19849285.3814   19849287.9594
      -680.9924
 -21754336.24649 -16911597.79148  20932922.1054   20932921.9204   20932924.7364
      -526.5354
  -9458429.67047  -7347626.47047  23582705.7334   23582706.3354   23582708.1394
     -3628.6414
 10  1  5  2 22  0.0000000  0 11G12G01G17G30G26G22G18G14G09G27G15
 -27670138.50749 -21548311.91348  20631816.3114   20631816.6044   20631817.6904
      1054.1234
  -7973916.35148  -6196783.66747  22975014.4414   22975016.1864   22975016.5074
      2907.2594
 -11740418.62248  -9109619.00847  23270780.2734   23270780.0834   23270781.7674
     -2415.3934
 -18533979.31448 -14382108.52147  22467436.7844   22467437.3444   22467439.1294
      2945.7874
 -20939316.68449 -16267082.08247  21177286.9504   21177287.3674   21177289.0634
      1469.7214
  -8601356.23547  -6479523.03946  24281885.7934   24281887.1684   24281887.9614
     -1382.8204
  -6565677.36447  -5106640.99345  24428672.8794   24428673.4134   24428673.4444
     -2508.2634
 -10812440.82647  -8372193.39046  23651578.4094   23651578.3754   23651579.7334
      3075.2904
 -32134253.70649 -25033360.17248  19853212.2734   19853212.1094   19853214.7544
      -695.7664
 -21738418.56249 -16899194.40848  20935950.9714   20935951.0724   20935953.8294
      -535.6864
  -9349526.64447  -7262766.97647  23603429.6724   23603429.4184   23603433.0594
     -3632.9364
 10  1  5  2 22 30.0000000  0 11G12G01G17G30G26G22G18G14G09G27G15
 -27701577.16249 -21572809.55548  20625833.9114   20625834.0544   20625835.3584
      1041.4854
  -8061030.58248  -6264664.85047  22958437.2824   22958437.5424   22958439.8224
      2900.1704
 -11667755.38848  -9052998.29947  23284607.7554   23284607.8444   23284608.7234
     -2429.0194
 -18622246.66748 -14450888.26547  22450640.1744   22450640.0374   22450643.2684
      2938.2334
 -20983110.26149 -16301206.94247  21168953.2074   21168953.0074   21168956.1784
      1449.4534
  -8559684.30747  -6447051.46046  24289816.1384   24289815.8724   24289816.0914
     -1395.8924
  -6490352.65646  -5047946.40845  24443005.0994   24443003.9564   24443008.8004
     -2514.2064
 -10904564.85847  -8443978.35446  23634048.0454   23634047.8384   23634048.9814
      3066.2714
 -32113156.06949 -25016920.46048  19857227.0714   19857226.9584   19857229.6314
      -711.0224
 -21722209.86049 -16886564.25248  20939035.6864   20939035.3734   20939038.1474
      -545.0064
  -9240471.75547  -7177789.15247  23624182.5704   23624182.7594   23624184.7284
     -3637.8684
 10  1  5  2 23  0.0000000  0 12G12G01G17G30G26G22G18G14G04G09G27G15
 -27732627.95949 -21597004.97248  20619925.0824   20619925.3204   20619926.3244
      1029.0274
  -8147922.98448  -6332373.20447  22941902.0284   22941902.6664   22941904.8024
      2892.9024
 -11594686.12048  -8996061.20447  23298512.3444   23298511.6584   23298514.3104
     -2442.1734
 -18710277.24448 -14519483.50347  22433888.4814   22433888.3654   22433890.9504
      2930.7384
 -21026297.63249 -16334859.44347  21160735.0514   21160735.1784   21160737.4964
      1429.9414
  -8517612.94847  -6414268.62146  24297821.2614   24297821.6684   24297823.3494
     -1408.7484
  -6414862.61947  -4989123.00046  24457372.8014   24457371.5834   24457373.9414
     -2518.7124
 -10996395.37947  -8515534.60346  23616572.5654   23616572.2434   23616573.9194
      3056.1304
   -918867.65157   -704690.58756  24884384.6814   24884385.3534   24884390.0214
      2295.0024
 -32091594.61049 -25000119.32848  19861330.1824   19861330.1334   19861332.6114
      -726.1694
 -21705707.65949 -16873705.39948  20942176.0584   20942175.4884   20942178.4884
      -554.7374
  -9131265.33947  -7092693.25247  23644963.5174   23644964.0144   23644965.9044
     -3642.4204
 10  1  5  2 23 30.0000000  0 12G12G01G17G30G26G22G18G14G04G09G27G15
 -27763293.33449 -21620900.06348  20614089.7594   20614089.9054   20614090.8584
      1015.3454
  -8234595.32748  -6399910.09447  22925409.0654   22925410.4304   22925411.5034
      2884.9254
 -11521215.47748  -8938811.34547  23312493.2404   23312493.8554   23312494.1804
     -2456.0544
 -18798072.39548 -14587895.28847  22417182.0184   22417181.5284   22417184.5744
      2922.1694
 -21068879.40549 -16368040.04647  21152632.2514   21152632.0814   21152634.1604
      1408.8864
  -8475147.03847  -6381178.33846  24305901.8014   24305904.9364   24305905.4144
     -1422.2864
  -6339212.69247  -4930175.00246  24471767.2264   24471766.3804   24471769.2094
     -2524.6604
 -11087932.28947  -8586862.06846  23599153.8844   23599153.8674   23599155.3554
      3046.1084
   -987574.18447   -758228.16046  24871309.9934   24871310.5394   24871313.0574
      2285.1294
 -32069571.37549 -24982958.37248  19865521.1574   19865521.1704   19865523.4114
      -742.2044
 -21688913.58049 -16860619.10848  20945371.5514   20945371.3724   20945374.3844
      -565.1764
  -9021912.19547  -7007483.01747  23665772.5774   23665772.6254   23665774.3284
     -3647.9894
 10  1  5  2 24  0.0000000  0 12G12G01G17G30G26G22G18G14G04G09G27G15
 -27793569.91749 -21644492.19648  20608328.0604   20608328.4304   20608329.4234
      1002.9044
  -8321043.12648  -6467271.99447  22908958.7434   22908959.4664   22908961.0874
      2877.9154
 -11447342.35547  -8881247.87947  23326550.2344   23326550.5994   23326552.9604
     -2468.9834
 -18885627.49248 -14656120.02947  22400520.3244   22400520.0004   22400522.9484
      2914.6184
 -21110850.19549 -16400744.55847  21144645.5804   21144645.5204   21144647.8054
      1388.9094
  -8432284.89147  -6347779.32846  24314060.2624   24314059.8414   24314060.6144
     -1435.3404
  -6263402.49647  -4871102.13346  24486193.0614   24486193.1024   24486195.3144
     -2529.7954
 -11179169.30747  -8657955.83846  23581792.0844   23581792.3324   23581794.2184
      3036.6404
  -1056017.71147   -811560.77746  24858285.4454   24858284.9424   24858288.7324
      2277.0444
 -32047082.50549 -24965434.57848  19869800.4734   19869800.6894   19869802.8684
      -757.1754
 -21671823.43349 -16847302.11748  20948623.7724   20948623.5934   20948626.3164
      -574.4674
  -8912411.54847  -6922157.84947  23686610.2344   23686610.6024   23686612.2104
     -3652.2814
