     2.11           OBSERVATION DATA    G (GPS)             RINEX VERSION / TYPE
teqc  2009Oct19     administrateur ccgps20100104 16:57:20UTCPGM / RUN BY / DATE
Solaris 5.9|UltraSparc IIe|cc -xarch=v9 SC5.8|=+-|*Sparc    COMMENT
teqc  2009Oct19     administrateur ccgps20100104 13:28:15UTCCOMMENT
teqc  2009Oct19     CNES                20100104 10:02:06UTCCOMMENT
MSXP|IAx86-PII|bcc32 5.0|MSWin95->XP|486/DX+                COMMENT
teqc  2009Oct19                         20100104 10:02:05UTCCOMMENT
BIT 2 OF LLI FLAGS DATA COLLECTED UNDER A/S CONDITION       COMMENT
GRAS                                                        MARKER NAME
10002M006                                                   MARKER NUMBER
CARDALIAGUET        CNES                                    OBSERVER / AGENCY
48002               ASHTECH UZ-12       CN00-1A01           REC # / TYPE / VERS
24222               ASH701945E_M    NONE                    ANT # / TYPE
  4581696.3100   556116.1100  4389366.5900                  APPROX POSITION XYZ
        0.0350        0.0000        0.0000                  ANTENNA: DELTA H/E/N
     1     1                                                WAVELENGTH FACT L1/2
     7    L1    L2    C1    P1    P2    D1    D2            # / TYPES OF OBSERV
    30.0000                                                 INTERVAL
Version: Version:                                           COMMENT
Project: A002_______CNE_____________                        COMMENT
 SNR is mapped to RINEX snr flag value [0-9]                COMMENT
  L1 & L2: min(max(int(snr_dBHz/6), 0), 9)                  COMMENT
pseudorange smoothing corrections not applied               COMMENT
Forced Modulo Decimation to 30 seconds                      COMMENT
  2010     1     2     0     0    0.0000000     GPS         TIME OF FIRST OBS
                                                            END OF HEADER
 10  1  2  0  0  0.0000000  0  9G05G08G28G09G27G18G10G15G17
  -6814484.19448  -5300680.32647  23588297.0434   23588297.1604   23588299.2674
     -3554.1314
 -11736220.26847  -9131203.58446  23857004.2164   23857002.1194   23857007.6394
     -2909.0774
 -18265421.69548 -14197132.83947  22122001.9324   22122001.9054   22122003.6464
     -2035.9134
 -16675788.72748 -12974773.76847  22200759.7174   22200758.0324   22200761.3684
      2879.1164
 -16390854.59848 -12732948.09747  22052319.4484   22052319.0224   22052321.8034
      1590.1114
  -9717743.89247  -7376043.47346  23647003.4704   23647003.0984   23647003.6784
      2141.4854
   -978582.80347   -704353.91346  24819144.0844   24819142.7194   24819146.4484
     -3710.0814
 -26562975.23949 -20689286.58448  20401761.7214   20401761.9254   20401763.3594
       545.4234
  -8263008.79147  -6395207.55347  23661298.3954   23661298.1934   23661300.2544
      2574.0104
 10  1  2  0  0 30.0000000  0  9G05G08G28G09G27G18G10G15G17
  -6707793.33947  -5217544.59247  23608599.9864   23608600.0484   23608601.6264
     -3558.7734
 -11648900.11147  -9063161.91346  23873620.5274   23873621.1814   23873623.0474
     -2912.1284
 -18204152.62848 -14149390.70247  22133661.4664   22133661.1224   22133662.7914
     -2048.7064
 -16762049.94348 -13041990.28347  22184344.4504   22184343.9474   22184346.3284
      2871.7254
 -16438457.91348 -12770041.57847  22043261.0334   22043260.3194   22043263.5194
      1583.4224
  -9781759.98847  -7425926.16246  23634821.9194   23634822.0354   23634822.6384
      2126.0244
   -867289.57247   -617631.93746  24840323.1904   24840322.0744   24840325.0424
     -3709.5754
 -26579102.54449 -20701853.32148  20398692.7294   20398692.9974   20398694.5054
       529.6754
  -8340088.71147  -6455269.81547  23646629.8874   23646630.2954   23646632.4864
      2565.1674
 10  1  2  0  1  0.0000000  0  9G05G08G28G09G27G18G10G15G17
  -6600982.40747  -5134315.29847  23628924.7994   23628925.5044   23628927.7454
     -3562.2224
 -11561513.25747  -8995068.27746  23890249.6394   23890250.2094   23890252.5054
     -2914.0124
 -18142521.96548 -14101366.80547  22145389.2154   22145389.0804   22145390.4024
     -2060.2894
 -16848106.62848 -13109047.41947  22167968.4554   22167967.4854   22167970.4684
      2865.2104
 -16485888.19348 -12807000.23247  22034235.2804   22034235.3854   22034237.5494
      1578.2364
  -9845332.55847  -7475463.21546  23622723.9104   23622722.4104   23622725.6984
      2111.6654
   -756027.52347   -530934.24846  24861494.9214   24861494.3094   24861497.5024
     -3707.9514
 -26594778.84649 -20714068.62748  20395709.6474   20395709.8124   20395711.4504
       515.1144
  -8416911.60248  -6515131.80447  23632011.3764   23632011.8824   23632012.8694
      2556.6514
 10  1  2  0  1 30.0000000  0 10G05G08G28G12G09G27G18G10G15G17
  -6494053.94747  -5050994.42647  23649272.9144   23649272.9374   23649275.7254
     -3566.5714
 -11474059.79447  -8926922.74546  23906891.0524   23906890.8634   23906894.5234
     -2916.6324
 -18080531.25248 -14053062.34947  22157185.9424   22157185.1024   22157187.4014
     -2072.9774
  -2070867.55646  -1557789.69046  25414007.5284   25414007.2634   25414010.0394
      3821.2504
 -16933957.64448 -13175944.29047  22151631.8064   22151631.4054   22151633.1124
      2857.6584
 -16533144.97648 -12843823.69247  22025242.6704   22025241.9554   22025245.3644
      1571.6274
  -9908458.69747  -7524652.43546  23610713.0924   23610711.8634   23610713.0324
      2096.1774
   -644799.54247   -444263.12546  24882661.4574   24882660.8174   24882664.1714
     -3707.5754
 -26610002.45049 -20725931.18148  20392812.7224   20392812.9774   20392814.5634
       499.2434
  -8493473.97148  -6574790.79547  23617442.1324   23617442.4324   23617443.5964
      2547.0764
 10  1  2  0  2  0.0000000  0 10G05G08G28G12G09G27G18G10G15G17
  -6387008.13947  -4967582.12047  23669642.5454   23669643.1214   23669645.5034
     -3570.3524
 -11386537.49347  -8858723.57346  23923546.4544   23923545.9194   23923548.8804
     -2918.7044
 -18018179.75348 -14004476.77047  22169050.9524   22169050.4044   22169052.6814
     -2084.5384
  -2185499.78246  -1647113.46745  25392193.7394   25392193.6134   25392196.0824
      3820.3854
 -17019599.41748 -13242678.11947  22135334.1664   22135334.4094   22135336.8234
      2850.9784
 -16580225.91048 -12880510.13347  22016283.1644   22016283.2284   22016286.0454
      1566.3824
  -9971134.03447  -7573490.36646  23598786.2144   23598785.6254   23598786.3484
      2081.5404
   -533604.98447   -357618.03746  24903820.7924   24903819.5694   24903824.1294
     -3706.2524
 -26624769.86949 -20737438.26848  20390002.6804   20390002.8604   20390004.1954
       484.5224
  -8569769.98548  -6634242.22347  23602923.3864   23602924.0214   23602925.7264
      2538.6754
 10  1  2  0  2 30.0000000  0 10G05G08G28G12G09G27G18G10G15G17
  -6279852.66547  -4884084.35247  23690033.9924   23690034.3154   23690035.3764
     -3573.7834
 -11298952.24947  -8790475.34146  23940213.1204   23940212.2354   23940216.6204
     -2920.5664
 -17955474.85348 -13955615.81047  22180983.3544   22180983.0504   22180984.5854
     -2096.1294
  -2300094.65255  -1736408.10655  25370386.6374   25370387.5874   25370389.2824
      3819.0474
 -17105036.09548 -13309252.14347  22119076.3424   22119075.9134   22119078.0624
      2844.5924
 -16627136.16848 -12917063.57847  22007356.3484   22007356.1024   22007359.1204
      1560.8814
 -10033361.24347  -7621979.11646  23586942.8884   23586942.8664   23586945.0364
      2066.7534
   -422451.33846   -271004.81046  24924972.4294   24924972.8984   24924976.2754
     -3704.5534
 -26639084.45049 -20748592.49748  20387278.7304   20387278.8414   20387280.3504
       469.5974
  -8645801.75048  -6693487.74347  23588454.7874   23588455.6204   23588456.8294
      2529.5984
 10  1  2  0  3  0.0000000  0 10G05G08G28G12G09G27G18G10G15G17
  -6172589.40747  -4800502.59746  23710445.6934   23710445.8194   23710447.3254
     -3576.9044
 -11211303.91347  -8722177.95846  23956892.3504   23956892.4114   23956894.8054
     -2922.7254
 -17892417.51848 -13906480.22247  22192982.7674   22192982.3224   22192983.7434
     -2107.5254
  -2414649.14146  -1825671.21145  25348588.0864   25348589.8564   25348591.9524
      3817.6314
 -17190265.83948 -13375664.91147  22102857.9704   22102857.3314   22102860.5164
      2837.7104
 -16673874.76048 -12953483.25447  21998462.5104   21998461.9024   21998465.3384
      1555.2864
 -10095137.42347  -7670116.40046  23575188.7474   23575188.8474   23575189.6324
      2051.7514
   -311340.12646   -184424.66946  24946116.0264   24946115.1044   24946120.1964
     -3702.6284
 -26652944.24149 -20759392.33548  20384641.1404   20384641.5194   20384642.6734
       454.5954
  -8721565.39348  -6752524.34047  23574037.5864   23574038.2224   23574038.5724
      2521.2194
 10  1  2  0  3 30.0000000  0 10G05G08G28G12G09G27G18G10G15G17
  -6065216.31247  -4716835.24546  23730877.4414   23730877.4214   23730879.1874
     -3580.8464
 -11123587.59647  -8653827.59746  23973584.1674   23973583.0564   23973586.5364
     -2925.0644
 -17829004.17948 -13857067.23247  22205049.7424   22205049.4724   22205051.0934
     -2119.7564
  -2529156.01446  -1914897.33845  25326797.4104   25326797.5494   25326799.6364
      3816.5524
 -17275282.17048 -13441911.38447  22086679.6654   22086679.8164   22086681.9544
      2830.2374
 -16720436.38848 -12989765.03947  21989602.0194   21989602.0684   21989604.5274
      1549.0364
 -10156455.83747  -7717896.99646  23563519.7644   23563519.5204   23563520.3354
      2036.1144
   -200268.32347    -97875.26146  24967252.8384   24967251.4384   24967254.6174
     -3701.8784
 -26666342.97449 -20769832.91248  20382091.4874   20382091.5554   20382093.0794
       438.8544
  -8797052.57248  -6811345.51547  23559672.8964   23559672.9394   23559675.9894
      2511.4144
 10  1  2  0  4  0.0000000  0 10G05G08G28G12G09G27G18G10G15G17
  -5957744.20947  -4633090.74846  23751328.7484   23751329.5744   23751330.4004
     -3583.4984
 -11035812.21147  -8585431.22446  23990286.6704   23990286.8284   23990290.3294
     -2926.3624
 -17765245.35348 -13807385.02147  22217182.6404   22217182.1334   22217183.9914
     -2130.8114
  -2643621.56546  -2004091.22845  25305015.2564   25305016.7044   25305019.1614
      3815.3194
 -17360092.69048 -13507997.47147  22070540.2984   22070539.6454   22070543.2394
      2823.9174
 -16766829.30648 -13025915.36147  21980773.7864   21980773.8014   21980777.1434
      1543.9794
 -10217322.29247  -7765325.40546  23551937.1354   23551937.2484   23551938.1864
      2021.5814
    -89246.67347    -11364.90146  24988379.4654   24988377.5974   24988382.3494
     -3699.0854
 -26679287.41049 -20779919.49048  20379628.3684   20379628.4214   20379629.9324
       424.2424
  -8872268.73748  -6869955.50747  23545359.7264   23545360.0974   23545362.2684
      2503.0034
 10  1  2  0  4 30.0000000  0 10G05G08G28G12G09G27G18G10G15G17
  -5850169.08847  -4549265.98546  23771799.7524   23771799.8824   23771802.5384
     -3587.4994
 -10947971.42747  -8516983.88646  24007002.2724   24007002.6094   24007006.8824
     -2929.2134
 -17701136.33148 -13757429.94047  22229382.0174   22229381.6874   22229383.5854
     -2142.7424
  -2758037.02946  -2093246.16845  25283242.5254   25283240.6194   25283244.0084
      3813.6754
 -17444689.55148 -13573917.08447  22054442.5734   22054442.0974   22054445.5054
      2816.4504
 -16813046.74348 -13061928.94647  21971978.8954   21971978.7884   21971981.3804
      1537.7294
 -10277728.03947  -7812394.80946  23540442.1534   23540441.4604   23540442.6744
      2005.9424
     21728.95847     75109.58246  25009497.5594   25009497.1374   25009500.1954
     -3697.9844
 -26691769.58749 -20789645.87348  20377253.1204   20377253.2044   20377254.5144
       408.4664
  -8947204.05548  -6928346.66347  23531100.1224   23531100.1484   23531101.8584
      2493.2624
 10  1  2  0  5  0.0000000  0 10G05G08G28G12G09G27G18G10G15G17
  -5742500.94047  -4465368.73346  23792288.0414   23792288.6304   23792291.3984
     -3590.6774
 -10860072.98247  -8448491.59946  24023729.3194   24023728.3304   24023732.1154
     -2931.1424
 -17636685.96148 -13707208.86147  22241646.6564   22241646.1644   22241647.7434
     -2154.1164
  -2872407.51346  -2182366.04045  25261479.9264   25261480.3074   25261479.1694
      3811.0384
 -17529078.92348 -13639675.01047  22038383.2074   22038383.0784   22038386.3224
      2809.3694
 -16859095.82448 -13097811.33947  21963216.1184   21963215.8584   21963218.3144
      1532.1004
 -10337677.83947  -7859108.96146  23529035.3204   23529033.6864   23529033.7754
      1990.6674
    132649.35847    161541.04146  25030605.3354   25030604.3314   25030606.9294
     -3696.7184
 -26703795.48549 -20799016.71048  20374964.4884   20374964.6904   20374966.2024
       393.0634
  -9021862.63648  -6986522.17247  23516892.9864   23516893.1004   23516895.0334
      2483.9054
 10  1  2  0  5 30.0000000  0 10G05G08G28G12G09G27G18G10G15G17
  -5634736.91247  -4381396.76546  23812795.1474   23812795.7304   23812797.0724
     -3594.0174
 -10772111.91247  -8379950.52046  24040467.6224   24040467.0524   24040471.2534
     -2933.2094
 -17571890.59548 -13656718.96447  22253976.9524   22253976.5874   22253977.8924
     -2165.8964
  -2986725.01446  -2271444.53945  25239725.2854   25239727.8824   25239727.5344
      3809.7084
 -17613254.35648 -13705266.23347  22022365.6414   22022365.2004   22022367.6274
      2801.8314
 -16904970.80048 -13133558.07347  21954486.4804   21954486.1694   21954488.7784
      1526.0154
 -10397164.52347  -7905462.21146  23517714.2754   23517715.9024   23517715.9874
      1975.0054
    243518.07647    247932.25946  25051702.5124   25051701.0844   25051704.5474
     -3695.2914
 -26715358.15749 -20808026.59448  20372764.2364   20372764.5284   20372765.9184
       377.3964
  -9096235.67948  -7044475.19247  23502740.4184   23502740.5934   23502743.2074
      2473.9154
 10  1  2  0  6  0.0000000  0 10G05G08G28G12G09G27G18G10G15G17
  -5526880.70647  -4297352.96346  23833319.7864   23833320.2084   23833321.4944
     -3596.9364
 -10684089.63847  -8311361.76546  24057218.0514   24057216.6764   24057220.7884
     -2935.4504
 -17506753.24148 -13605962.58747  22266372.0164   22266371.8434   22266372.8714
     -2176.9394
  -3100988.41146  -2360480.92446  25217982.3014   25217982.3674   25217986.8644
      3808.0504
 -17697215.65148 -13770690.60847  22006388.0784   22006387.9344   22006390.5184
      2795.0414
 -16950672.69448 -13169169.93747  21945789.2264   21945788.8414   21945791.4944
      1520.3344
 -10456186.79147  -7951453.59146  23506482.2574   23506483.0944   23506485.6774
      1959.5764
    354332.12247    334280.83146  25072789.4624   25072789.2634   25072792.3634
     -3693.2324
 -26726457.48949 -20816675.43048  20370652.1564   20370652.3064   20370653.8664
       362.0824
  -9170320.93448  -7102203.95947  23488642.5164   23488641.9734   23488644.5004
      2464.5074
 10  1  2  0  6 30.0000000  0 10G05G08G28G12G09G27G18G10G15G17
  -5418936.66947  -4213240.73046  23853860.7164   23853860.9524   23853863.5154
     -3599.7624
 -10596008.23947  -8242726.93046  24073978.8564   24073978.7534   24073981.2284
     -2937.5754
 -17441277.57848 -13554942.58847  22278831.8834   22278831.4764   22278832.4134
     -2188.3934
  -3215197.62247  -2449475.07346  25196248.4234   25196248.6184   25196250.0964
      3805.3984
 -17780963.36948 -13835948.55047  21990451.3574   21990451.4124   21990454.2034
      2787.9034
 -16996203.19648 -13204648.24247  21937125.3774   21937125.4054   21937128.2794
      1514.4524
 -10514744.49547  -7997082.96646  23495339.4714   23495338.4424   23495340.5634
      1943.7904
    465086.93947    420583.27546  25093865.6804   25093865.0374   25093868.7114
     -3691.4404
 -26737093.75449 -20824963.43348  20368628.0314   20368628.3734   20368629.8984
       346.4434
  -9244117.12248  -7159707.47547  23474599.3784   23474599.5344   23474602.4004
      2454.5464
 10  1  2  0  7  0.0000000  0 10G05G08G28G12G09G27G18G10G15G17
  -5310908.73447  -4129063.12046  23874417.7104   23874417.9444   23874420.3744
     -3602.5174
 -10507869.95847  -8174047.76646  24090751.5084   24090751.0784   24090754.7704
     -2938.8904
 -17375466.67748 -13503661.37147  22291355.0404   22291354.7074   22291355.7434
     -2199.4624
  -3329351.75947  -2538426.37645  25174525.9824   25174526.3984   25174525.9804
      3803.5804
 -17864498.03448 -13901040.48247  21974555.7254   21974554.7914   21974558.2684
      2780.7414
 -17041563.61448 -13239994.01447  21928493.3674   21928493.0214   21928496.3534
      1509.0544
 -10572836.76147  -8042349.66746  23484285.0884   23484284.8784   23484285.4144
      1928.4484
    575778.65547    506836.55346  25114929.3674   25114928.5014   25114932.4934
     -3688.5684
 -26747267.37649 -20832890.93548  20366692.1524   20366692.2944   20366693.8944
       331.1504
  -9317622.93248  -7216984.72647  23460611.4064   23460610.9534   23460614.3134
      2445.2954
 10  1  2  0  7 30.0000000  0 10G05G08G28G12G09G27G18G10G15G17
  -5202795.75847  -4044819.23946  23894990.6924   23894991.3164   23894993.0504
     -3605.5574
 -10419670.92247  -8105321.26046  24107534.8974   24107534.6804   24107537.7274
     -2941.4474
 -17309319.13948 -13452117.82647  22303942.4724   22303941.1404   22303943.9644
     -2211.0044
  -3443444.94447  -2627330.15145  25152814.8394   25152813.4984   25152817.2684
      3801.3964
 -17947814.82248 -13965962.64147  21958700.8794   21958700.7364   21958703.2284
      2773.1594
 -17086750.32848 -13275204.43547  21919894.8934   21919894.2154   21919897.0124
      1502.8154
 -10630457.99747  -8087249.33746  23473320.2784   23473320.3074   23473322.2454
      1912.3284
    686409.16947    593042.14746  25135981.8594   25135980.8904   25135984.5314
     -3687.2464
 -26756973.19749 -20840453.92248  20364845.2824   20364845.4294   20364846.7844
       315.2264
  -9390831.57348  -7274030.41847  23446680.6454   23446681.3594   23446682.7044
      2434.8364
 10  1  2  0  8  0.0000000  0 10G05G08G28G12G09G27G18G10G15G17
  -5094603.44747  -3960513.54446  23915579.4084   23915580.1354   23915582.1014
     -3608.3814
 -10331414.80047  -8036550.28346  24124329.5084   24124328.9884   24124332.8594
     -2943.2864
 -17242839.24248 -13400315.30647  22316593.2404   22316592.6184   22316594.6314
     -2222.1704
  -3557477.34447  -2716186.71145  25131114.6184   25131114.2524   25131117.1484
      3799.5534
 -18030914.85448 -14030715.89447  21942887.1714   21942886.7004   21942890.0824
      2765.8724
 -17131765.52748 -13310281.20847  21911328.5154   21911328.3894   21911331.1504
      1497.0914
 -10687608.83147  -8131782.44546  23462445.3354   23462444.7914   23462446.5544
      1896.5054
    796973.99247    679196.55646  25157021.9554   25157020.8694   25157025.1434
     -3685.2524
 -26766212.81449 -20847653.62948  20363086.9794   20363087.1374   20363088.7424
       299.6054
  -9463742.39848  -7330844.04747  23432805.9084   23432806.5474   23432807.8224
      2424.8024
 10  1  2  0  8 30.0000000  0 10G05G08G28G12G09G27G18G10G15G17
  -4986333.01847  -3876146.96346  23936182.9334   23936183.2094   23936185.2434
     -3610.4054
 -10243100.22747  -7967733.75646  24141135.4174   24141134.8174   24141139.3604
     -2944.9454
 -17176027.19548 -13348253.97047  22329307.0594   22329306.8414   22329308.3084
     -2232.8314
  -3671445.73847  -2804993.24146  25109427.6454   25109428.1094   25109430.4184
      3797.4334
 -18113795.59448 -14095298.27647  21927115.7164   21927114.9404   21927118.8064
      2758.7244
 -17176607.62248 -13345223.09047  21902795.4594   21902795.3774   21902798.0944
      1491.6904
 -10744285.55847  -8175946.13346  23451658.7244   23451658.4794   23451660.4234
      1881.0094
    907471.79247    765298.73046  25178049.3564   25178047.4554   25178052.6204
     -3682.4094
 -26774983.13449 -20854487.65348  20361418.0394   20361418.3054   20361419.6584
       284.2394
  -9536350.58048  -7387421.84447  23418989.3004   23418989.2964   23418991.4894
      2415.0634
 10  1  2  0  9  0.0000000  0 10G05G08G28G12G09G27G18G10G15G17
  -4877989.88447  -3791723.73746  23956799.4334   23956800.7214   23956801.7354
     -3612.7524
 -10154730.64047  -7898874.35846  24157951.6514   24157951.9534   24157954.3174
     -2946.7004
 -17108888.06848 -13295937.76547  22342083.5464   22342083.0044   22342084.9624
     -2243.5304
  -3785350.78647  -2893750.40146  25087751.9444   25087751.9374   25087753.8824
      3795.6234
 -18196459.18448 -14159711.44847  21911385.0054   21911384.9394   21911387.7194
      2751.6974
 -17221279.56548 -13380032.38747  21894294.7684   21894294.4064   21894297.0944
      1486.0724
 -10800489.24347  -8219741.20446  23440965.0414   23440964.3844   23440964.5604
      1865.4004
   1017897.51747    851344.74446  25199061.9614   25199062.2174   25199064.5514
     -3679.4724
 -26783286.13949 -20860957.53348  20359837.9934   20359838.1944   20359839.6664
       268.8114
  -9608656.49048  -7443764.10447  23405229.6084   23405228.8934   23405232.5734
      2405.0044
 10  1  2  0  9 30.0000000  0 10G05G08G28G12G09G27G18G10G15G17
  -4769575.03147  -3707244.62946  23977430.0874   23977430.8864   23977431.7114
     -3615.6384
 -10066304.85647  -7829971.18246  24174778.6884   24174778.0834   24174781.7544
     -2948.9984
 -17041422.09948 -13243366.87247  22354921.5414   22354921.4644   22354923.1974
     -2254.9024
  -3899188.52847  -2982455.14646  25066089.7494   25066090.1184   25066091.2524
      3792.8964
 -18278903.05548 -14223953.41147  21895696.6854   21895696.6614   21895698.7564
      2743.8894
 -17265779.74748 -13414707.84447  21885826.5274   21885826.0974   21885828.9444
      1479.7624
 -10856216.14047  -8263164.76346  23430359.3424   23430358.7884   23430360.9774
      1848.8994
   1128250.73047    937334.28446  25220062.0774   25220060.3734   25220065.5854
     -3678.0594
 -26791119.02849 -20867061.08848  20358347.4424   20358347.6414   20358349.0774
       252.6104
  -9680655.20047  -7499866.98847  23391528.7854   23391528.2844   23391530.7894
      2394.0424
 10  1  2  0 10  0.0000000  0 10G05G08G28G12G09G27G18G10G15G17
  -4661091.78247  -3622712.23146  23998074.3594   23998074.9144   23998076.5414
     -3617.2434
  -9977823.51447  -7761024.71446  24191615.8264   24191615.1024   24191618.6274
     -2950.1664
 -16973631.75148 -13190543.21847  22367821.8754   22367821.7934   22367823.2014
     -2265.2014
  -4012957.56147  -3071106.33746  25044440.1224   25044439.8394   25044442.5324
      3791.0944
 -18361126.83448 -14288023.88347  21880049.7974   21880050.0234   21880053.2664
      2737.1044
 -17310108.73548 -13449249.90047  21877391.0544   21877390.6754   21877394.0514
      1474.8074
 -10911465.11147  -8306215.90546  23419846.1444   23419845.7864   23419848.5334
      1833.6284
   1238528.52647   1023265.01545  25241047.2114   25241046.9874   25241048.9014
     -3674.7154
 -26798481.34549 -20872797.96348  20356946.5254   20356946.8314   20356948.0774
       237.6044
  -9752344.36648  -7555728.66647  23377886.8044   23377887.2744   23377889.2384
      2384.3794
 10  1  2  0 10 30.0000000  0 10G05G08G28G12G09G27G18G10G15G17
  -4552543.02947  -3538128.78846  24018730.2244   24018730.7934   24018732.7544
     -3619.2064
  -9889287.87547  -7692035.92346  24208463.9834   24208463.1644   24208467.1914
     -2952.2814
 -16905519.38048 -13137468.64247  22380783.0014   22380782.5334   22380784.4524
     -2275.7714
  -4126656.20547  -3159702.68346  25022804.0004   25022803.0914   25022805.6204
      3788.9024
 -18443129.65848 -14351922.18547  21864445.5064   21864445.0434   21864448.1144
      2730.1314
 -17354266.48548 -13483658.52147  21868988.0904   21868987.6244   21868990.9914
      1469.2384
 -10966234.64947  -8348893.45946  23409423.6564   23409423.8204   23409424.6544
      1817.6944
   1348728.17547   1109134.90345  25262017.8194   25262015.4764   25262020.9524
     -3672.1424
 -26805372.07649 -20878167.37348  20355635.1164   20355635.4734   20355636.8264
       221.8554
  -9823721.18748  -7611346.96647  23364304.4184   23364304.6994   23364305.9474
      2374.0234
 10  1  2  0 11  0.0000000  0 10G05G08G28G12G09G27G18G10G15G17
  -4443929.43547  -3453494.81846  24039398.3564   24039398.8814   24039401.8384
     -3621.6414
  -9800696.12947  -7623003.42746  24225322.1704   24225322.0284   24225325.3374
     -2953.9774
 -16837085.08348 -13084143.21347  22393806.0184   22393805.3784   22393807.3854
     -2286.4054
  -4240280.02147  -3248240.72246  25001182.2314   25001182.2334   25001184.5474
      3786.4364
 -18524908.26548 -14415645.76447  21848883.3494   21848882.8734   21848885.0514
      2722.4934
 -17398251.02348 -13517932.17747  21860618.0384   21860618.0044   21860620.6634
      1463.3994
 -11020520.50447  -8391194.13946  23399093.9314   23399093.9504   23399095.3814
      1801.4514
   1458849.69647   1194943.89745  25282972.1214   25282972.9534   25282974.9894
     -3669.4684
 -26811788.02449 -20883166.82248  20354414.3844   20354414.6414   20354415.9784
       206.0594
  -9894780.44148  -7666717.80747  23350782.0884   23350781.9944   23350784.1674
      2363.5624
 10  1  2  0 11 30.0000000  0 10G05G08G28G12G09G27G18G10G15G17
  -4335256.90647  -3368814.94347  24060078.7074   24060079.1174   24060080.3234
     -3623.4124
  -9712051.82847  -7553929.98646  24242190.9334   24242189.3734   24242193.8394
     -2955.8594
 -16768333.80548 -13030570.78647  22406888.6504   22406887.9514   22406889.9364
     -2297.0624
  -4353830.29147  -3336721.43246  24979573.8034   24979574.1304   24979575.9084
      3783.5164
 -18606464.59448 -14479196.13847  21833363.6074   21833363.3734   21833366.4644
      2714.9234
 -17442065.39048 -13552073.23047  21852280.4144   21852279.9674   21852283.7354
      1457.5374
 -11074323.96447  -8433118.92446  23388855.9924   23388854.8554   23388856.2754
      1785.3604
   1568887.91147   1280687.98945  25303912.3604   25303912.6024   25303915.4414
     -3666.6344
 -26817731.27949 -20887797.93648  20353283.3574   20353283.6334   20353284.9394
       190.1174
  -9965522.53148  -7721841.51247  23337320.4994   23337320.9564   23337323.5394
      2352.6744
 10  1  2  0 12  0.0000000  0 10G05G08G28G12G09G27G18G10G15G17
  -4226528.14147  -3284091.23447  24080769.1324   24080769.2064   24080771.0644
     -3625.4354
  -9623355.89047  -7484816.30646  24259069.0324   24259068.9354   24259071.7244
     -2957.7424
 -16699267.53748 -12976752.91447  22420031.6194   22420031.0394   22420032.9834
     -2307.8764
  -4467304.72847  -3425143.02646  24957980.4964   24957980.9144   24957983.9104
      3780.7924
 -18687797.52348 -14542572.43347  21817886.4724   21817886.0084   21817888.5604
      2706.8864
 -17485709.67048 -13586081.74847  21843975.1264   21843974.7434   21843977.9244
      1451.5614
 -11127643.21647  -8474666.37546  23378708.7004   23378707.5554   23378711.8064
      1768.8134
   1678840.44746   1366365.25945  25324835.9224   25324834.6184   25324835.4264
     -3663.7294
 -26823200.70649 -20892059.83348  20352242.5464   20352242.8804   20352244.2654
       174.0434
 -10035944.32148  -7776715.62647  23323919.6084   23323919.3304   23323921.6004
      2341.7664
 10  1  2  0 12 30.0000000  0 10G05G08G28G12G09G27G18G10G15G17
  -4117745.29147  -3199325.38347  24101469.4734   24101470.0784   24101472.6454
     -3626.8614
  -9534607.87047  -7415662.01246  24275957.1654   24275957.6534   24275959.4094
     -2959.1874
 -16629887.69848 -12922690.69247  22433234.0834   22433233.4014   22433235.0314
     -2317.9124
  -4580700.82547  -3513503.60146  24936402.3374   24936402.2874   24936403.7754
      3778.6514
 -18768905.97548 -14605773.81447  21802451.9624   21802452.0194   21802453.9794
      2699.8674
 -17529183.51148 -13619957.45447  21835702.6114   21835702.4144   21835704.9314
      1446.3374
 -11180476.08047  -8515834.83546  23368654.5734   23368654.2744   23368656.1304
      1752.8604
   1788705.42946   1451974.43345  25345741.3944   25345740.3664   25345746.5314
     -3660.6754
 -26828195.05949 -20895951.54248  20351292.1854   20351292.3504   20351293.7744
       158.6154
 -10106042.82448  -7831337.82647  23310580.4274   23310579.5174   23310582.7564
      2331.1744
 10  1  2  0 13  0.0000000  0 10G05G08G28G12G09G27G18G10G15G17
  -4008907.45747  -3114516.69246  24122180.8134   24122180.9094   24122183.4204
     -3628.6564
  -9445804.74647  -7346464.78846  24292855.9064   24292855.5624   24292859.6104
     -2960.7304
 -16560192.64848 -12868382.86147  22446496.4634   22446496.3804   22446497.5674
     -2328.3264
  -4694012.39447  -3601798.33546  24914840.0434   24914840.0974   24914841.8664
      3775.5264
 -18849785.07948 -14668796.48447  21787061.5524   21787060.8434   21787063.9454
      2692.4064
 -17572483.03148 -13653697.33347  21827462.9354   21827462.5914   21827465.2904
      1440.6554
 -11232817.13347  -8556620.05946  23358695.1794   23358694.0994   23358696.0404
      1736.6804
   1898484.38746   1537516.44145  25366631.4734   25366631.6054   25366636.7994
     -3657.7424
 -26832709.19349 -20899469.05648  20350433.2174   20350433.5194   20350434.6464
       142.5904
 -10175810.88148  -7885702.53547  23297304.1074   23297305.0214   23297306.0294
      2320.4444
 10  1  2  0 13 30.0000000  0 10G05G08G28G12G09G27G18G10G15G17
  -3900025.76047  -3029673.81946  24142900.6694   24142901.6284   24142902.5284
     -3630.4194
  -9356954.82547  -7277231.08746  24309763.1654   24309762.7544   24309767.1604
     -2962.5214
 -16490192.78248 -12813837.51547  22459816.9384   22459816.2654   22459819.1094
     -2338.5634
  -4807246.57546  -3690032.69746  24893290.8174   24893291.0794   24893293.8634
      3772.4474
 -18930442.19948 -14731646.17947  21771712.8064   21771712.1094   21771715.2494
      2684.5914
 -17615616.47648 -13687307.79947  21819254.8814   21819254.5154   21819257.5444
      1434.7704
 -11284672.79947  -8597027.06546  23348827.4644   23348827.1244   23348827.8404
      1720.1174
   2008166.31545   1622982.85745  25387502.5574   25387502.5344   25387506.7134
     -3654.3714
 -26836750.76949 -20902618.34648  20349664.1014   20349664.3804   20349665.8344
       126.5794
 -10245254.14348  -7939814.17047  23284089.0674   23284088.0124   23284091.9034
      2309.0584
 10  1  2  0 14  0.0000000  0 10G05G08G28G12G09G27G18G10G15G17
  -3791093.32147  -2944791.41846  24163629.3044   24163629.9034   24163631.6274
     -3631.5934
  -9268049.40047  -7207954.15946  24326681.2114   24326680.7334   24326684.3434
     -2963.9574
 -16419880.34448 -12759048.60947  22473196.7134   22473196.4474   22473198.2534
     -2348.6714
  -4920391.26546  -3778197.29146  24871761.2124   24871760.7654   24871763.1814
      3770.5554
 -19010866.78348 -14794314.67947  21756408.6674   21756407.8354   21756410.6374
      2677.0984
 -17658574.21348 -13720781.35547  21811079.9834   21811079.9464   21811082.9464
      1429.3554
 -11336031.46247  -8637046.81146  23339054.2224   23339053.4814   23339055.4314
      1703.9604
   3693179.37346   2935980.03445  25408359.5694   25408357.2094   25408364.5534
     -3651.3054
 -26840309.12549 -20905391.10348  20348987.1004   20348987.2154   20348988.6434
       110.8724
 -10314360.10848  -7993662.96347  23270938.9574   23270937.8724   23270941.1664
      2297.9864
 10  1  2  0 14 30.0000000  0 10G05G08G28G12G09G27G18G10G15G17
  -3682121.40547  -2859878.26046  24184365.4364   24184365.5384   24184368.2924
     -3632.8564
  -9179097.87047  -7138641.29846  24343608.3904   24343606.6994   24343611.1234
     -2965.6724
 -16349266.41648 -12704024.77347  22486634.3004   22486634.1504   22486635.3874
     -2358.5994
  -5033452.93046  -3866297.27246  24850246.6244   24850245.5784   24850248.8674
      3767.2934
 -19091066.98148 -14856808.32747  21741146.8104   21741146.2314   21741148.7884
      2669.6584
 -17701364.96048 -13754124.78547  21802937.2864   21802937.0934   21802939.6744
      1423.6664
 -11386900.59547  -8676685.09446  23329373.8514   23329372.8904   23329374.5874
      1687.6184
   3802671.86156   3021298.85155  25429195.5554   25429191.7224   25429198.7614
     -3647.6254
 -26843391.91149 -20907793.28148  20348400.4394   20348400.4204   20348402.1294
        94.8714
 -10383134.78248  -8047253.60847  23257851.4014   23257851.7034   23257852.9814
      2286.8954
 10  1  2  0 15  0.0000000  0 10G05G08G28G12G09G27G18G10G15G17
  -3573108.20047  -2774932.91846  24205110.4164   24205110.5554   24205113.6124
     -3634.5844
  -9090095.65647  -7069288.95046  24360545.1784   24360545.2044   24360547.0654
     -2967.7934
 -16278348.07248 -12648763.73047  22500129.7714   22500129.3084   22500131.4094
     -2369.1534
  -5146425.03246  -3954327.45046  24828748.5434   24828748.3734   24828751.5694
      3763.4974
 -19171036.43448 -14919122.16947  21725929.0864   21725928.5764   21725932.3344
      2661.7194
 -17743983.87148 -13787334.32247  21794827.3354   21794827.2214   21794829.9714
      1417.7304
 -11437273.33447  -8715936.58546  23319788.8354   23319787.7974   23319789.9774
      1670.7324
   3912066.55846   3106541.40545  25450011.2894   25450011.0994   25450016.0244
     -3644.6574
 -26845993.29049 -20909820.34048  20347905.4004   20347905.6124   20347907.0034
        78.5294
 -10451570.30348  -8100579.99547  23244828.6384   23244829.0854   23244831.2954
      2275.3344
 10  1  2  0 15 30.0000000  0 10G05G08G28G12G09G27G18G10G15G17
  -3464056.21647  -2689957.35646  24225861.6414   24225861.8204   24225864.6514
     -3636.4164
  -9001043.52147  -6999897.68346  24377491.0794   24377491.0744   24377495.2494
     -2969.6124
 -16207127.22048 -12593266.96147  22513682.5584   22513682.0404   22513683.7544
     -2379.3484
  -5259305.27946  -4042286.01646  24807267.9994   24807267.5464   24807269.6794
      3760.5914
 -19250774.05848 -14981255.37447  21710755.3974   21710755.4824   21710757.6554
      2653.5394
 -17786430.88148 -13820409.90247  21786749.8944   21786749.5194   21786752.8214
      1411.4694
 -11487148.19447  -8754800.09246  23310297.2454   23310297.1704   23310297.9554
      1653.6474
   4021361.48345   3191706.26245  25470809.6044   25470807.5274   25470811.3834
     -3641.4684
 -26848112.40049 -20911471.60148  20347502.1584   20347502.2674   20347503.6444
        62.0514
 -10519663.58348  -8153639.68247  23231870.8454   23231871.4734   23231872.6484
      2263.4114
 10  1  2  0 16  0.0000000  0 10G05G08G28G12G09G27G18G10G15G17
  -3354969.72047  -2604954.93246  24246620.8694   24246620.5024   24246624.1334
     -3637.1794
  -8911943.27647  -6930468.94246  24394446.4704   24394445.9864   24394449.7024
     -2970.9694
 -16135607.85348 -12537537.58847  22527292.1584   22527291.7784   22527293.1284
     -2389.2424
  -5372093.25147  -4130172.72546  24785805.1164   24785804.6864   24785807.1164
      3757.6454
 -19330280.88448 -15043208.72747  21695625.7914   21695625.5084   21695628.6104
      2646.0694
 -17828707.80048 -13853352.95047  21778704.7494   21778704.6644   21778707.5174
      1406.1754
 -11536525.15947  -8793275.65246  23300901.1504   23300900.8554   23300902.0304
      1637.1804
   4130552.53646   3276790.14545  25491588.5104   25491587.2684   25491590.1254
     -3638.1904
 -26849750.24849 -20912747.85348  20347190.2624   20347190.5744   20347191.9234
        46.3284
 -10587413.98448  -8206432.20647  23218978.4024   23218978.6914   23218980.7034
      2252.3964
 10  1  2  0 16 30.0000000  0 10G05G08G28G12G09G27G18G10G15G17
  -3245851.83547  -2519928.03446  24267385.8884   24267385.4934   24267387.8394
     -3637.9504
  -8822795.84747  -6861003.44346  24411410.9934   24411409.9924   24411413.9814
     -2972.4144
 -16063791.73648 -12481576.98547  22540958.4284   22540958.3084   22540959.6474
     -2399.0384
  -5484787.56247  -4217986.42646  24764358.6044   24764359.4984   24764361.6654
      3754.5574
 -19409556.39648 -15104981.84247  21680540.1744   21680540.2344   21680542.7314
      2638.5564
 -17870814.84548 -13886163.63747  21770692.2674   21770691.8334   21770694.2064
      1400.5264
 -11585402.59247  -8831361.96746  23291600.4764   23291598.7414   23291600.7224
      1620.5954
   4239637.17856   3361791.24355  25512346.4744   25512340.4384   25512348.8634
     -3635.7204
 -26850905.87049 -20913648.34348  20346970.4484   20346970.7314   20346972.2064
        30.3484
 -10654818.81148  -8258955.44347  23206151.7064   23206153.4154   23206153.1974
      2240.7974
 10  1  2  0 17  0.0000000  0 10G05G08G28G12G09G27G18G10G15G17
  -3136707.04547  -2434880.16246  24288155.0344   24288155.5824   24288156.6834
     -3638.1074
  -8733603.34747  -6791502.80146  24428383.7584   24428382.2524   24428388.0974
     -2973.8314
 -15991683.20148 -12425388.51847  22554680.5194   22554680.0484   22554682.3214
     -2408.1494
  -5597388.00647  -4305727.03046  24742933.1674   24742933.7464   24742935.3704
      3752.0424
 -19488601.12048 -15166575.13447  21665498.7704   21665498.4644   21665501.0704
      2631.2944
 -17912753.60048 -13918843.18548  21762711.2174   21762711.5614   21762713.6884
      1395.4454
 -11633780.69247  -8869059.19246  23282393.9764   23282392.8244   23282394.9494
      1604.4544
   4348611.49146   3446706.20745  25533084.3064   25533081.0524   25533085.1784
     -3630.3044
 -26851580.27649 -20914173.86148  20346842.2194   20346842.4284   20346843.8924
        14.7064
 -10721876.42848  -8311208.12347  23193391.3144   23193391.5764   23193391.8944
      2229.5784
 10  1  2  0 17 30.0000000  0 10G05G08G28G12G09G27G18G10G15G17
  -3027521.27547  -2349800.34246  24308931.9094   24308932.5984   24308934.7904
     -3639.7804
  -8644349.18947  -6721954.10046  24445368.3074   24445367.1984   24445370.1934
     -2975.5424
 -15919267.34048 -12368960.58647  22568460.4414   22568460.1104   22568461.9904
     -2418.5054
  -5709875.23247  -4393379.41746  24721527.6654   24721527.4774   24721529.5694
      3748.3264
 -19567397.13848 -15227974.61647  21650504.1484   21650504.1034   21650506.3504
      2622.9364
 -17954507.12048 -13951378.39348  21754765.9894   21754765.7304   21754767.9544
      1389.2894
 -11681641.38847  -8906353.24946  23273286.4324   23273286.3164   23273287.8764
      1587.3644
   4457490.09846   3531546.65746  25553802.4894   25553801.3504   25553804.6484
     -3627.4724
 -26851755.78349 -20914310.62848  20346808.7724   20346808.9664   20346810.5234
        -1.9194
 -10788567.73548  -8363175.37847  23180699.8954   23180701.3144   23180701.3524
      2217.3794
 10  1  2  0 18  0.0000000  0 11G05G08G28G12G22G09G27G18G10G15G17
  -2918325.19647  -2264712.50146  24329711.5584   24329711.7194   24329713.3194
     -3639.9174
  -8555061.82947  -6652379.51146  24462359.0104   24462358.0244   24462360.3114
     -2976.6594
 -15846573.99948 -12312316.41447  22582293.7614   22582293.0844   22582295.1024
     -2427.7954
  -5822275.15447  -4480963.73546  24700138.3844   24700138.3404   24700139.4824
      3745.1604
  -1682847.29647  -1052229.08646  25530266.6154   25530266.6154   25530266.6044
      2799.1744
 -19645971.26948 -15289201.19847  21635551.9754   21635551.7304   21635554.0604
      2615.3604
 -17996103.27049 -13983790.97348  21746850.7744   21746850.5464   21746852.9994
      1383.9224
 -11729010.56647  -8943264.27846  23264272.7884   23264272.8654   23264273.9864
      1570.7484
   4566243.35146   3616289.50145  25574496.6934   25574497.6224   25574499.0574
     -3623.5174
 -26851459.25949 -20914079.57448  20346865.2144   20346865.4894   20346867.1274
       -17.8534
 -10854917.64948  -8414876.60247  23168073.9354   23168075.1034   23168075.4724
      2205.8314
 10  1  2  0 18 30.0000000  0 11G05G08G28G12G22G09G27G18G10G15G17
  -2809109.19347  -2179609.12546  24350494.8294   24350494.6044   24350496.4564
     -3641.2374
  -8465730.13047  -6582770.39046  24479358.0264   24479357.2764   24479361.6714
     -2978.8564
 -15773593.12848 -12255448.21047  22596181.3474   22596181.3434   22596183.0534
     -2437.8544
  -5934573.83547  -4568469.21946  24678768.9624   24678767.9564   24678769.9854
      3741.1614
  -1766676.72446  -1117550.73646  25514314.3944   25514314.5474   25514315.2704
      2789.0844
 -19724310.60548 -15350244.82647  21620644.5994   21620644.4644   21620646.5024
      2606.8344
 -18037530.14249 -14016071.64848  21738967.3154   21738967.0764   21738969.8984
      1377.5624
 -11775874.95447  -8979781.99546  23255354.1664   23255354.0284   23255355.0574
      1553.1724
   4674880.41947   3700941.70846  25595171.0464   25595168.7554   25595173.6574
     -3619.7484
 -26850677.86149 -20913470.69648  20347014.0014   20347014.1704   20347015.6694
       -34.6404
 -10920911.30848  -8466300.22247  23155515.9984   23155515.8274   23155517.8504
      2193.3404
 10  1  2  0 19  0.0000000  0 11G05G08G28G12G22G09G27G18G10G15G17
  -2699878.23947  -2094494.09846  24371280.9654   24371281.1794   24371283.7384
     -3641.8964
  -8376356.39147  -6513128.50946  24496365.5024   24496365.6214   24496367.5744
     -2980.4444
 -15700329.19948 -12198359.43447  22610123.2014   22610122.5464   22610123.7944
     -2447.4844
  -6046771.51647  -4655896.02346  24657418.1794   24657417.1954   24657419.3004
      3737.4634
  -1850214.02747  -1182644.73046  25498417.7244   25498417.8474   25498416.8144
      2778.7174
 -19802416.31048 -15411106.40147  21605781.9574   21605781.8604   21605783.9444
      2599.0374
 -18078789.78049 -14048222.01048  21731115.8474   21731115.6294   21731118.1844
      1371.8454
 -11822234.88848  -9015906.60346  23246532.7964   23246533.1174   23246534.1394
      1536.4644
   4783397.01746   3785500.11746  25615820.2664   25615820.4104   25615823.6274
     -3615.5374
 -26849413.00349 -20912485.09748  20347254.6324   20347254.7854   20347256.3304
       -50.8144
 -10986547.87648  -8517445.59847  23143025.7794   23143026.4104   23143027.9834
      2181.3154
 10  1  2  0 19 30.0000000  0 11G05G08G28G12G22G09G27G18G10G15G17
  -2590625.92347  -2009362.44646  24392070.4664   24392071.0414   24392073.3154
     -3641.9544
  -8286931.82647  -6443447.02346  24513382.0934   24513381.6674   24513385.0304
     -2981.5984
 -15626775.04248 -12141044.51147  22624119.8324   22624119.4294   22624120.9944
     -2456.3964
  -6158856.61047  -4743235.00246  24636088.4464   24636088.6994   24636091.4354
      3734.5204
  -1933447.41546  -1247501.90546  25482578.7694   25482578.2024   25482578.9604
      2769.5114
 -19880278.18248 -15471777.97547  21590964.9234   21590964.6344   21590967.0374
      2591.5164
 -18119873.11949 -14080235.00248  21723297.9824   21723297.5614   21723300.6414
      1366.7764
 -11868079.45847  -9051629.65446  23237807.7064   23237808.3644   23237810.2194
      1519.8034
   4891800.38247   3869970.24646  25636449.1754   25636448.0964   25636450.5854
     -3611.7654
 -26847654.62749 -20911114.94248  20347589.2944   20347589.5374   20347591.0004
       -66.6564
 -11051815.89248  -8568303.78747  23130605.7244   23130606.0624   23130607.7534
      2169.6784
 10  1  2  0 20  0.0000000  0 11G05G08G28G12G22G09G27G18G10G15G17
  -2481362.06647  -1924221.76946  24412862.5414   24412863.1974   24412865.8174
     -3642.7434
  -8197463.76047  -6373731.65446  24530407.2914   24530406.6274   24530411.1044
     -2983.4874
 -15552939.39948 -12083510.24747  22638170.4264   22638170.1784   22638171.6194
     -2466.3054
  -6270834.67247  -4830490.67446  24614780.7084   24614780.1404   24614782.3154
      3730.1454
  -2016381.13146  -1312125.51746  25466796.3604   25466797.5144   25466796.5654
      2758.8154
 -19957902.30848 -15532264.28947  21576193.5524   21576193.0484   21576196.0434
      2582.8264
 -18160786.96049 -14112115.91048  21715512.2924   21715511.8994   21715515.0254
      1360.3564
 -11913414.36547  -9086955.56646  23229181.3024   23229181.5874   23229182.6074
      1502.2474
   5000081.33747   3954345.02646  25657054.5604   25657053.3644   25657057.1504
     -3607.5494
 -26845408.94349 -20909365.06448  20348016.6254   20348016.8134   20348018.2974
       -83.6354
 -11116719.16148  -8618877.76647  23118254.8284   23118255.8984   23118256.5504
      2156.7364
 10  1  2  0 20 30.0000000  0 11G05G08G28G12G22G09G27G18G10G15G17
  -2372088.14847  -1839073.27046  24433657.0424   24433656.9854   24433659.0884
     -3643.1544
  -8107952.28347  -6303982.47846  24547440.8404   24547440.8534   24547445.1044
     -2984.4684
 -15478823.84448 -12025757.87747  22652274.0174   22652274.3184   22652276.0834
     -2475.1544
  -6382702.31847  -4917660.30946  24593492.5054   24593493.1064   24593494.7144
      3726.8344
  -2099012.11446  -1376513.33346  25451073.0414   25451071.2704   25451072.7894
      2748.8964
 -20035286.53148 -15592563.66847  21561467.8804   21561467.4004   21561470.3124
      2575.3274
 -18201530.59449 -14143864.19848  21707759.0474   21707758.5484   21707761.8184
      1355.2464
 -11958237.27247  -9121882.50446  23220651.3004   23220651.4334   23220652.8464
      1485.3934
   5108238.29747   4038623.18346  25677634.7814   25677635.5664   25677638.6264
     -3603.1724
 -26842674.39549 -20907234.25048  20348537.0074   20348537.1984   20348538.5854
       -99.4294
 -11181253.89748  -8669164.56047  23105974.2614   23105974.5404   23105976.3384
      2144.9864
 10  1  2  0 21  0.0000000  0 11G05G08G28G12G22G09G27G18G10G15G17
  -2262806.54047  -1753918.75746  24454452.6914   24454452.5254   24454455.7524
     -3642.4754
  -8018396.88046  -6234199.04746  24564482.6634   24564481.4154   24564486.0804
     -2985.5664
 -15404429.61848 -11967788.36247  22666430.9004   22666430.2124   22666431.8664
     -2484.1944
  -6494457.57847  -5004742.28946  24572225.6604   24572226.6404   24572228.8154
      3723.3434
  -2181337.53847  -1440662.95546  25435407.1884   25435407.3154   25435407.6634
      2739.2384
 -20112429.66548 -15652675.17947  21546787.9994   21546787.5714   21546790.6524
      2567.7054
 -18242103.40049 -14175479.36548  21700038.3184   21700038.0144   21700040.5794
      1349.8124
 -12002546.30847  -9156409.02946  23212220.1664   23212220.4354   23212221.4914
      1468.6844
   5216269.73347   4122803.51046  25698192.3004   25698191.9604   25698197.3734
     -3598.9714
 -26839449.65449 -20904721.47248  20349150.6714   20349150.9014   20349152.2344
      -115.4404
 -11245417.31448  -8719162.03047  23093764.3534   23093765.1004   23093766.9844
      2132.6204
 10  1  2  0 21 30.0000000  0 10G05G08G28G12G22G09G27G18G15G17
  -2153520.71347  -1668760.98446  24475248.7584   24475248.6074   24475251.5904
     -3643.3654
  -7928799.43846  -6164382.86346  24581532.3174   24581531.4944   24581535.3214
     -2987.6904
 -15329759.80848 -11909604.10947  22680640.3634   22680640.0024   22680642.1284
     -2493.8014
  -6606099.04147  -5091735.66046  24550981.7864   24550980.7934   24550983.3304
      3719.1384
  -2263355.90247  -1504573.37446  25419799.5224   25419798.6234   25419799.3334
      2728.5904
 -20189331.71148 -15712598.84347  21532154.1344   21532153.9504   21532157.3354
      2558.9964
 -18282506.20849 -14206962.06848  21692349.6794   21692349.5034   21692352.1414
      1343.6704
 -12046340.71148  -9190534.55246  23203886.1284   23203886.1264   23203887.0664
      1450.6904
 -26835734.96049 -20901826.91048  20349857.6184   20349857.6704   20349859.2674
      -132.3254
 -11309207.55348  -8768868.70747  23081625.3284   23081625.9094   23081627.4574
      2119.8254
 10  1  2  0 22  0.0000000  0 10G05G08G28G12G22G09G27G18G15G17
  -2044235.69747  -1583603.83746  24496045.5714   24496045.9854   24496047.3374
     -3643.0364
  -7839162.17446  -6094535.65546  24598590.0594   24598589.5054   24598591.8064
     -2988.9244
 -15254818.88548 -11851208.59247  22694901.1244   22694901.0444   22694902.8884
     -2502.9994
  -6717626.93247  -5178640.49446  24529758.7264   24529758.2954   24529761.1714
      3715.4964
  -2345066.69446  -1568244.16846  25404250.3944   25404248.6704   25404248.7164
      2718.3884
 -20265993.98848 -15772335.66847  21517565.4434   21517565.2394   21517567.4034
      2551.0654
 -18322741.27349 -14238314.06848  21684693.2724   21684693.3364   21684696.0964
      1338.0314
 -12089621.47247  -9224259.82346  23195650.8904   23195650.2524   23195649.8944
      1433.7234
 -26831531.74549 -20898551.67948  20350657.4234   20350657.7274   20350659.0154
      -148.5604
 -11372624.19448  -8818284.26347  23069557.9004   23069557.7824   23069560.4434
      2107.3044
 10  1  2  0 22 30.0000000  0 10G05G08G28G12G22G09G27G18G15G17
  -1934950.49147  -1498446.55546  24516841.3414   24516842.2124   24516843.7204
     -3642.6644
  -7749481.79146  -6024654.85546  24615655.4834   24615654.7884   24615659.6374
     -2990.0224
 -15179604.99448 -11792600.37147  22709213.9434   22709213.2404   22709214.6024
     -2511.5664
  -6829035.17547  -5265452.07446  24508558.2344   24508558.7754   24508560.0454
      3711.7584
  -2426464.36447  -1631670.92246  25388761.0974   25388760.7764   25388760.0004
      2708.1164
 -20342411.71548 -15831881.93647  21503024.0824   21503024.0274   21503026.1794
      2543.2664
 -18362804.82649 -14269532.42148  21677069.6934   21677069.3134   21677072.0314
      1332.6094
 -12132383.39048  -9257580.79646  23187514.1114   23187513.2704   23187514.3154
      1416.8524
 -26826835.55749 -20894892.31948  20351550.9414   20351551.2524   20351552.6594
      -164.7054
 -11435660.51748  -8867403.46647  23057562.3954   23057562.5224   23057564.2104
      2095.0094
 10  1  2  0 23  0.0000000  0 10G05G08G28G12G22G09G27G18G15G17
  -1825668.44547  -1413291.71246  24537636.6794   24537636.5784   24537639.1034
     -3643.1264
  -7659759.88746  -5954741.70946  24632729.1214   24632729.8534   24632733.3414
     -2992.0774
 -15104120.97648 -11733781.65847  22723577.8814   22723577.4724   22723579.7304
     -2521.0524
  -6940322.71647  -5352169.61046  24487380.8324   24487380.5964   24487381.8484
      3707.2834
  -2507547.06447  -1694852.29846  25373331.7454   25373331.9534   25373332.0874
      2697.0334
 -20418584.26148 -15891237.15847  21488528.6744   21488528.0254   21488531.0244
      2534.6394
 -18402697.51849 -14300617.63548  21669478.0814   21669477.9404   21669480.9584
      1326.4784
 -12174625.61848  -9290496.83546  23179475.0824   23179473.3684   23179475.0334
      1398.9534
 -26821646.51949 -20890848.92148  20352538.4924   20352538.7364   20352540.0954
      -181.6114
 -11498314.77748  -8916224.95947  23045639.8044   23045639.3534   23045641.3534
      2081.7374
 10  1  2  0 23 30.0000000  0 10G05G08G28G12G22G09G27G18G15G17
  -1716391.25747  -1328140.68346  24558431.6274   24558431.5864   24558434.0844
     -3642.3964
  -7569995.51146  -5884795.43946  24649811.1034   24649809.5654   24649814.2704
     -2992.5414
 -15028367.86948 -11674753.26547  22737992.9534   22737992.2704   22737994.9114
     -2529.5414
  -7051487.24647  -5438791.30646  24466226.7354   24466227.3054   24466228.7454
      3703.2004
  -2588311.08047  -1757785.31446  25357962.4124   25357963.8244   25357963.2354
      2686.9914
 -20494509.72848 -15950399.84547  21474080.3434   21474079.9134   21474082.7704
      2526.7844
 -18442418.36949 -14331568.94448  21661919.7184   21661919.1254   21661922.1184
      1321.3624
 -12216345.78647  -9323006.04846  23171534.9514   23171534.8374   23171536.0404
      1381.8984
 -26815962.56749 -20886419.87348  20353620.0824   20353620.2474   20353621.7734
      -197.5994
 -11560582.90348  -8964745.57147  23033790.3934   23033790.1754   23033792.9684
      2069.2194
 10  1  2  0 24  0.0000000  0 10G05G08G28G12G22G09G27G18G15G17
  -1607128.72547  -1243001.03646  24579223.9994   24579224.1524   24579226.1484
     -3642.1414
  -7480196.57446  -5814822.28846  24666898.6854   24666897.8814   24666903.1164
     -2993.6744
 -14952354.94048 -11615522.41547  22752458.0504   22752457.5814   22752459.2734
     -2538.1954
  -7162533.68947  -5525320.99446  24445095.1134   24445096.3254   24445097.1064
      3699.3484
  -2668761.76847  -1820474.17146  25342653.1984   25342652.9734   25342652.0084
      2676.1534
 -20570194.56548 -16009375.02847  21459677.9104   21459677.6734   21459680.7704
      2518.6454
 -18481974.66049 -14362392.02448  21654392.2424   21654392.0214   21654394.4594
      1315.5524
 -12257549.88948  -9355113.16646  23163695.5504   23163695.4684   23163696.9274
      1364.6674
 -26809790.46249 -20881610.44548  20354794.6614   20354794.8904   20354796.2434
      -213.9904
 -11622469.78148  -9012969.10247  23022013.4084   23022013.6824   23022016.1294
      2056.3604
 10  1  2  0 24 30.0000000  0 10G05G08G28G12G22G09G27G18G15G17
  -1497872.52547  -1157866.35046  24600015.2004   24600015.2744   24600017.8754
     -3640.3414
  -7390352.45246  -5744813.88546  24683995.7834   24683995.3734   24683998.3194
     -2994.4794
 -14876073.43248 -11556082.28947  22766973.6814   22766973.2424   22766975.2344
     -2546.2174
  -7273448.85547  -5611748.33646  24423989.4954   24423990.3624   24423990.3644
      3695.9254
  -2748885.37546  -1882908.17645  25327406.6374   25327401.7044   25327401.5574
      2665.8704
 -20645626.86248 -16068153.42747  21445323.8024   21445323.3434   21445325.9984
      2511.0064
 -18521355.23949 -14393078.18448  21646898.2754   21646898.0664   21646900.9784
      1310.5914
 -12298225.44748  -9386808.40846  23155954.2954   23155954.2364   23155955.2924
      1347.8114
 -26803118.88649 -20876411.81848  20356064.1294   20356064.4264   20356065.8304
      -229.9384
 -11683961.70648  -9060884.87747  23010311.9984   23010311.9904   23010314.5624
      2043.9604
 10  1  2  0 25  0.0000000  0 10G05G08G28G12G22G09G27G18G15G17
  -1388633.92147  -1072745.36546  24620801.9924   24620802.7494   24620805.6844
     -3641.2064
  -7300472.22646  -5674777.36146  24701098.4974   24701099.1564   24701102.3444
     -2997.0694
 -14799533.92048 -11496441.11647  22781538.9404   22781538.3334   22781540.3354
     -2556.0964
  -7384239.33847  -5698078.61246  24402905.7414   24402906.1504   24402907.8534
      3690.3884
  -2828688.36746  -1945092.30645  25312220.0774   25312218.2054   25312223.0554
      2654.7954
 -20720814.58448 -16126741.24947  21431016.0274   21431015.7894   21431018.4304
      2501.6884
 -18560568.79349 -14423634.19748  21639436.1444   21639435.9804   21639438.5454
      1303.8994
 -12338379.99048  -9418097.67646  23148314.4244   23148312.8764   23148314.7704
      1329.4264
 -26795955.49149 -20870829.96048  20357427.3594   20357427.4794   20357428.9914
      -247.4364
 -11745064.94748  -9108497.78947  22998684.7154   22998684.8334   22998686.5214
      2029.6634
 10  1  2  0 25 30.0000000  0  9G05G08G28G12G09G27G18G15G17
  -1279411.46647   -987636.97046  24641586.2794   24641587.0664   24641589.0744
     -3641.3734
  -7210551.69046  -5604709.41446  24718210.3484   24718210.3214   24718213.9524
     -2999.0974
 -14722733.80548 -11436596.87047  22796153.4724   22796153.0734   22796155.1864
     -2564.8454
  -7494898.91447  -5784306.78846  24381848.8034   24381849.0204   24381849.9094
      3685.8794
 -20795751.68648 -16185133.79247  21416755.9404   21416755.5834   21416758.4024
      2493.0924
 -18599610.75149 -14454056.49748  21632007.0254   21632006.5124   21632009.3534
      1298.0184
 -12378007.71748  -9448976.43546  23140772.6314   23140771.7314   23140772.1644
      1311.7044
 -26788295.38949 -20864861.05448  20358885.0094   20358885.2154   20358886.6704
      -264.1454
 -11805771.97048  -9155801.95647  22987132.4924   22987132.7564   22987134.7824
      2016.3814
 10  1  2  0 26  0.0000000  0  9G05G08G28G12G09G27G18G15G17
  -1170211.75347   -902546.30246  24662366.0394   24662366.6384   24662368.2884
     -3640.0374
  -7120595.57947  -5534613.76546  24735328.9404   24735328.1304   24735331.3564
     -2999.6484
 -14645679.61548 -11376554.65047  22810816.2314   22810815.2824   22810817.9174
     -2573.3034
  -7605429.53847  -5870434.56246  24360815.9984   24360815.6754   24360816.0564
      3681.4774
 -20870441.73948 -16243333.81947  21402542.9504   21402542.2944   21402544.7064
      2484.9634
 -18638485.24849 -14484348.30648  21624609.4154   21624608.8674   21624611.6034
      1292.4474
 -12417111.47248  -9479446.90846  23133332.0554   23133331.3904   23133330.6484
      1294.0494
 -26780142.16749 -20858507.89848  20360436.6684   20360436.7294   20360438.1814
      -280.5394
 -11866084.47648  -9202798.69547  22975655.5414   22975656.3034   22975657.5464
      2003.4064
 10  1  2  0 26 30.0000000  0  9G05G08G28G12G09G27G18G15G17
  -1061034.01847   -817472.73846  24683143.1264   24683143.2364   24683144.9764
     -3639.0294
  -7030601.31947  -5464488.37446  24752454.0734   24752453.1164   24752456.8644
     -3000.4754
 -14568370.38848 -11316313.69147  22825527.9074   22825526.7124   22825529.4324
     -2581.1904
  -7715826.31447  -5956457.99646  24339806.7874   24339806.6474   24339809.1884
      3677.8724
 -20944880.24748 -16301337.83847  21388377.6654   21388377.0884   21388379.5334
      2477.0154
 -18677189.06349 -14514507.11748  21617244.2854   21617243.6824   21617246.5854
      1287.1724
 -12455686.69548  -9509505.52546  23125990.4104   23125991.4164   23125991.6414
      1277.0244
 -26771491.82549 -20851767.37748  20362082.4904   20362082.8594   20362084.4214
      -296.7104
 -11925996.78248  -9249483.59347  22964254.5224   22964254.7364   22964256.5614
      1990.3534
 10  1  2  0 27  0.0000000  0  9G05G08G28G12G09G27G18G15G17
   -951880.21547   -732417.84846  24703913.5024   24703914.0644   24703916.8704
     -3637.8234
  -6940568.50847  -5394332.90146  24769586.8124   24769586.8454   24769589.6634
     -3001.6314
 -14490807.10748 -11255874.77447  22840287.6634   22840287.2194   22840290.1624
     -2589.2894
  -7826086.42547  -6042374.96246  24318825.7084   24318825.7664   24318827.4314
      3673.0394
 -21019065.62748 -16359144.61047  21374260.6644   21374260.4524   21374263.0764
      2468.9604
 -18715721.26549 -14544532.20448  21609911.8264   21609911.5814   21609914.4414
      1281.9524
 -12493731.55648  -9539150.87246  23118750.7084   23118751.0634   23118751.9934
      1259.5064
 -26762343.18249 -20844638.57048  20363823.4564   20363823.6144   20363825.2464
      -312.9744
 -11985505.34248  -9295853.89747  22952930.3134   22952930.1584   22952933.1274
      1977.3864
 10  1  2  0 27 30.0000000  0  9G05G08G28G12G09G27G18G15G17
   -842757.16447   -647386.90546  24724678.5544   24724679.0314   24724681.2884
     -3637.1684
  -6850501.51447  -5324150.81746  24786725.7864   24786724.3974   24786728.5994
     -3002.6204
 -14412995.70248 -11195242.50747  22855094.5074   22855094.3004   22855096.2804
     -2597.9194
  -7936211.69447  -6128186.85746  24297869.3304   24297868.8704   24297871.6504
      3668.8864
 -21093000.81648 -16416756.43947  21360191.3444   21360191.1764   21360193.4174
      2460.2904
 -18754085.65449 -14574426.52648  21602611.2044   21602611.2384   21602613.9024
      1275.9604
 -12531248.89648  -9568385.17946  23111612.0814   23111611.7054   23111612.5154
      1241.5594
 -26752699.60949 -20837124.10348  20365658.4834   20365658.8564   20365660.2684
      -329.8794
 -12044611.51048  -9341910.64647  22941682.7864   22941683.3254   22941685.2694
      1963.3794
 10  1  2  0 28  0.0000000  0  9G05G08G28G12G09G27G18G15G17
   -733661.52847   -562377.32746  24745438.9324   24745438.3004   24745442.4024
     -3635.7354
  -6760394.63947  -5253937.71046  24803873.0274   24803874.1864   24803875.7184
     -3003.7614
 -14334932.84448 -11134414.30747  22869949.3514   22869948.8244   22869951.0314
     -2605.7974
  -8046194.82347  -6213887.99046  24276940.2904   24276938.9514   24276942.8744
      3664.0854
 -21166679.18348 -16474168.14747  21346170.8074   21346170.2074   21346173.1284
      2452.1934
 -18792276.51849 -14604185.63848  21595343.6274   21595343.6764   21595346.1614
      1270.6534
 -12568231.90248  -9597203.11346  23104574.3234   23104574.0814   23104575.6274
      1224.3724
 -26742554.50449 -20829218.83448  20367589.1274   20367589.5154   20367590.7844
      -346.0084
 -12103307.21248  -9387647.54947  22930513.4424   22930513.7734   22930515.2054
      1950.1214
 10  1  2  0 28 30.0000000  0 10G05G08G28G12G22G09G27G18G15G17
   -624595.82047   -477391.08546  24766193.2384   24766193.3824   24766195.5214
     -3635.0454
  -6670248.26747  -5183693.76446  24821026.8954   24821026.4634   24821029.8974
     -3005.7694
 -14256620.14948 -11073391.42747  22884852.0374   22884851.1024   22884853.6234
     -2614.6374
  -8156033.38847  -6299476.44846  24256038.4814   24256038.2114   24256040.6464
      3659.4354
  -1014426.01617                  25207682.366
      2576.353
 -21240099.24048 -16531378.57147  21332199.4824   21332198.8474   21332201.7044
      2442.9944
 -18830293.49349 -14633809.25048  21588109.2954   21588108.9064   21588111.6044
      1264.2644
 -12604678.41048  -9625603.00446  23097637.7854   23097638.1514   23097638.6584
      1205.7824
 -26731907.25249 -20820922.28448  20369615.3234   20369615.7004   20369617.0234
      -363.4324
 -12161589.33348  -9433062.17747  22919422.6254   22919422.7264   22919424.6834
      1935.6704
 10  1  2  0 29  0.0000000  0 10G05G08G28G12G22G09G27G18G15G17
   -515572.65446   -392437.97246  24786940.2274   24786940.3364   24786943.1284
     -3633.5354
  -6580073.12347  -5113427.42546  24838186.7004   24838186.2144   24838190.8634
     -3006.1664
 -14178069.62148 -11012183.22947  22899799.6814   22899799.2094   22899801.2744
     -2622.2474
  -8265735.45447  -6384958.57446  24235162.9534   24235163.7384   24235165.8694
      3654.3804
  -1091557.99947   -814932.15646  25193005.1924   25193006.1324   25193005.6224
      2565.6054
 -21313270.48948 -16588395.11447  21318275.4254   21318275.1074   21318277.9394
      2434.8614
 -18868146.87649 -14663305.38548  21580905.9864   21580905.9674   21580908.6804
      1259.0094
 -12640597.77448  -9653592.12646  23090803.6024   23090802.8934   23090802.8364
      1188.5654
 -26720767.67149 -20812242.10148  20371735.1814   20371735.3624   20371736.7284
      -379.5694
 -12219465.67348  -9478160.61847  22908409.2344   22908409.2034   22908411.2114
      1922.3894
 10  1  2  0 29 30.0000000  0 10G05G08G28G12G22G09G27G18G15G17
   -406586.00247   -307513.31946  24807679.7024   24807679.1034   24807682.0974
     -3632.4594
  -6489861.03547  -5043132.32646  24855354.2534   24855352.2704   24855357.1364
     -3007.6244
 -14099275.24648 -10950785.01847  22914793.5674   22914792.9564   22914795.4614
     -2630.4724
  -8375290.60847  -6470326.18346  24214314.9194   24214315.3034   24214317.1494
      3649.2654
  -1168343.52147   -874765.08446  25178391.8194   25178393.0554   25178392.5524
      2553.2444
 -21386183.30248 -16645210.28447  21304400.3164   21304399.6564   21304402.9634
      2426.0964
 -18905828.15749 -14692667.41548  21573735.6514   21573735.5524   21573738.2694
      1253.2254
 -12675980.74148  -9681163.26646  23084071.0954   23084070.2224   23084071.0154
      1170.5884
 -26709127.36549 -20803171.73748  20373950.1874   20373950.3824   20373951.8424
      -396.3894
 -12276925.12248  -9522934.20747  22897475.0834   22897474.6854   22897477.2174
      1908.3764
 10  1  2  0 30  0.0000000  0 10G05G08G28G12G22G09G27G18G15G17
   -297643.87646   -222623.38646  24828409.7954   24828410.5474   24828413.6514
     -3631.2114
  -6399617.73247  -4972812.91646  24872526.4034   24872524.9004   24872527.7204
     -3009.0864
 -14020244.07748 -10889202.28847  22929832.8894   22929831.6304   22929834.5554
     -2638.7284
  -8484702.47147  -6555582.19546  24193495.0924   24193495.2174   24193497.3104
      3644.1924
  -1244785.40747   -934330.21246  25163846.1784   25163847.0494   25163847.4254
      2542.1714
 -21458841.78548 -16701827.27047  21290573.9334   21290573.8494   21290576.4154
      2417.1564
 -18943342.16249 -14721899.09948  21566596.7974   21566596.7144   21566599.4694
      1247.1844
 -12710830.78548  -9708319.15546  23077438.5264   23077437.5884   23077439.1144
      1152.3884
 -26696990.02449 -20793714.07348  20376259.8424   20376259.9974   20376261.4664
      -413.3104
 -12333970.40948  -9567385.06747  22886619.3494   22886619.3984   22886621.4554
      1894.2014
 10  1  2  0 30 30.0000000  0 10G05G08G28G12G22G09G27G18G15G17
   -188741.28547   -137764.23546  24849134.4404   24849133.9964   24849137.1064
     -3629.3214
  -6309335.26647  -4902462.93846  24889706.2194   24889707.6084   24889709.7864
     -3010.0854
 -13940970.32548 -10827430.53447  22944917.9764   22944917.2844   22944920.7034
     -2646.4774
  -8593961.15247  -6640718.78846  24172703.6434   24172704.2764   24172705.5104
      3639.3704
  -1320873.99546   -993620.03946  25149366.2334   25149365.2804   25149366.3204
      2530.0574
 -21531237.13748 -16758239.22547  21276797.5104   21276797.4004   21276800.0804
      2408.8864
 -18980681.26449 -14750994.49948  21559491.4964   21559491.1064   21559494.0234
      1241.8544
 -12745139.56148  -9735053.27746  23070910.6194   23070909.1494   23070910.5024
      1134.7644
 -26684347.61149 -20783862.85148  20378665.8094   20378665.9264   20378667.3714
      -429.7694
 -12390591.26148  -9611505.21347  22875844.9834   22875844.9764   22875846.9964
      1880.3954
 10  1  2  0 31  0.0000000  0 10G05G08G28G12G22G09G27G18G15G17
    -79890.93147    -52945.80246  24869848.1594   24869847.8344   24869850.3344
     -3627.9944
  -6219024.89447  -4832091.23946  24906891.9304   24906892.8074   24906896.0864
     -3011.2624
 -13861466.71548 -10765479.66647  22960047.1424   22960045.6984   22960048.6504
     -2654.7134
  -8703074.73047  -6725742.36546  24151939.5064   24151939.7204   24151941.9094
      3633.9154
  -1396617.17147  -1052640.72146  25134953.9244   25134955.7594   25134956.6734
      2518.2914
 -21603378.71348 -16814453.43547  21263069.7294   21263069.2654   21263071.7724
      2399.6394
 -19017855.48049 -14779961.41548  21552417.5344   21552417.1804   21552420.0144
      1235.5914
 -12778916.14648  -9761372.69546  23064482.0084   23064482.9744   23064484.6644
      1116.1384
 -26671210.30349 -20773625.99448  20381165.6974   20381165.7544   20381167.3174
      -447.0164
 -12446795.30848  -9655300.56547  22865149.4894   22865150.2914   22865151.9614
      1865.6754
 10  1  2  0 31 30.0000000  0 10G05G08G28G12G22G09G27G18G15G17
     28912.41447     31836.00946  24890552.2464   24890553.0684   24890554.9794
     -3626.2344
  -6128679.07347  -4761691.92246  24924084.0534   24924083.2784   24924087.0434
     -3012.0644
 -13781726.57648 -10703344.50147  22975220.9624   22975220.4784   22975222.3404
     -2661.7874
  -8812033.54747  -6810645.31546  24131206.1374   24131205.9374   24131207.6114
      3629.0654
  -1472004.92747  -1111384.48245  25120606.0294   25120603.5324   25120606.0024
      2507.2554
 -21675257.61048 -16870462.96047  21249391.4014   21249390.5944   21249393.2224
      2391.6244
 -19054856.80649 -14808793.61348  21545376.1724   21545375.8284   21545378.9114
      1230.4724
 -12812151.10148  -9787270.08046  23058157.8144   23058157.8924   23058159.0794
      1098.7554
 -26657569.58149 -20762996.86748  20383761.2294   20383761.5504   20383763.0334
      -463.0664
 -12502572.45548  -9698763.26947  22854535.7304   22854535.7624   22854538.3534
      1852.0654
 10  1  2  0 32  0.0000000  0 10G05G08G28G12G22G09G27G18G15G17
    137663.73647    116577.27446  24911246.4754   24911247.5064   24911249.0524
     -3624.0114
  -6038300.55047  -4691267.12446  24941282.5784   24941283.1034   24941286.6964
     -3012.3984
 -13701754.94648 -10641028.95147  22990439.3054   22990439.9134   22990440.9094
     -2669.0704
  -8920838.51847  -6895428.38546  24110501.1034   24110501.1464   24110502.4924
      3624.8664
  -1547037.44647  -1169851.38346  25106329.4824   25106331.3854   25106329.5604
      2496.1764
 -21746875.33548 -16926268.97247  21235762.9034   21235762.8334   21235765.3254
      2383.3854
 -19091687.77249 -14837493.06548  21538367.7294   21538367.5254   21538370.1954
      1225.4124
 -12844846.57648  -9812747.07346  23051935.6784   23051935.2414   23051936.2464
      1081.2644
 -26643427.41449 -20751977.00648  20386452.5504   20386452.7464   20386454.1974
      -479.2894
 -12557922.51548  -9741893.17947  22844003.3164   22844002.7664   22844005.2624
      1838.3774
 10  1  2  0 32 30.0000000  0 10G05G08G28G12G22G09G27G18G15G17
    246364.13347    201278.86046  24931932.0954   24931932.6304   24931934.2594
     -3622.6294
  -5947885.70347  -4620813.97746  24958488.1754   24958488.9444   24958490.8244
     -3014.4064
 -13621550.53948 -10578532.01147  23005701.7524   23005702.0924   23005702.1534
     -2677.1384
  -9029483.74947  -6980086.99546  24089826.2724   24089826.7704   24089828.3484
      3618.9294
  -1621708.36747  -1228036.55945  25092117.8094   25092116.0864   25092117.1514
      2482.9204
 -21818227.36448 -16981867.94447  21222185.1574   21222184.9614   21222187.1854
      2374.1294
 -19128344.88149 -14866057.04448  21531392.0674   21531391.5444   21531394.6554
      1219.1534
 -12876997.62648  -9837799.86046  23045818.4194   23045817.2954   23045818.8054
      1062.6494
 -26628780.15249 -20740563.56248  20389239.7444   20389240.0614   20389241.4914
      -496.4934
 -12612839.49748  -9784685.62347  22833552.2724   22833552.7324   22833554.2294
      1823.3814
 10  1  2  0 33  0.0000000  0 10G05G08G28G12G22G09G27G18G15G17
    355002.06047    285931.80246  24952604.8214   24952606.2624   24952607.8994
     -3621.4894
  -5857444.38146  -4550340.18845  24975698.7404   24975695.8124   24975701.9374
     -3016.2634
 -13541124.26548 -10515862.19047  23021006.5174   23021005.8074   23021007.9534
     -2685.3754
  -9137976.39747  -7064626.69546  24069180.7864   24069181.2894   24069182.6504
      3613.0724
  -1696024.73447  -1285945.41846  25077977.8504   25077978.7174   25077977.9484
      2470.4904
 -21889321.70748 -17037266.12147  21208656.1974   21208656.6414   21208658.8114
      2364.7504
 -19164837.12349 -14894492.54848  21524447.9554   21524447.5634   21524450.6864
      1212.8294
 -12908612.25048  -9862434.64646  23039801.7454   23039800.8514   23039803.0174
      1044.0484
 -26613636.29749 -20728763.16448  20392121.4614   20392121.8024   20392123.1864
      -513.8994
 -12667330.11948  -9827145.83347  22823183.3024   22823183.2164   22823185.1204
      1808.5594
 10  1  2  0 33 30.0000000  0 10G05G08G28G12G22G09G27G18G15G17
    463583.62147    370540.80446  24973268.0154   24973267.4434   24973269.8284
     -3618.2914
  -5766968.36746  -4479839.42145  24992915.8254   24992913.9494   24992917.4624
     -3016.3494
 -13460469.22948 -10453014.12147  23036354.4554   23036353.6244   23036356.1664
     -2692.1924
  -9246305.76247  -7149039.16946  24048566.3624   24048566.0194   24048569.3594
      3608.2664
  -1769976.00047  -1343569.85246  25063903.9434   25063901.7504   25063906.9854
      2459.2804
 -21960148.71648 -17092455.99047  21195178.4474   21195178.0494   21195180.6274
      2356.4544
 -19201155.48349 -14922792.56948  21517536.5524   21517536.3594   21517539.0254
      1207.8084
 -12939680.89548  -9886643.98747  23033889.8134   23033888.8844   23033891.5644
      1026.6064
 -26597987.08549 -20716568.98248  20395099.5044   20395099.7994   20395101.1484
      -530.0284
 -12721383.01548  -9869264.96747  22812897.4494   22812896.5834   22812899.6634
      1794.3884
 10  1  2  0 34  0.0000000  0 10G05G08G28G12G22G09G27G18G15G17
    572100.62747    455099.49346  24993917.3314   24993917.9784   24993920.0424
     -3616.2524
  -5676463.57946  -4409316.20145  25010137.7884   25010136.3874   25010140.0884
     -3017.5444
 -13379593.31948 -10389993.95047  23051744.8584   23051743.5544   23051747.2964
     -2699.8994
  -9354475.83247  -7233327.51446  24027982.2884   24027982.6844   24027984.0814
      3602.5654
  -1843565.21347  -1400912.10046  25049902.2024   25049901.7244   25049896.6654
      2446.9364
 -22030713.09548 -17147441.21147  21181750.3594   21181750.4194   21181753.1514
      2347.4064
 -19237305.25249 -14950961.21648  21510657.5294   21510657.4874   21510660.0374
      1201.7864
 -12970208.36848  -9910431.63547  23028079.9564   23028081.7974   23028079.9514
      1008.1574
 -26581837.14049 -20703984.61248  20398172.8024   20398173.0204   20398174.5334
      -547.0244
 -12775001.71348  -9911045.76247  22802693.9674   22802693.5294   22802696.3164
      1779.5384
 10  1  2  0 34 30.0000000  0 10G05G08G28G12G22G09G27G18G15G17
    680552.57747    539607.52546  25014555.7284   25014556.2854   25014557.2834
     -3614.2514
  -5585928.73446  -4338769.58145  25027366.7824   25027365.7794   25027367.8694
     -3018.1034
 -13298496.18848 -10326801.39547  23067176.7504   23067176.6554   23067177.9724
     -2707.0954
  -9462482.42747  -7317488.48946  24007429.7994   24007428.7264   24007431.1224
      3597.4724
  -1916788.04347  -1457968.85746  25035966.6544   25035966.5354   25035964.4434
      2434.8024
 -22101011.37848 -17202219.08647  21168372.9594   21168373.0974   21168375.8984
      2338.7044
 -19273284.56149 -14978997.03548  21503810.7204   21503810.5514   21503813.4474
      1196.3554
 -13000191.41048  -9933795.05747  23022376.2864   23022375.5944   23022376.4014
       990.3374
 -26565184.21849 -20691008.31548  20401341.7964   20401342.0074   20401343.4024
      -563.5354
 -12828181.38748  -9952484.46347  22792574.2264   22792574.1344   22792576.3534
      1765.1394
 10  1  2  0 35  0.0000000  0 10G05G08G28G12G22G09G27G18G15G17
    788938.23247    624063.88146  25035181.1164   25035181.9534   25035183.4684
     -3611.9094
  -5495362.60846  -4268198.57345  25044600.3424   25044598.8074   25044605.5754
     -3019.3864
 -13217178.85148 -10263437.23847  23082651.0644   23082650.1154   23082653.0534
     -2714.4574
  -9570322.29547  -7401519.52646  23986908.3254   23986907.8534   23986910.0664
      3591.7134
  -1989640.54947  -1514737.08746  25022103.9674   25022103.7314   25022108.1364
      2421.9084
 -22171041.51149 -17256788.00747  21155046.7064   21155046.3424   21155049.5164
      2329.6994
 -19309092.01749 -15006898.93848  21496996.8544   21496996.3894   21496999.6334
      1190.5844
 -13029627.91548  -9956732.59447  23016772.8584   23016771.8924   23016776.2544
       972.1434
 -26548026.95649 -20677639.02448  20404606.5424   20404606.9224   20404608.3924
      -580.5794
 -12880918.58848  -9993578.37947  22782538.8284   22782539.2904   22782541.9424
      1750.3314
 10  1  2  0 35 30.0000000  0 10G05G08G28G12G22G09G27G18G15G17
    897250.94747    708463.39646  25055791.1534   25055792.1394   25055793.9994
     -3609.1184
  -5404769.09946  -4197606.22445  25061839.9904   25061836.7414   25061842.9164
     -3020.0884
 -13135647.40948 -10199906.25447  23098165.9464   23098164.6824   23098167.0914
     -2721.3114
  -9677997.38747  -7485422.18546  23966418.1454   23966418.2464   23966419.8004
      3586.3894
  -2062125.18647  -1571218.64346  25008311.4274   25008313.2054   25008313.4984
      2410.6774
 -22240806.64849 -17311150.44347  21141770.8724   21141770.6984   21141773.1954
      2321.1374
 -19344731.56349 -15034670.00848  21490214.9054   21490214.5344   21490217.7154
      1185.1634
 -13058520.85848  -9979246.60247  23011276.5004   23011274.1944   23011276.6324
       954.0294
 -26530369.11149 -20663879.66748  20407966.7594   20407967.1844   20407968.3944
      -596.9824
 -12933215.03348 -10034328.84847  22772587.0314   22772587.3854   22772588.9714
      1735.8244
 10  1  2  0 36  0.0000000  0 10G05G08G28G12G22G09G27G18G15G17
   1005495.27147    792809.59046  25076390.1464   25076389.8894   25076392.9944
     -3607.2394
  -5314141.71146  -4126987.49545  25079085.6674   25079085.9574   25079091.3024
     -3021.4244
 -13053896.59748 -10136204.32547  23113722.5674   23113722.0534   23113725.4944
     -2728.6274
  -9785499.32147  -7569189.89946  23945961.1434   23945960.9574   23945963.4634
      3580.2554
  -2134231.89947  -1627405.67746  24994590.3314   24994591.3414   24994588.4934
      2396.8604
 -22310298.64449 -17365300.04047  21128546.7994   21128546.7014   21128549.3784
      2311.7164
 -19380195.94649 -15062304.58548  21483466.2704   21483466.2694   21483469.0834
      1179.0604
 -13086862.53148 -10001331.02346  23005882.0434   23005882.4374   23005884.3384
       935.3544
 -26512203.13249 -20649724.36548  20411423.7624   20411423.9904   20411425.3484
      -614.1124
 -12985061.18548 -10074728.44047  22762721.0904   22762720.8084   22762722.8984
      1720.6014
 10  1  2  0 36 30.0000000  0 10G05G08G28G12G22G09G27G18G15G17
   1113660.94647    877094.59346  25096972.9914   25096973.4134   25096975.9404
     -3604.0944
  -5223488.590 6  -4056348.72845  25096336.224                    25096342.7304
     -3022.376
 -12971936.19048 -10072339.08847  23129319.1674   23129318.5574   23129320.6524
     -2735.6134
  -9892833.80247  -7652827.15646  23925536.2134   23925536.0014   23925537.4544
      3574.7394
  -2205967.08747  -1683303.26046  24980938.9004   24980938.5374   24980936.6604
      2385.1274
 -22379524.27649 -17419242.08148  21115374.1244   21115373.7434   21115376.2114
      2302.9074
 -19415492.31249 -15089808.24848  21476749.7004   21476749.7324   21476752.1464
      1173.5684
 -13114659.36448 -10022990.89647  23000592.7174   23000592.0304   23000593.9464
       917.3784
 -26493536.65049 -20635179.06048  20414975.7694   20414975.9544   20414977.5864
      -630.7634
 -13036462.23948 -10114781.20747  22752939.5854   22752939.5434   22752941.4674
      1705.8444
 10  1  2  0 37  0.0000000  0 10G05G08G28G12G22G09G27G18G15G17
   1221750.05346    961319.90245  25117541.8114   25117542.3324   25117544.1524
     -3601.5994
  -3557386.18516  -2758087.11055  25113591.710                    25113591.5124
     -3023.189
 -12889764.29948 -10008309.04647  23144955.8334   23144955.7884   23144956.0384
     -2742.3394
  -9999994.43847  -7736328.92246  23905143.5904   23905144.0084   23905146.4854
      3569.2214
  -2277324.24647  -1738906.28746  24967358.7104   24967358.1664   24967357.8404
      2372.7274
 -22448477.98149 -17472972.23248  21102252.1754   21102252.1814   21102254.4524
      2294.0434
 -19450616.83049 -15117177.99748  21470065.7664   21470065.9134   21470068.2094
      1168.0964
 -13141907.15048 -10044222.94947  22995407.6984   22995408.5644   22995408.6624
       899.2074
 -26474364.97849 -20620240.09948  20418623.9814   20418624.3534   20418625.7454
      -647.3414
 -13087411.78048 -10154482.13747  22743244.4864   22743244.5994   22743246.2524
      1690.9144
 10  1  2  0 37 30.0000000  0 10G05G08G28G12G22G09G27G18G15G17
   1329758.06347   1045481.94446  25138095.0894   25138098.5924   25138097.1454
     -3599.7174
  -3466676.30646  -2687404.09545  25130855.2834   25130856.0454   25130852.5954
     -3024.7024
 -12807384.28348  -9944116.83947  23160632.2934   23160631.5474   23160634.1724
     -2750.3404
 -10106981.28647  -7819695.29546  23884785.2694   23884785.4814   23884787.3154
      3562.4864
  -2348302.80747  -1794214.24546  24953852.4124   24953851.9054   24953851.7264
      2358.5734
 -22517160.78649 -17526491.28748  21089182.5684   21089182.6224   21089184.4864
      2284.0514
 -19485571.18249 -15144415.15348  21463414.0584   21463413.7704   21463416.7724
      1161.4874
 -13168606.33948 -10065027.52347  22990327.2144   22990326.5214   22990327.4404
       880.0204
 -26454689.87449 -20604908.85448  20422368.0744   20422368.3924   20422369.9324
      -665.1254
 -13137909.30948 -10193830.85447  22733635.0394   22733635.3814   22733636.4714
      1674.7294
 10  1  2  0 38  0.0000000  0  9G05G28G12G22G09G27G18G15G17
   1437683.40347   1129579.66445  25158632.5534   25158633.0574   25158636.2364
     -3596.7774
 -12724797.44848  -9879763.46147  23176348.2034   23176347.3534   23176349.6314
     -2756.5084
 -10213791.14347  -7902923.72646  23864460.1084   23864460.4394   23864461.9854
      3557.0214
  -2418899.58247  -1849224.74946  24940418.6114   24940418.2314   24940420.7344
      2346.7954
 -22585570.54349 -17579797.58348  21076164.6234   21076164.3334   21076167.1204
      2275.4194
 -19520354.00049 -15171518.64448  21456795.2174   21456794.6984   21456797.5304
      1156.2024
 -13194755.23948 -10085403.29847  22985350.8454   22985350.3224   22985350.8714
       862.0384
 -26434509.88449 -20589184.19148  20426208.1084   20426208.4004   20426209.8884
      -681.4074
 -13187951.65348 -10232824.87747  22724112.3874   22724112.8614   22724114.2224
      1660.1284
 10  1  2  0 38 30.0000000  0  9G05G28G12G22G09G27G18G15G17
   1545522.22647   1213609.95146  25179154.3474   25179152.7254   25179156.6514
     -3593.2284
 -12642006.75848  -9815251.24347  23192102.2464   23192103.0664   23192103.7964
     -2763.1254
 -10320423.91747  -7986014.20646  23844168.0094   23844168.4794   23844170.3654
      3551.6364
  -2489113.75847  -1903937.10346  24927058.6434   24927059.5674   24927056.6674
      2333.9684
 -22653707.50949 -17632891.32348  21063198.7734   21063198.6404   21063201.0244
      2266.7784
 -19554966.56049 -15198489.47448  21450208.5664   21450208.0024   21450210.8754
      1150.9524
 -13220354.47748 -10105350.75147  22980478.2994   22980478.2684   22980480.4924
       844.1114
 -26413826.16249 -20573067.01148  20430143.9794   20430144.5064   20430145.8014
      -697.7094
 -13237537.63348 -10271463.30747  22714676.2734   22714676.3194   22714678.5704
      1645.3414
 10  1  2  0 39  0.0000000  0  9G05G28G12G22G09G27G18G15G17
   1653273.58446   1297572.05345  25199657.7474   25199656.8574   25199663.5984
     -3590.3984
 -12559013.15448  -9750580.91247  23207895.9794   23207895.3214   23207897.3804
     -2769.9774
 -10426876.28047  -8068964.08746  23823911.2474   23823911.6204   23823913.4734
      3545.2684
  -2558941.92447  -1958348.67746  24913771.5974   24913774.1814   24913769.8104
      2321.0184
 -22721569.30549 -17685770.63748  21050284.7574   21050284.3524   21050287.1644
      2257.4614
 -19589407.28849 -15225326.40348  21443654.5684   21443654.7834   21443657.4924
      1145.1434
 -13245401.75548 -10124868.13047  22975712.8344   22975713.2444   22975713.0844
       825.8034
 -26392637.47349 -20556556.35248  20434176.2884   20434176.5254   20434178.0634
      -714.6924
 -13286663.74148 -10309743.37647  22705328.2094   22705327.7774   22705330.4494
      1629.9214
 10  1  2  0 39 30.0000000  0  9G05G28G12G22G09G27G18G15G17
   1760935.34046   1381464.28745  25220145.0494   25220145.4294   25220148.0414
     -3587.3774
 -12475818.09748  -9685753.58647  23223727.2724   23223726.7664   23223729.0534
     -2776.8524
 -10533145.80847  -8151771.49746  23803688.4194   23803687.7124   23803690.1204
      3539.0244
  -2628381.18347  -2012457.21646  24900556.3504   24900556.5994   24900553.9944
      2308.2224
 -22789154.75749 -17738434.61348  21037423.6784   21037423.5534   21037425.9934
      2247.9544
 -19623675.53849 -15252028.93348  21437133.5434   21437133.4194   21437136.2404
      1139.3334
 -13269895.88248 -10143954.45447  22971051.3234   22971050.7184   22971052.4464
       807.1144
 -26370942.91949 -20539651.50748  20438304.4854   20438304.8874   20438306.5574
      -731.6884
 -13335327.11448 -10347662.88447  22696067.8894   22696067.9304   22696069.2464
      1614.1134
 10  1  2  0 40  0.0000000  0  9G05G28G12G22G09G27G18G15G17
   1868502.61646   1465282.95745  25240615.8684   25240614.1844   25240617.0314
     -3584.1714
 -12392426.31848  -9620772.98747  23239596.2414   23239594.5534   23239598.9894
     -2783.2754
 -10639232.94947  -8234436.78446  23783500.9254   23783500.7094   23783503.1524
      3533.1094
  -2697432.35847  -2066263.32946  24887419.0614   24887420.8204   24887415.8414
      2295.1924
 -22856465.01549 -17790884.15548  21024615.0214   21024614.7124   21024617.0164
      2239.1034
 -19657773.67149 -15278598.90148  21430644.9384   21430644.4734   21430647.7984
      1133.5774
 -13293838.93348 -10162611.38447  22966495.3264   22966496.3114   22966495.8974
       788.7754
 -26348744.69749 -20522354.19748  20442528.8584   20442529.0064   20442530.5494
      -748.4854
 -13383528.15348 -10385222.13447  22686895.2584   22686895.1074   22686897.6244
      1598.8604
 10  1  2  0 40 30.0000000  0  9G05G28G12G22G09G27G18G15G17
   1975972.83246   1549025.97345  25261065.3444   25261065.8074   25261070.4394
     -3580.2044
 -12308839.59148  -9555640.48247  23255502.1854   23255501.7694   23255503.5884
     -2789.0674
 -10745136.11247  -8316958.72846  23763348.8484   23763348.4124   23763351.3304
      3527.3694
  -2766093.05247  -2119765.18046  24874350.3114   24874351.5814   24874349.8184
      2283.0044
 -22923499.18349 -17843118.56548  21011858.9834   21011858.7984   21011861.2374
      2230.1304
 -19691701.73549 -15305036.35348  21424188.7714   21424188.6074   21424191.6154
      1128.4804
 -13317230.22148 -10180838.37847  22962044.7024   22962044.7564   22962046.2104
       770.8054
 -26326042.81849 -20504664.42548  20446848.8054   20446849.0264   20446850.5584
      -764.7794
 -13431264.68048 -10422419.42647  22677811.2634   22677811.7534   22677812.9894
      1583.6544
 10  1  2  0 41  0.0000000  0  9G05G28G12G22G09G27G18G15G17
   2083348.34546   1632695.21345  25281498.1754   25281497.7034   25281501.8084
     -3577.4934
 -12225055.05948  -9490353.84747  23271446.3214   23271445.4494   23271446.0314
     -2795.7634
 -10850848.49447  -8399331.98946  23743232.1884   23743231.9614   23743234.0864
      3520.7694
  -2834356.34047  -2172957.36946  24861358.0514   24861357.7284   24861360.3074
      2269.2114
 -22990251.38749 -17895133.26148  20999156.5824   20999156.3884   20999158.6734
      2220.7394
 -19725454.75749 -15331337.40648  21417765.7544   21417765.4314   21417768.4694
      1122.4964
 -13340064.08448 -10198630.99747  22957699.2544   22957699.2054   22957702.5934
       752.0754
 -26302832.51549 -20486578.48148  20451265.6464   20451265.8584   20451267.3894
      -782.0364
 -13478529.77848 -10459249.36147  22668816.9664   22668817.4354   22668819.0794
      1567.9044
 10  1  2  0 41 30.0000000  0  9G05G28G12G22G09G27G18G15G17
   3766040.51246   2943883.87645  25301911.9404   25301912.7164   25301916.7484
     -3573.7594
 -12141080.89548  -9424919.42947  23287425.5194   23287425.1374   23287427.3584
     -2802.4054
 -10956374.68747  -8481560.19946  23723150.7924   23723150.3114   23723153.0574
      3514.3024
  -2902226.27147  -2225843.00946  24848445.3014   24848445.3944   24848443.8574
      2255.7434
 -23056727.20449 -17946932.59248  20986506.3234   20986506.1414   20986508.8914
      2211.2924
 -19759038.69249 -15357506.70348  21411374.9424   21411374.6204   21411377.3384
      1116.5424
 -13362346.29248 -10215993.76647  22953459.1304   22953458.9114   22953458.7074
       733.3744
 -26279120.09049 -20468101.27248  20455777.8954   20455778.2234   20455779.7534
      -798.8964
 -13525327.50748 -10495715.11047  22659911.7094   22659911.7754   22659913.5504
      1552.0154
 10  1  2  0 42  0.0000000  0  9G05G28G12G22G09G27G18G15G17
   3873211.61246   3027393.76846  25322305.4844   25322305.5444   25322307.8624
     -3570.2514
 -12056914.67348  -9359335.37446  23303441.9174   23303440.5924   23303443.8264
     -2807.8234
 -11061708.20147  -8563638.24046  23703107.0644   23703106.5394   23703108.1744
      3508.7504
  -2969696.23047  -2278417.01046  24835608.5334   24835610.6874   24835609.3614
      2243.4134
 -23122920.88049 -17998512.07348  20973910.1984   20973910.3614   20973912.4384
      2202.6084
 -19792448.86949 -15383540.61048  21405017.3044   21405016.9244   21405019.7964
      1111.7044
 -13384071.77848 -10232922.73347  22949325.3464   22949323.9184   22949327.1794
       715.8734
 -26254900.53649 -20449228.89848  20460386.7804   20460386.9174   20460388.5424
      -814.8624
 -13571651.09048 -10531811.40247  22651096.8724   22651097.1064   22651098.7344
      1537.1484
 10  1  2  0 42 30.0000000  0  9G05G28G12G22G09G27G18G15G17
   3980277.39346   3110821.69545  25342680.1944   25342679.7694   25342682.2774
     -3567.4394
 -11972560.01948  -9293604.47946  23319494.2474   23319492.3684   23319495.2824
     -2815.6874
 -11166848.86947  -8645566.00946  23683099.2214   23683098.5114   23683100.6534
      3500.5494
  -3036765.95647  -2330679.18546  24822841.5924   24822840.3514   24822843.8624
      2227.7924
 -23188832.84549 -18049872.04048  20961367.5224   20961367.4284   20961370.0624
      2191.5114
 -19825686.76549 -15409440.26648  21398692.2204   21398691.9674   21398694.8024
      1104.1024
 -13405241.56448 -10249418.67246  22945296.3944   22945295.1284   22945297.4304
       695.5884
 -26230175.58349 -20429962.70648  20465091.9494   20465092.0644   20465093.3624
      -833.5204
 -13617499.88048 -10567537.71947  22642371.8934   22642371.9584   22642373.9614
      1519.4724
 10  1  2  0 43  0.0000000  0  9G05G28G12G22G09G27G18G15G17
   4087233.16846   3194163.83146  25363032.7364   25363033.3084   25363036.1084
     -3564.2794
 -11888021.32548  -9227730.16447  23335581.5684   23335580.9454   23335582.0764
     -2821.8254
 -11271797.44447  -8727344.10346  23663127.5674   23663127.7864   23663129.5984
      3494.0744
  -3103435.77246  -2382629.69446  24810155.3154   24810151.9514   24810155.0254
      2214.5874
 -23254464.36849 -18101013.48048  20948878.3244   20948877.9454   20948880.5564
      2182.0204
 -19858754.61749 -15435207.42248  21392399.6344   21392399.3014   21392402.2304
      1098.4764
 -13425857.49748 -10265483.04447  22941373.7824   22941371.8514   22941374.6874
       676.9104
 -26204947.70349 -20410304.62648  20469892.4994   20469892.5204   20469894.2834
      -850.2134
 -13662874.29148 -10602894.39047  22633737.0514   22633737.6614   22633740.1444
      1503.6244
 10  1  2  0 43 30.0000000  0  9G05G28G12G22G09G27G18G15G17
   4194081.31447   3277422.11946  25383366.2884   25383367.3254   25383368.0504
     -3559.8644
 -11803295.30048  -9161709.90346  23351704.1884   23351704.3764   23351705.4534
     -2826.9464
 -11376546.53847  -8808966.77146  23643195.1214   23643195.2244   23643197.2014
      3488.4994
  -3169698.33647  -2434262.85246  24797546.1054   24797547.7284   24797547.9414
      2202.0604
 -23319809.33249 -18151931.62448  20936443.4124   20936443.0534   20936446.1044
      2173.5344
 -19891647.00449 -15460837.85348  21386140.1404   21386139.8824   21386142.8844
      1093.5724
 -13445913.65948 -10281111.23547  22937557.7524   22937557.8024   22937556.9014
       659.3964
 -26179211.18449 -20390250.20148  20474789.8774   20474790.1194   20474791.7554
      -866.3024
 -13707766.93748 -10637875.66947  22625194.7154   22625194.9074   22625197.5174
      1488.5004
 10  1  2  0 44  0.0000000  0  9G05G28G12G22G09G27G18G15G17
   4300814.54646   3360590.88646  25403676.2084   25403676.5664   25403677.8844
     -3556.0524
 -11718389.20248  -9095549.31247  23367861.2194   23367859.8264   23367863.2224
     -2833.7384
 -11481099.64247  -8890436.69846  23623299.0914   23623298.6784   23623300.8604
      3481.7124
  -3235556.78847  -2485581.12746  24785012.9884   24785013.1944   24785014.5494
      2188.5484
 -23384872.40049 -18202630.11148  20924062.4934   20924061.9344   20924064.8994
      2163.9394
 -19924369.08049 -15486335.56948  21379913.5634   21379913.3624   21379916.0774
      1087.6954
 -13465415.04648 -10296307.11647  22933845.9394   22933845.1274   22933846.4904
       640.5444
 -26152971.54249 -20369803.73048  20479783.0594   20479783.2804   20479785.0904
      -883.2254
 -13752181.06548 -10672484.07247  22616742.7464   22616743.0684   22616744.7414
      1472.3874
 10  1  2  0 44 30.0000000  0  9G05G28G12G22G09G27G18G15G17
   4407428.82146   3443666.92146  25423963.1434   25423965.2294   25423967.3044
     -3552.2504
 -11633306.78048  -9029251.34846  23384051.8684   23384050.6914   23384053.1204
     -2839.1824
 -11585456.86847  -8971754.01046  23603440.4144   23603441.1654   23603441.8764
      3475.1944
  -3301011.17347  -2536584.55646  24772558.6134   24772560.2034   24772558.0904
      2175.2454
 -23449653.71749 -18253109.05948  20911734.8614   20911734.3464   20911737.5664
      2154.4714
 -19956922.22649 -15511701.65548  21373718.8034   21373718.7354   21373721.7074
      1082.1184
 -13484362.82148 -10311071.63847  22930239.7304   22930241.4004   22930240.2334
       622.0274
 -26126230.85449 -20348966.84148  20484871.7964   20484871.9814   20484873.6994
      -899.8604
 -13796116.67948 -10706719.60447  22608381.9324   22608382.0894   22608384.1384
      1456.4204
 10  1  2  0 45  0.0000000  0  9G05G28G12G22G09G27G18G15G17
   4513930.74447   3526655.42246  25444230.6474   25444231.9924   25444233.0714
     -3547.9674
 -11548040.62148  -8962810.18746  23400277.4084   23400277.5184   23400277.6014
     -2845.2584
 -11689606.72447  -9052909.74247  23583621.6474   23583622.2954   23583623.8054
      3468.2124
  -3366049.86647  -2587264.04346  24760181.5984   24760181.7884   24760182.7404
      2160.9354
 -23514143.26849 -18303360.64948  20899462.7664   20899462.8074   20899465.5324
      2144.6984
 -19989297.16549 -15536928.87648  21367558.1284   21367557.9254   21367560.4244
      1076.3914
 -13502747.34448 -10325397.23647  22926740.6534   22926741.6234   22926743.4644
       603.4624
 -26098979.51749 -20327732.03748  20490057.4414   20490057.5004   20490059.2094
      -916.8424
 -13839561.79348 -10740572.92947  22600114.6174   22600114.8964   22600117.4594
      1439.8994
 10  1  2  0 45 30.0000000  0 10G05G28G12G22G09G27G18G26G15G17
   4620310.87747   3609549.02046  25464474.5574   25464474.3494   25464476.1894
     -3544.2894
 -11462599.72348  -8896232.88046  23416536.1824   23416535.4654   23416538.3454
     -2850.6994
 -11793555.24747  -9133908.57047  23563840.9474   23563840.9004   23563841.9874
      3461.4014
  -3430678.16046  -2637623.76646  24747883.0184   24747880.4554   24747883.2084
      2147.3814
 -23578347.27349 -18353389.73848  20887245.4164   20887245.2324   20887247.5444
      2135.1604
 -20021500.91449 -15562022.70648  21361429.9884   21361429.7414   21361432.3714
      1070.4334
 -13520575.06648 -10339288.96847  22923349.5694   22923349.2084   22923350.2284
       584.8144
  -1010216.55817                  24908898.781
      3823.260
 -26071225.34049 -20306105.41248  20495338.9004   20495339.0184   20495340.7424
      -933.7414
 -13882521.66848 -10774048.14447  22591939.7644   22591940.1224   22591941.9124
      1423.5944
 10  1  2  0 46  0.0000000  0 10G05G28G12G22G09G27G18G26G15G17
   4726566.39547   3692345.48046  25484694.3754   25484693.6534   25484697.7204
     -3540.0334
 -11376986.94247  -8829521.63246  23432828.0094   23432828.0514   23432829.2134
     -2856.6574
 -11897300.95348  -9214749.37147  23544098.1894   23544098.7684   23544100.3724
      3454.4994
  -3494894.67447  -2687662.59746  24735665.0324   24735664.8924   24735665.0364
      2133.2574
 -23642265.03549 -18403195.78048  20875082.0904   20875081.9284   20875084.8924
      2125.5114
 -20053533.66549 -15586983.28948  21355334.2394   21355334.0324   21355336.9624
      1064.7104
 -13537846.43148 -10352747.18846  22920062.6954   22920061.9654   22920064.8154
       565.9744
  -1124895.977 7                  24887081.944
      3821.469
 -26042968.34649 -20284086.98048  20500715.9544   20500716.2554   20500717.8004
      -950.5334
 -13924995.19248 -10807144.38447  22583857.3174   22583857.6504   22583859.5304
      1407.2854
 10  1  2  0 46 30.0000000  0 10G05G28G12G22G09G27G18G26G15G17
   4832699.08547   3775046.26446  25504889.4324   25504890.8784   25504892.9834
     -3535.1274
 -11291199.94347  -8762674.63346  23449152.5524   23449152.5914   23449155.1864
     -2862.2284
 -12000837.94647  -9295427.53647  23524395.6344   23524396.6464   23524398.7064
      3448.2484
  -3558692.86146  -2737375.48046  24723522.8814   24723521.6614   24723522.0014
      2120.5984
 -23705891.35449 -18452774.72048  20862974.4704   20862974.5234   20862976.9054
      2116.4074
 -20085391.07249 -15611807.24048  21349272.1604   21349272.1634   21349274.3184
      1059.4934
 -13554556.94048 -10365768.37846  22916882.5274   22916881.3264   22916885.2264
       548.2014
  -1239527.68946                  24865267.4654   24865268.1644
      3821.0784
 -26014204.49449 -20261673.59548  20506189.6384   20506189.9544   20506191.5484
      -966.8344
 -13966976.09748 -10839856.76747  22575868.7954   22575868.9314   22575870.8184
      1391.6254
 10  1  2  0 47  0.0000000  0  9G28G12G22G09G27G18G26G15G17
 -11205241.96048  -8695694.39646  23465509.9414   23465509.3634   23465510.9084
     -2867.9554
 -12104165.52947  -9375942.52547  23504733.6164   23504733.4954   23504735.2064
      3441.1784
  -3622072.32447  -2786762.00346  24711462.1734   24711462.9194   24711462.2504
      2106.0234
 -23769226.77749 -18502126.99448  20850922.3694   20850921.8114   20850924.4064
      2106.6174
 -20117074.64849 -15636495.74248  21343243.0644   21343242.8044   21343245.5664
      1053.3734
 -13570707.40148 -10378353.16346  22913809.6394   22913809.5044   22913810.7774
       529.2224
  -1354110.98147                  24843464.0284   24843464.0124
      3818.5994
 -25984935.03349 -20238866.23048  20511759.5794   20511759.7614   20511761.4554
      -983.8344
 -14008463.36148 -10872184.50047  22567974.0344   22567974.0084   22567975.8384
      1374.9354
 10  1  2  0 47 30.0000000  0  9G28G12G22G09G27G18G26G15G17
 -11119116.87647  -8628583.96246  23481899.2014   23481898.6254   23481900.3404
     -2873.3994
 -12207283.91747  -9456294.48747  23485110.7684   23485111.1094   23485112.4564
      3433.8074
  -3685033.46647  -2835822.68346  24699482.4484   24699484.3874   24699483.5404
      2091.6354
 -23832271.96549 -18551253.10448  20838925.0714   20838924.8314   20838927.3374
      2096.7764
 -20148585.85249 -15661049.92548  21337246.6124   21337246.1624   21337248.9244
      1047.6684
 -13586299.60148 -10390502.94146  22910842.5804   22910841.5444   22910843.5044
       510.4614
  -1468645.50947  -1117197.36546  24821667.5664   24821667.5194   24821670.4574
      3817.1654
 -25955162.68449 -20215667.00348  20517424.9974   20517425.0054   20517426.7714
     -1000.6084
 -14049457.23548 -10904127.76547  22560173.0004   22560173.1004   22560175.0144
      1358.4404
 10  1  2  0 48  0.0000000  0  9G28G12G22G09G27G18G26G15G17
 -11032825.59247  -8561344.00846  23498319.4984   23498318.8244   23498320.6174
     -2879.1884
 -12310190.40047  -9536481.33747  23465528.1964   23465529.2864   23465530.0304
      3426.5924
  -3747572.90047  -2884554.70546  24687582.1934   24687580.9694   24687581.7424
      2077.3904
 -23895024.81349 -18600151.42248  20826983.5644   20826983.2024   20826985.9374
      2086.7634
 -20179923.31449 -15685468.72948  21331283.0714   21331282.8184   21331285.7634
      1041.5814
 -13601331.49548 -10402216.11947  22907983.1064   22907981.3424   22907983.3974
       491.7034
  -1583127.63047  -1206404.18946  24799883.1454   24799883.9904   24799885.0614
      3815.1914
 -25924886.03649 -20192074.81548  20523186.3304   20523186.7794   20523188.2304
     -1017.7034
 -14089954.87648 -10935684.36447  22552466.6594   22552466.4324   22552468.5604
      1341.5414
 10  1  2  0 48 30.0000000  0  9G28G12G22G09G27G18G26G15G17
 -10946369.65947  -8493975.76346  23514772.0794   23514770.3914   23514773.5894
     -2884.6704
 -12412883.04348  -9616501.56047  23445986.3184   23445986.5584   23445988.2914
      3419.3544
  -3809688.63147  -2932956.58846  24675759.5884   24675759.1944   24675759.9274
      2063.6054
 -23957484.40249 -18648821.23148  20815097.5494   20815097.6194   20815100.3204
      2076.9274
 -20211086.77149 -15709751.94648  21325353.0494   21325352.7664   21325355.6124
      1035.7914
 -13615803.40348 -10413492.94647  22905227.8284   22905226.5834   22905228.5684
       473.0944
  -1697555.39247  -1295568.69546  24778108.1504   24778110.3794   24778110.9764
      3813.3584
 -25894104.90649 -20168089.52848  20529043.8994   20529044.2094   20529045.7914
     -1034.5284
 -14129954.14948 -10966852.62847  22544854.9684   22544855.1114   22544857.3804
      1324.8654
 10  1  2  0 49  0.0000000  0  9G28G12G22G09G27G18G26G15G17
 -10859752.99547  -8426482.27446  23531254.3204   23531253.3884   23531254.4744
     -2890.0244
 -12515361.68748  -9696355.03947  23426486.2824   23426486.1304   23426488.1214
      3412.0344
  -3871380.66047  -2981028.30846  24664018.7764   24664020.1904   24664020.5364
      2048.9194
 -24019651.43249 -18697263.06748  20803267.9234   20803267.8694   20803270.6524
      2067.0574
 -20242077.94749 -15733900.91648  21319455.6994   21319455.2294   21319458.1334
      1029.9054
 -13629716.91348 -10424334.66047  22902580.9784   22902579.7954   22902581.7214
       454.2884
  -1811928.42447  -1384690.58846  24756344.0564   24756343.8194   24756346.5954
      3811.1474
 -25862821.75549 -20143713.05148  20534996.8984   20534997.0434   20534998.6274
     -1051.5234
 -14169455.07048 -10997632.54947  22537338.3504   22537338.2284   22537340.5964
      1308.0944
 10  1  2  0 49 30.0000000  0  9G28G12G22G09G27G18G26G15G17
 -10772972.82147  -8358861.38446  23547768.3914   23547768.4734   23547769.8234
     -2895.6894
 -12617620.12648  -9776036.92347  23407026.3184   23407026.3184   23407026.8594
      3404.7424
  -3932642.16247  -3028764.52946  24652362.9434   24652362.2124   24652363.3724
      2034.4464
 -24081519.58849 -18745472.01648  20791494.6964   20791494.7204   20791497.3144
      2056.9794
 -20272891.65749 -15757911.59948  21313592.1094   21313591.9784   21313594.4374
      1023.9894
 -13643066.57448 -10434737.00447  22900040.5594   22900039.0734   22900041.2334
       435.4604
  -1926239.59547  -1473764.16846  24734591.9934   24734592.9334   24734594.3034
      3808.8044
 -25831031.84149 -20118941.69748  20541046.2884   20541046.4994   20541048.0354
     -1068.2634
 -14208450.65248 -11028018.70347  22529917.5744   22529917.7324   22529919.3504
      1291.1594
 10  1  2  0 50  0.0000000  0  9G28G12G22G09G27G18G26G15G17
 -10686038.58247  -8291120.43046  23564311.0844   23564310.1434   23564312.3414
     -2900.1764
 -12719664.05648  -9855551.65447  23387607.9134   23387608.1394   23387610.4904
      3397.9234
  -3993478.64947  -3076169.60646  24640786.6264   24640786.5014   24640786.9914
      2020.9794
 -24143095.89149 -18793453.54748  20779777.3044   20779777.3004   20779780.0244
      2047.7124
 -20303535.35849 -15781789.81248  21307760.5724   21307760.2664   21307763.1854
      1018.6974
 -13655860.11848 -10444706.02047  22897605.2264   22897605.9834   22897608.0334
       417.1164
  -2040494.47746  -1562794.01746  24712847.7584   24712847.8444   24712851.0804
      3807.3604
 -25798742.77849 -20093781.39648  20547190.7524   20547190.9744   20547192.4954
     -1084.5954
 -14246946.68348 -11058015.59247  22522592.2904   22522592.5454   22522593.9894
      1274.8894
 10  1  2  0 50 30.0000000  0  9G28G12G22G09G27G18G26G15G17
 -10598943.98047  -8223254.51546  23580885.0674   23580884.0014   23580885.8534
     -2906.0744
 -12821483.43947  -9934891.43047  23368232.5324   23368232.3874   23368234.1434
      3389.8624
  -4053880.06147  -3123235.65646  24629291.8414   24629291.7104   24629292.7334
      2005.9904
 -24204371.03549 -18841200.41048  20768117.0424   20768117.0914   20768119.7264
      2037.1314
 -20334000.45649 -15805528.85548  21301963.2944   21301962.9914   21301965.9764
      1012.1084
 -13668088.86848 -10454234.92447  22895278.4554   22895277.2684   22895279.6394
       397.8604
  -2154682.38846  -1651771.55545  24691118.8624   24691120.6354   24691121.4974
      3804.5754
 -25765946.71449 -20068226.02648  20553431.5504   20553431.7614   20553433.4744
     -1102.0274
 -14284933.12248 -11087615.40547  22515363.4694   22515363.6994   22515365.2814
      1257.3844
 10  1  2  0 51  0.0000000  0  8G28G12G22G09G27G18G15G17
 -10511695.09647  -8155268.38646  23597487.6654   23597487.0174   23597490.3224
     -2911.3834
 -12923080.86247 -10014058.22547  23348898.7064   23348899.0224   23348900.3544
      3382.2414
  -4113848.94047  -3169964.67446  24617881.5524   24617881.1294   24617881.4474
      1990.9124
 -24265348.37249 -18888715.21448  20756513.3634   20756513.0534   20756515.6804
      2027.0884
 -20364291.06949 -15829131.93348  21296199.4394   21296198.8534   21296201.6944
      1006.2624
 -13679756.97848 -10463326.96247  22893057.7254   22893057.9744   22893059.4274
       379.3144
 -25732647.89449 -20042278.89848  20559767.9844   20559768.3944   20559770.0474
     -1118.8624
 -14322412.29148 -11116819.94347  22508231.3494   22508231.1764   22508234.0184
      1240.3104
 10  1  2  0 51 30.0000000  0  8G28G12G22G09G27G18G15G17
 -10424295.45547  -8087164.77446  23614119.4564   23614119.2404   23614121.2744
     -2915.5624
 -13024455.92647 -10093051.76947  23329607.5744   23329607.1644   23329609.0924
      3375.3814
  -4173385.26747  -3216356.61546  24606552.4704   24606551.7964   24606553.1634
      1977.2944
 -24326028.08749 -18935998.10248  20744966.4314   20744966.2024   20744968.8544
      2017.6664
 -20394408.47549 -15852600.04648  21290468.1564   21290467.9894   21290470.6534
      1001.0574
 -13690865.78548 -10471983.19047  22890944.3434   22890943.9704   22890945.9004
       361.1194
 -25698848.39949 -20015941.63748  20566199.8824   20566200.1954   20566201.8984
     -1134.9254
 -14359384.00148 -11145629.06047  22501195.7574   22501195.9824   22501198.2994
      1223.8494
 10  1  2  0 52  0.0000000  0  8G28G12G22G09G27G18G15G17
 -10336745.96947  -8018944.40146  23630779.4134   23630779.4324   23630780.5154
     -2921.5534
 -13125606.18647 -10171870.13647  23310359.4254   23310359.6124   23310361.3484
      3367.0204
  -4232485.79147  -3262409.00346  24595303.6574   24595302.6034   24595304.2014
      1962.1874
 -24386408.23549 -18983047.56848  20733476.3764   20733476.2114   20733479.1634
      2006.8194
 -20424351.66649 -15875932.40548  21284770.0254   21284770.1354   21284772.7054
       994.3404
 -13701414.32048 -10480202.85247  22888936.9774   22888936.1604   22888938.0154
       341.4924
 -25664547.40149 -19989213.59648  20572727.1184   20572727.4024   20572729.1034
     -1152.5374
 -14395845.61548 -11174040.69947  22494257.5964   22494257.4064   22494259.3874
      1206.0084
 10  1  2  0 52 30.0000000  0  9G28G12G22G09G27G18G26G15G17
 -10249045.78247  -7950606.60646  23647468.1334   23647468.1454   23647469.4954
     -2926.2074
 -13226527.30148 -10250509.96447  23291155.2844   23291155.3594   23291157.0714
      3360.1204
  -4291146.14347  -3308118.34946  24584142.1804   24584141.8394   24584142.7564
      1948.0174
 -24446485.40249 -19029860.94448  20722044.0514   20722043.9564   20722046.5054
      1997.3144
 -20454117.53849 -15899126.59448  21279105.8064   21279105.9994   21279108.2984
       989.0694
 -13711399.61448 -10487983.62247  22887036.0304   22887037.2574   22887037.6114
       323.1994
  -1052683.31317                  24604318.427
      3795.543
 -25629742.36849 -19962092.80148  20579350.3444   20579350.6964   20579352.3504
     -1168.7594
 -14431792.48948 -11202051.24547  22487416.9844   22487416.8534   22487418.6764
      1189.4034
 10  1  2  0 53  0.0000000  0  9G28G12G22G09G27G18G26G15G17
 -10161199.08447  -7882154.64546  23664184.7364   23664184.0994   23664185.0484
     -2931.2184
 -13327219.60048 -10328971.48847  23271993.7174   23271994.4094   23271996.0694
      3352.2624
  -4349366.66847  -3353485.02346  24573064.2694   24573064.9124   24573064.2914
      1933.0064
 -24506260.38949 -19076438.85148  20710669.4934   20710669.2044   20710671.8114
      1987.0644
 -20483708.05249 -15922184.14048  21273475.0824   21273475.1084   21273477.6264
       983.1344
 -13720823.85448 -10495327.19447  22885243.2314   22885243.7004   22885243.5334
       304.4784
  -1166524.62946   -884990.90346  24582667.0914   24582666.2794   24582670.4604
      3793.2744
 -25594436.17349 -19934581.48448  20586068.9344   20586069.1544   20586070.7754
     -1185.4864
 -14467225.30048 -11229661.21347  22480674.3074   22480674.2574   22480676.3934
      1172.2324
 10  1  2  0 53 30.0000000  0  9G28G12G22G09G27G18G26G15G17
 -10073207.28547  -7813589.61246  23680928.8794   23680929.3654   23680929.6664
     -2935.5974
 -13427680.97648 -10407253.07947  23252876.7914   23252876.6874   23252878.5684
      3344.8494
  -4407144.98047  -3398507.10846  24562067.6344   24562067.2664   24562067.6534
      1918.4694
 -24565731.85849 -19122780.25148  20699352.1904   20699352.1044   20699354.7964
      1977.1664
 -20513122.19549 -15945104.25348  21267877.5584   21267877.3044   21267880.1264
       977.4894
 -13729686.50448 -10502233.16247  22883556.2504   22883557.1304   22883558.0504
       285.7894
  -1280289.37346   -973638.78745  24561016.5984   24561017.4314   24561017.3274
      3790.8784
 -25558628.68949 -19906679.55348  20592882.7004   20592883.0694   20592884.6614
     -1202.0344
 -14502141.72648 -11256868.80547  22474029.9164   22474030.0914   22474032.1184
      1155.2614
 10  1  2  0 54  0.0000000  0  9G28G12G22G09G27G18G26G15G17
  -9985074.45747  -7744914.69246  23697700.4434   23697698.9094   23697701.9374
     -2940.4484
 -13527912.12548 -10485355.27047  23233803.6104   23233804.0244   23233806.4454
      3336.8974
  -4464481.97547  -3443185.31646  24551159.6974   24551159.5274   24551158.5684
      1903.4754
 -24624901.52849 -19168886.48248  20688092.4894   20688092.5244   20688095.0324
      1967.0334
 -20542362.37949 -15967888.81648  21262313.5264   21262313.3554   21262316.0184
       971.5714
 -13737990.17048 -10508703.56347  22881977.4284   22881976.2794   22881977.6444
       267.3354
  -1393977.47946  -1062226.90746  24539383.3894   24539383.2974   24539386.2764
      3788.0494
 -25522322.23349 -19878388.81448  20599791.6694   20599791.8984   20599793.7124
     -1218.6904
 -14536542.41948 -11283674.52547  22467483.4634   22467483.4324   22467485.9324
      1137.8944
 10  1  2  0 54 30.0000000  0  9G28G12G22G09G27G18G26G15G17
  -9896799.68947  -7676129.15146  23714498.3384   23714497.9334   23714499.4214
     -2945.0554
 -13627908.22448 -10563274.29547  23214775.1894   23214774.7514   23214776.5634
      3328.8664
  -4521373.01547  -3487515.95446  24540330.1394   24540331.6474   24540333.1344
      1888.4184
 -24683764.88549 -19214754.03448  20676891.3744   20676891.0074   20676893.6584
      1956.6674
 -20571425.44349 -15990535.36548  21256782.8384   21256782.6144   21256785.4514
       965.4524
 -13745731.76748 -10514735.99347  22880505.2344   22880502.8904   22880505.0164
       248.4254
  -1507583.94247  -1150751.48346  24517764.7724   24517762.7864   24517768.1474
      3785.2494
 -25485514.23749 -19849707.26348  20606796.0044   20606796.3704   20606798.2034
     -1235.5774
 -14570422.81648 -11310074.82847  22461036.2444   22461036.4744   22461038.6464
      1120.3744
 10  1  2  0 55  0.0000000  0  9G28G12G22G09G27G18G26G15G17
  -9808386.11347  -7607235.46446  23731323.2714   23731323.0194   23731324.6644
     -2950.2574
 -13727669.18648 -10641010.11447  23195790.8924   23195791.0744   23195792.6604
      3320.6614
  -4577817.37747  -3531498.66546  24529592.9104   24529592.7254   24529591.0644
      1873.2024
 -24742322.52949 -19260383.37148  20665748.2254   20665748.1284   20665750.4724
      1946.2054
 -20600312.48849 -16013044.75048  21251285.6924   21251285.4564   21251288.4914
       959.3414
 -13752912.61448 -10520331.47047  22879137.2244   22879137.1774   22879138.0354
       229.4944
  -1621108.01547  -1239211.76245  24496161.4584   24496159.5164   24496165.8264
      3782.1404
 -25448206.70849 -19820636.46948  20613895.4514   20613895.7034   20613897.3134
     -1252.4784
 -14603782.54248 -11336069.41247  22454688.0914   22454688.4344   22454690.2144
      1102.7344
 10  1  2  0 55 30.0000000  0  9G28G12G22G09G27G18G26G15G17
  -9719835.76847  -7538235.18946  23748173.6654   23748172.2664   23748173.7394
     -2954.6114
 -13827193.53048 -10718561.53947  23176852.3064   23176852.4124   23176853.3814
      3313.0374
  -4633813.24347  -3575131.74246  24518934.5404   24518935.1944   24518935.1744
      1858.7004
 -24800573.26349 -19305773.55048  20654663.4774   20654663.2464   20654665.9244
      1935.9524
 -20629023.23849 -16035416.76248  21245822.2924   21245822.0324   21245824.8564
       953.6334
 -13759532.85148 -10525490.09447  22877878.0894   22877877.6304   22877878.0724
       210.8734
  -1734546.99447  -1327605.78746  24474574.5504   24474572.5794   24474578.0454
      3779.3744
 -25410400.07249 -19791176.75848  20621089.8544   20621089.9954   20621091.8814
     -1269.1384
 -14636620.10148 -11361657.10647  22448439.4044   22448439.3744   22448441.4214
      1085.4864
 10  1  2  0 56  0.0000000  0  9G28G12G22G09G27G18G26G15G17
  -9631148.11847  -7469127.92346  23765050.3874   23765051.2104   23765052.0944
     -2958.3614
 -13926476.83748 -10795925.14847  23157959.1514   23157960.2244   23157961.1304
      3305.3544
  -4689356.72547  -3618412.42146  24508366.3004   24508366.7884   24508367.1984
      1843.9124
 -24858514.06549 -19350922.22348  20643637.7104   20643637.7604   20643639.6254
      1926.1794
 -20657554.91749 -16057649.24348  21240392.8784   21240393.0204   21240395.7824
       948.0074
 -13765590.33248 -10530210.23847  22876724.2194   22876724.8064   22876725.9704
       192.3294
  -1847896.38846  -1415930.02345  24453003.9514   24453004.7964   24453008.2644
      3776.7154
 -25372092.44549 -19761326.66848  20628379.6384   20628379.6984   20628381.5024
     -1285.3674
 -14668931.35948 -11386834.70447  22442291.0484   22442291.1634   22442293.0634
      1068.1684
 10  1  2  0 56 30.0000000  0  9G28G12G22G09G27G18G26G15G17
  -9542328.20247  -7399917.58646  23781952.3424   23781951.3784   23781954.3194
     -2962.4754
 -14025520.68248 -10873102.15847  23139111.3014   23139111.5154   23139113.1234
      3297.6014
  -4744449.70547  -3661342.00746  24497882.0564   24497881.1884   24497881.3384
      1829.0704
 -24916146.47149 -19395830.58748  20632670.4884   20632670.4434   20632672.8274
      1915.9384
 -20685910.68549 -16079744.64848  21234997.0294   21234997.0904   21234999.5084
       942.4234
 -13771088.23448 -10534494.32447  22875678.0244   22875677.7594   22875678.8604
       173.9234
  -1961156.95146  -1504184.99045  24431449.2194   24431452.0344   24431453.0544
      3774.1754
 -25333287.18349 -19731088.80548  20635763.9204   20635764.2644   20635765.9264
     -1301.6744
 -14700717.86148 -11411603.39447  22436242.0934   22436242.5414   22436244.3064
      1050.9304
 10  1  2  0 57  0.0000000  0  9G28G12G22G09G27G18G26G15G17
  -9453376.68447  -7330604.71846  23798878.7234   23798876.8194   23798879.8894
     -2967.7244
 -14124322.60548 -10950090.66247  23120310.1154   23120310.1604   23120311.3494
      3288.9864
  -4799088.90947  -3703918.03146  24487483.1724   24487484.1924   24487484.9164
      1813.6354
 -24973468.45149 -19440497.06248  20621762.5834   20621762.2434   20621765.2984
      1905.2784
 -20714088.92449 -16101701.71748  21229634.8114   21229634.8734   21229637.5264
       935.9524
 -13776025.51848 -10538341.56647  22874738.5914   22874737.9514   22874739.8504
       154.8394
  -2074325.13447  -1592368.00746  24409917.5264   24409916.2934   24409918.7664
      3770.5684
 -25293983.66949 -19700462.69448  20643243.2614   20643243.2044   20643245.0014
     -1318.7234
 -14731977.25348 -11435961.34947  22430293.6474   22430293.8874   22430295.9924
      1032.9744
 10  1  2  0 57 30.0000000  0  9G28G12G22G09G27G18G26G15G17
  -9364293.57647  -7261189.32246  23815831.2174   23815830.2934   23815833.1874
     -2971.7014
 -14222878.59148 -11026887.52147  23101555.7044   23101555.6694   23101557.3144
      3280.9894
  -4853270.81647  -3746137.69946  24477175.6084   24477174.3504   24477175.5174
      1798.4484
 -25030477.25649 -19484919.50848  20610914.1814   20610913.8244   20610916.4124
      1894.8614
 -20742087.78249 -16123519.00948  21224306.8824   21224306.4944   21224309.5664
       930.1824
 -13780400.43448 -10541750.60747  22873905.3564   22873905.8394   22873907.5814
       136.0814
  -2187396.82847  -1680475.85446  24388400.7754   24388400.1724   24388400.1294
      3767.0754
 -25254180.56049 -19669447.28748  20650817.5664   20650817.6194   20650819.3784
     -1335.2314
 -14762706.03448 -11459905.84547  22424446.0334   22424446.2554   22424448.4874
      1015.3194
 10  1  2  0 58  0.0000000  0  9G28G12G22G09G27G18G26G15G17
  -9275087.00947  -7191677.71346  23832806.6494   23832806.5964   23832808.7304
     -2976.8304
 -14321193.81648 -11103496.78547  23082847.0034   23082847.1974   23082848.6864
      3272.1584
  -4907000.14747  -3788004.73146  24466949.5094   24466948.3664   24466949.3144
      1782.2574
 -25087178.07749 -19529101.96748  20600124.3564   20600124.0794   20600126.7234
      1883.8404
 -20769913.02449 -16145201.01648  21219011.8354   21219011.7734   21219014.5724
       923.6244
 -13784219.37948 -10544726.40647  22873180.8664   22873178.4454   22873181.1034
       116.9094
  -2300375.96847  -1768511.53146  24366901.2314   24366900.1984   24366903.7884
      3763.5664
 -25213884.97449 -19638048.13648  20658485.4454   20658485.8484   20658487.4684
     -1352.4244
 -14792908.36548 -11483440.12547  22418698.6714   22418699.1724   22418701.0794
       996.8744
 10  1  2  0 58 30.0000000  0  9G28G12G22G09G27G18G26G15G17
  -9185752.19247  -7122066.17246  23849806.2504   23849806.0954   23849807.0994
     -2980.2254
 -14419259.89148 -11179911.90947  23064185.6224   23064185.4974   23064187.5354
      3264.4914
  -4960268.68447  -3829512.63146  24456811.4804   24456811.5884   24456812.4764
      1767.7994
 -25143563.41549 -19573038.59348  20589394.5934   20589394.0174   20589396.6704
      1874.1514
 -20797557.73149 -16166742.34448  21213751.3034   21213751.0124   21213753.7614
       918.3254
 -13787476.06148 -10547264.10347  22872560.2014   22872559.6324   22872560.3554
        98.8694
  -2413253.44747  -1856467.98546  24345422.3484   24345422.5674   24345423.1424
      3760.6044
 -25173090.33849 -19606260.11348  20666248.3344   20666248.5694   20666250.3454
     -1368.2714
 -14822576.71048 -11506558.30147  22413053.0924   22413053.4224   22413055.4094
       979.8274
 10  1  2  0 59  0.0000000  0  9G28G12G22G09G27G18G26G15G17
  -9096293.34747  -7052357.97746  23866829.8404   23866828.4994   23866829.7844
     -2983.9234
 -14517077.21548 -11256133.18847  23045571.3194   23045571.6154   23045573.3124
      3256.7374
  -5013076.98347  -3870662.03446  24446764.0944   24446763.1414   24446763.2134
      1752.8304
 -25199634.89449 -19616730.65348  20578724.6104   20578724.3984   20578726.8034
      1864.0864
 -20825023.93949 -16188144.58248  21208524.8334   21208524.5404   21208527.1104
       912.9164
 -13790173.01948 -10549365.63147  22872046.3304   22872046.8254   22872048.6124
        81.0474
  -2526029.31247  -1944345.33546  24323961.3914   24323962.1644   24323963.9474
      3757.4984
 -25131799.84849 -19574085.70848  20674105.6414   20674106.0264   20674107.6984
     -1384.2894
 -14851711.59648 -11529260.79747  22407509.0464   22407508.7504   22407510.6334
       962.4714
 10  1  2  0 59 30.0000000  0  9G28G12G22G09G27G18G26G15G17
  -9006712.52147  -6982554.74546  23883876.0164   23883876.8614   23883877.5024
     -2988.4584
 -14614644.60948 -11332159.71947  23027005.0914   23027005.8304   23027007.2454
      3247.8144
  -5065424.00947  -3911451.91846  24436803.0444   24436802.2994   24436803.9364
      1737.0784
 -25255391.43249 -19660177.30348  20568114.2854   20568114.0504   20568116.7374
      1853.1444
 -20852311.77249 -16209407.82648  21203332.0664   21203332.2104   21203334.6824
       906.3864
 -13792310.83948 -10551031.48447  22871639.0034   22871640.5944   22871640.0954
        61.6594
  -2638701.55447  -2032141.93646  24302520.3924   24302521.4234   24302527.2054
      3753.7644
 -25090014.25549 -19541525.51248  20682057.1064   20682057.3124   20682059.2224
     -1401.3764
 -14880311.98948 -11551546.80547  22402066.6254   22402066.8594   22402068.5004
       944.1374
                            4  1
RINEX FILE SPLICE; other post-header comments skipped       COMMENT
 10  1  2  1  0  0.0000000  0  9G28G12G22G09G27G18G26G15G17
  -8917009.66747  -6912656.42046  23900946.4374   23900947.1164   23900947.9994
     -2991.3924
 -14711958.62348 -11407988.81947  23008486.6244   23008487.0444   23008489.1334
      3240.1574
  -5117306.18047  -3951879.59046  24426930.3154   24426930.3824   24426930.7394
      1722.1724
 -25310829.95649 -19703376.15048  20557564.6954   20557564.5764   20557566.9944
      1843.2084
 -20879419.01449 -16230530.34748  21198173.6454   21198173.2764   21198176.4114
       901.1744
 -13793887.93448 -10552260.39447  22871339.7354   22871339.5704   22871340.4874
        43.7204
  -2751265.73847  -2119854.28545  24281100.2924   24281101.5964   24281102.7704
      3751.0294
 -25047732.03349 -19508578.33248  20690103.2694   20690103.7084   20690105.4254
     -1417.1674
 -14908374.62648 -11573413.78247  22396726.1384   22396726.6894   22396728.4984
       926.9534
 10  1  2  1  0 30.0000000  0  9G28G12G22G09G27G18G26G15G17
  -8827192.72647  -6842669.18246  23918038.1964   23918037.8964   23918038.0874
     -2996.4584
 -14809023.61648 -11483623.87847  22990015.4254   22990015.7434   22990017.7374
      3230.7294
  -5168727.48247  -3991948.15346  24417143.6824   24417144.5124   24417144.0174
      1705.6794
 -25365954.82149 -19746330.58748  20547074.7674   20547074.7824   20547077.4454
      1831.6684
 -20906351.04749 -16251516.34448  21193048.6894   21193048.4724   21193051.2924
       894.1724
 -13794910.35448 -10553057.09047  22871145.6444   22871144.5834   22871147.4534
        24.0984
  -2863725.17947  -2207485.02045  24259699.6204   24259701.3154   24259698.9284
      3745.9294
 -25004960.05649 -19475249.52348  20698242.5834   20698242.8584   20698244.4994
     -1434.5164
 -14935903.89648 -11594865.15647  22391487.6114   22391488.3114   22391489.9574
       908.0564
 10  1  2  1  1  0.0000000  0  9G28G12G22G09G27G18G26G15G17
  -8737253.59347  -6772586.73646  23935152.6394   23935151.8404   23935154.7484
     -2999.5454
 -14905828.50348 -11559056.25647  22971594.5224   22971594.2384   22971596.8174
      3222.8444
  -5219677.31947  -4031649.32546  24407447.1914   24407447.9844   24407449.5474
      1690.8044
 -25420756.36449 -19789033.08548  20536646.3144   20536646.2314   20536648.7974
      1821.7384
 -20933098.50249 -16272358.51448  21187958.8004   21187958.6394   21187960.9864
       888.9794
 -13795369.21348 -10553414.65747  22871057.3254   22871056.7384   22871059.9304
         6.2334
  -2976068.25647  -2295025.13446  24238320.9134   24238321.0184   24238323.8624
      3743.5274
 -24961688.74449 -19441531.62248  20706476.7244   20706476.9034   20706478.8544
     -1450.1774
 -14962889.03748 -11615892.52947  22386352.5754   22386352.4504   22386354.8144
       891.0444
 10  1  2  1  1 30.0000000  0  9G28G12G22G09G27G18G26G15G17
  -8647204.60847  -6702418.70646  23952288.7034   23952287.6684   23952289.1774
     -3004.2164
 -15002382.33348 -11634292.99247  22953220.9424   22953220.6474   22953222.7674
      3213.6124
  -5270164.63347  -4070990.08846  24397842.1054   24397840.2184   24397840.3434
      1674.4874
 -25475243.76649 -19831490.80248  20526277.9214   20526277.6734   20526280.2154
      1810.3514
 -20959671.71249 -16293064.91248  21182902.0434   21182901.8704   21182904.3754
       882.1554
 -13795275.38848 -10553341.55047  22871075.7314   22871074.4944   22871076.4424
       -13.0434
  -3088303.03247  -2382480.85346  24216965.2364   24216966.1444   24216969.3454
      3738.5044
 -24917929.75949 -19407433.71648  20714803.7404   20714804.1214   20714805.9254
     -1467.4194
 -14989338.96448 -11636502.84447  22381319.2764   22381318.9074   22381321.0714
       872.0724
 10  1  2  1  2  0.0000000  0  9G28G12G22G09G27G18G26G15G17
  -8557035.69347  -6632157.23446  23969447.0254   23969446.3714   23969448.7074
     -3006.7744
 -15098671.23048 -11709323.29147  22934897.4674   22934897.7044   22934899.9884
      3205.7484
  -5320175.41647  -4109959.53546  24388327.4994   24388325.4544   24388326.1544
      1659.5534
 -25529403.91349 -19873693.51148  20515971.5884   20515971.2414   20515973.8534
      1800.3624
 -20986057.75149 -16313625.45548  21177881.1694   21177880.9474   21177883.3194
       876.9304
 -13794616.95848 -10552828.51447  22871201.1114   22871199.8994   22871201.5804
       -30.8544
  -3200414.98947  -2469840.82846  24195629.4844   24195630.7034   24195633.5534
      3735.6904
 -24873671.49149 -19372946.75848  20723225.8034   20723226.1474   20723227.8614
     -1483.0274
 -15015240.30948 -11656685.70147  22376390.4064   22376390.3874   22376392.3504
       854.9264
 10  1  2  1  2 30.0000000  0  9G28G12G22G09G27G18G26G15G17
  -8466761.72347  -6561813.89946  23986625.3844   23986625.0364   23986627.7884
     -3011.8674
 -15194706.66348 -11784156.08647  22916622.7934   22916623.4404   22916625.1504
      3195.9534
  -5369721.60947  -4148566.93146  24378896.6524   24378897.1854   24378896.1864
      1642.8424
 -25583248.85849 -19915650.60848  20505725.1374   20505725.2344   20505727.5784
      1788.5094
 -21012269.33749 -16334050.06448  21172893.0324   21172892.8224   21172895.6654
       869.8294
 -13793407.07948 -10551885.75047  22871431.6334   22871430.1764   22871432.6784
       -50.4754
  -3312414.56546  -2557113.20546  24174316.6624   24174316.3344   24174318.0894
      3730.0504
 -24828927.64049 -19338081.42848  20731740.3594   20731740.6454   20731742.2624
     -1500.5524
 -15040604.82148 -11676450.24847  22371563.7974   22371563.6304   22371565.8234
       835.4504
 10  1  2  1  3  0.0000000  0  9G28G12G22G09G27G18G26G15G17
  -8376380.92447  -6491387.32246  24003824.9204   24003824.0954   24003826.4904
     -3014.6694
 -15290483.88948 -11858787.69047  22898397.1924   22898397.7054   22898398.5104
      3187.9544
  -5418797.99947  -4186808.28346  24369557.2254   24369558.2064   24369557.1214
      1627.6394
 -25636774.22449 -19957358.68048  20495539.6454   20495539.5114   20495541.9314
      1778.6364
 -21038302.95849 -16354335.99948  21167939.1354   21167938.7724   21167941.5764
       864.4564
 -13791643.21748 -10550511.32347  22871767.0394   22871767.4114   22871766.9994
       -68.3434
  -3424296.01546  -2644293.53046  24153025.2124   24153023.5944   24153029.3674
      3727.1014
 -24783695.55349 -19302835.65348  20740347.7674   20740348.0054   20740349.9024
     -1516.1824
 -15065427.77648 -11695792.79247  22366839.9604   22366840.1164   22366841.6194
       817.8494
 10  1  2  1  3 30.0000000  0  9G28G12G22G09G27G18G26G15G17
  -8285887.24047  -6420872.77546  24021045.3844   24021043.8544   24021046.4214
     -3017.9004
 -15385993.11748 -11933210.46147  22880222.3584   22880222.8084   22880224.0334
      3179.4744
  -5467395.51547  -4224676.50446  24360308.5914   24360308.2474   24360309.7754
      1612.5724
 -25689970.97749 -19998810.68948  20485416.6034   20485416.3734   20485418.8154
      1768.1884
 -21064150.05949 -16374476.59648  21163020.4674   21163020.2204   21163023.0334
       858.8354
 -13789317.85648 -10548699.37347  22872209.8184   22872210.0184   22872210.9594
       -86.6474
  -3536048.73746  -2731373.55746  24131761.8984   24131760.4894   24131762.3074
      3723.3494
 -24737967.95649 -19267203.76348  20749049.4434   20749049.4444   20749051.5184
     -1532.1594
 -15089699.84148 -11714706.08047  22362221.3314   22362221.5484   22362223.4304
       800.3224
 10  1  2  1  4  0.0000000  0  9G28G12G22G09G27G18G26G15G17
  -8195286.85447  -6350275.08246  24038285.6844   24038286.4404   24038287.5444
     -3022.0294
 -15481237.49548 -12007426.85747  22862098.1824   22862097.9984   22862099.8514
      3169.9754
  -5515516.87347  -4262173.65146  24351152.6264   24351152.9594   24351151.8894
      1595.6714
 -25742842.54449 -20040009.31048  20475355.4804   20475355.3464   20475357.7034
      1756.6604
 -21089815.12949 -16394475.35048  21158136.6974   21158136.3334   21158139.4524
       852.1704
 -13786436.03148 -10546453.81147  22872758.0234   22872757.3804   22872760.1844
      -105.3664
  -3647675.02947  -2818355.09546  24110519.4704   24110518.3554   24110520.6824
      3718.6324
 -24691750.35649 -19231190.05548  20757844.3574   20757844.6414   20757846.2784
     -1549.0624
 -15113424.41048 -11733192.75647  22357706.5584   22357706.2484   22357708.7484
       781.4114
 10  1  2  1  4 30.0000000  0  9G28G12G22G09G27G18G26G15G17
  -8104583.92547  -6279597.49046  24055545.5534   24055546.1794   24055546.8674
     -3025.3384
 -15576217.52748 -12081437.25547  22844023.8574   22844024.5854   22844025.9794
      3161.4824
  -5563162.61447  -4299300.18246  24342087.2544   24342086.7004   24342084.7284
      1580.0034
 -25795390.18349 -20080955.51848  20465356.0624   20465355.6544   20465358.4354
      1746.0824
 -21115300.05249 -16414333.72748  21153287.0004   21153286.6004   21153289.5234
       846.2584
 -13783000.05848 -10543776.44147  22873411.7454   22873411.0224   22873411.9874
      -124.0774
  -3759174.50047  -2905237.82246  24089299.8464   24089299.3854   24089303.5044
      3714.1804
 -24645045.06349 -19194796.32448  20766732.1534   20766732.3294   20766734.1394
     -1565.0844
 -15136602.35048 -11751253.48347  22353295.9114   22353295.8484   22353298.2984
       763.3584
 10  1  2  1  5  0.0000000  0  9G28G12G22G09G27G18G26G15G17
  -8013779.36247  -6208840.69746  24072825.2954   24072824.7884   24072826.7024
     -3028.8064
 -15670931.01248 -12155239.97047  22826000.4114   22826000.4154   22826002.2314
      3152.4964
  -5610331.04947  -4336054.81946  24333109.2174   24333109.3424   24333109.4174
      1564.0964
 -25847612.07249 -20121647.90048  20455418.5984   20455418.3604   20455420.9884
      1735.1394
 -21140603.70349 -16434050.85848  21148471.7894   21148471.7544   21148474.4484
       840.3004
 -13779009.60348 -10540667.01347  22874171.5304   22874171.4844   22874173.4654
      -142.2714
  -3870543.75647  -2992019.06646  24068106.7484   24068107.1574   24068112.4234
      3709.7894
 -24597852.36949 -19158022.80048  20775712.5774   20775712.7254   20775714.4264
     -1581.3654
 -15159231.85148 -11768886.85547  22348989.4844   22348989.7754   22348992.1454
       744.9134
 10  1  2  1  5 30.0000000  0  9G28G12G22G09G27G18G26G15G17
  -7922874.19647  -6138005.52046  24090123.7954   24090124.1274   24090125.7734
     -3031.8114
 -15765375.89648 -12228833.37847  22808027.8944   22808027.8504   22808029.6914
      3143.6224
  -5657020.42047  -4372436.13246  24324226.5794   24324224.5834   24324225.5924
      1548.2674
 -25899506.40049 -20162085.03248  20445543.2714   20445543.2554   20445545.9464
      1724.3304
 -21165725.15749 -16453626.01648  21143691.1254   21143691.4204   21143693.7204
       834.3564
 -13774465.29147 -10537126.01047  22875035.3074   22875035.1504   22875037.3464
      -160.5974
  -3981779.81247  -3078696.49846  24046941.5264   24046942.6854   24046944.1794
      3705.2084
 -24550172.41049 -19120869.59348  20784785.6064   20784786.0074   20784787.7204
     -1597.3794
 -15181311.03148 -11786091.40147  22344788.0514   22344788.2894   22344790.3284
       726.9264
 10  1  2  1  6  0.0000000  0  9G28G12G22G09G27G18G26G15G17
  -7831868.59747  -6067092.07746  24107441.7664   24107442.7774   24107443.0514
     -3035.4284
 -15859548.96848 -12302214.98447  22790107.3984   22790107.5664   22790109.4524
      3134.2964
  -5703227.23347  -4408441.42646  24315431.3214   24315430.0214   24315432.1364
      1531.8374
 -25951070.32949 -20202264.71548  20435731.3174   20435730.8884   20435733.4914
      1713.1074
 -21190662.37149 -16473057.61248  21138946.0574   21138945.6074   21138948.7504
       827.9474
 -13769365.49348 -10533152.15047  22876007.1014   22876005.8094   22876008.6134
      -179.2104
  -4092878.53247  -3165266.93146  24025801.4404   24025802.2514   24025800.6644
      3700.5534
 -24502004.37749 -19083336.06748  20793951.8714   20793952.0964   20793953.8504
     -1613.8874
 -15202836.82848 -11802864.73347  22340691.8654   22340692.5674   22340694.0824
       708.2234
 10  1  2  1  6 30.0000000  0  9G28G12G22G09G27G18G26G15G17
  -7740765.27347  -5996102.48146  24124778.5914   24124778.6594   24124779.6544
     -3038.7294
 -15953449.77048 -12375384.42647  22772238.5044   22772238.8284   22772239.8674
      3125.3354
  -5748951.17247  -4444070.47446  24306732.5764   24306730.2864   24306730.2714
      1515.9564
 -26002304.31349 -20242187.29748  20425981.5714   20425981.0404   20425983.9704
      1702.1694
 -21215415.92249 -16492346.09748  21134235.5144   21134235.3994   21134238.2074
       821.8824
 -13763711.85048 -10528746.72846  22877081.9324   22877081.4234   22877083.8414
      -197.9124
  -4203838.59847  -3251729.32246  24004683.9274   24004683.7614   24004688.0534
      3696.5654
 -24453350.05249 -19045423.61248  20803210.3634   20803210.6714   20803212.4794
     -1630.0294
 -15223809.46548 -11819207.03847  22336701.2334   22336701.2714   22336703.4784
       689.6714
 10  1  2  1  7  0.0000000  0  9G28G12G22G09G27G18G26G15G17
  -7649567.87247  -5925039.57546  24142132.0104   24142131.7494   24142133.8654
     -3041.2844
 -16047078.77448 -12448342.08247  22754421.8884   22754422.0214   22754423.4194
      3116.6414
  -5794192.75547  -4479323.64646  24298122.4964   24298123.6844   24298123.5594
      1500.1024
 -26053209.03949 -20281853.31348  20416294.8344   20416294.5174   20416297.0014
      1691.5254
 -21239987.36549 -16511492.67548  21129559.7524   21129559.3524   21129562.2494
       816.2204
 -13757507.35548 -10523912.06347  22878263.9294   22878263.1004   22878263.8084
      -215.7664
  -4314659.06946  -3338082.94146  23983596.3094   23983596.4974   23983598.2734
      3691.7524
 -24404212.25549 -19007134.42248  20812560.8114   20812561.0304   20812563.0914
     -1645.7614
 -15244229.65948 -11835118.86247  22332815.3744   22332815.7384   22332816.9134
       671.7174
 10  1  2  1  7 30.0000000  0  9G28G12G22G09G27G18G26G15G17
  -7558278.36247  -5853904.90646  24159504.5174   24159504.2034   24159505.1654
     -3043.9014
 -16140434.35548 -12521086.69147  22736656.8334   22736657.1834   22736658.5224
      3107.6254
  -5838950.71447  -4514199.98946  24289605.1504   24289605.2014   24289604.7374
      1484.0324
 -26103783.47249 -20321261.96048  20406670.5594   20406670.5554   20406673.1394
      1680.6584
 -21264376.34549 -16530497.07748  21124918.7624   21124918.5114   21124921.1834
       810.2744
 -13750752.45248 -10518648.51547  22879548.4374   22879547.1184   22879549.3424
      -234.0834
  -4425337.75147  -3424326.06846  23962535.1134   23962535.5634   23962537.3464
      3687.0134
 -24354591.51949 -18968468.91748  20822003.4464   20822003.7614   20822005.5864
     -1661.7204
 -15264096.05748 -11850599.17247  22329034.7444   22329035.1564   22329036.5624
       653.2944
 10  1  2  1  8  0.0000000  0  9G28G12G22G09G27G18G26G15G17
  -7466896.77947  -5782698.49546  24176893.5054   24176892.8034   24176896.8984
     -3047.6994
 -16233513.27648 -12593615.71347  22718944.4954   22718944.9644   22718946.0864
      3097.8564
  -5883222.20247  -4548697.25646  24281180.3174   24281180.2554   24281179.8014
      1467.3414
 -26154024.89149 -20360411.11348  20397110.0184   20397109.9974   20397112.3684
      1668.9374
 -21288580.87749 -16549357.74948  21120312.7624   21120312.4214   21120315.3294
       803.5414
 -13743446.07248 -10512955.24347  22880938.4444   22880938.5064   22880940.5324
      -252.9964
  -4535870.26547  -3510455.30646  23941500.1044   23941499.4594   23941501.0484
      3681.7564
 -24304487.16449 -18929426.56748  20831537.9934   20831538.1734   20831540.3204
     -1678.4384
 -15283406.05448 -11865645.91447  22325360.2524   22325360.7814   22325361.8064
       634.1604
 10  1  2  1  8 30.0000000  0  9G28G12G22G09G27G18G26G15G17
  -7375424.55147  -5711421.43546  24194299.7504   24194298.9364   24194301.8394
     -3050.7374
 -16326314.20548 -12665928.12347  22701285.2514   22701285.5134   22701287.0434
      3088.4294
  -5927005.67447  -4582814.24746  24272850.5824   24272847.7794   24272848.8614
      1450.8264
 -26203932.29849 -20399300.00148  20387613.0134   20387612.9894   20387615.3244
      1657.8004
 -21312600.63549 -16568074.44448  21115742.0944   21115741.6504   21115744.4014
       797.3834
 -13735588.86348 -10506832.76746  22882434.1644   22882432.6914   22882435.5204
      -271.3874
  -4646253.72547  -3596468.38346  23920496.7674   23920495.7084   23920497.3634
      3676.5304
 -24253899.88249 -18890007.91348  20841164.4954   20841164.8544   20841166.4274
     -1694.4594
 -15302158.39748 -11880258.12447  22321791.6184   22321791.7364   22321793.6314
       615.4104
 10  1  2  1  9  0.0000000  0  9G28G12G22G09G27G18G26G15G17
  -7283862.58847  -5640074.45646  24211723.5704   24211724.9294   24211726.4334
     -3053.7824
 -16418834.87048 -12738022.15047  22683679.1354   22683679.0124   22683680.3154
      3079.1024
  -5970299.13547  -4616549.42646  24264609.7904   24264610.1144   24264611.3514
      1434.8144
 -26253503.82049 -20437927.16148  20378179.7174   20378179.4754   20378181.9754
      1646.5194
 -21336434.15949 -16586646.02048  21111206.6774   21111206.4434   21111209.0914
       791.0424
 -13727180.50648 -10500280.80746  22884034.6254   22884033.9604   22884036.1294
      -289.7194
  -4756484.99647  -3682362.89146  23899520.2804   23899520.1594   23899521.1734
      3671.5874
 -24202829.87349 -18850213.10748  20850882.8954   20850883.0044   20850884.8814
     -1710.5544
 -15320351.36448 -11894434.45547  22318329.4224   22318329.7024   22318331.4064
       596.9834
 10  1  2  1  9 30.0000000  0  9G28G12G22G09G27G18G26G15G17
  -7192215.50047  -5568661.15646  24229163.9444   24229163.0094   24229167.4204
     -3055.9504
 -16511076.58748 -12809898.81647  22666125.8664   22666126.6534   22666127.1734
      3070.4594
  -6013103.72147  -4649903.63746  24256465.9044   24256464.9254   24256465.8244
      1419.2034
 -26302741.22249 -20476293.96748  20368810.3014   20368810.1494   20368812.5014
      1636.0184
 -21360084.28649 -16605074.69048  21106706.0014   21106705.8314   21106708.8604
       785.6504
 -13718224.79348 -10493302.35147  22885738.8134   22885739.0794   22885738.6614
      -307.2024
  -4866564.34947  -3768139.00146  23878572.4904   23878572.9434   23878574.3274
      3666.9754
 -24151281.09749 -18810045.23548  20860692.0774   20860692.3194   20860694.0874
     -1725.8544
 -15337986.98648 -11908176.49447  22314973.5844   22314974.1614   22314976.3434
       578.8704
 10  1  2  1 10  0.0000000  0  9G28G12G22G09G27G18G26G15G17
  -7100483.08947  -5497181.34946  24246619.3994   24246619.4184   24246621.5574
     -3059.1124
 -16603035.71548 -12881555.27547  22648626.9374   22648626.8894   22648628.0214
      3060.5674
  -6055416.61647  -4682874.73846  24248408.9724   24248412.0584   24248414.0404
      1402.1324
 -26351641.28749 -20514397.91048  20359505.0264   20359504.7894   20359507.3134
      1624.2444
 -21383548.36949 -16623358.39148  21102241.0204   21102240.8004   21102243.4244
       778.9744
 -13708720.47448 -10485896.40047  22887547.3054   22887545.9994   22887547.7414
      -326.2234
  -4976487.46147  -3853793.35246  23857654.4014   23857654.4684   23857656.9464
      3661.6864
 -24099252.08349 -18769503.14748  20870592.9974   20870593.0314   20870595.1374
     -1742.3674
 -15355061.84348 -11921481.56547  22311724.2404   22311724.9644   22311726.3054
       559.7774
 10  1  2  1 10 30.0000000  0  9G28G12G22G09G27G18G26G15G17
  -7008667.18147  -5425636.49246  24264092.0054   24264091.8094   24264094.5334
     -3061.7694
 -16694711.38848 -12952990.86447  22631181.0514   22631181.1554   22631183.1644
      3050.9284
  -6097237.21147  -4715462.20346  24240455.7544   24240453.7084   24240454.1154
      1385.9384
 -26400203.44249 -20552238.54948  20350263.9814   20350263.7914   20350266.3454
      1612.9364
 -21406826.42749 -16641497.13748  21097811.3634   21097811.2794   21097813.8754
       772.7034
 -13698668.55648 -10478063.76247  22889460.9574   22889459.0144   22889461.6894
      -344.1744
  -5086251.83547  -3939324.02346  23836767.6104   23836767.8104   23836769.4784
      3655.9394
 -24046744.53749 -18728588.18048  20880584.6004   20880585.0494   20880586.9054
     -1758.3744
 -15371575.55148 -11934349.37947  22308581.9044   22308581.8664   22308583.6854
       540.9914
 10  1  2  1 11  0.0000000  0  9G28G12G22G09G27G18G26G15G17
  -6916770.67347  -5354028.82046  24281579.0644   24281577.6914   24281582.3824
     -3064.4584
 -16786103.29548 -13024205.33747  22613789.9934   22613790.9074   22613792.2344
      3041.9324
  -6138564.92547  -4747665.61446  24232589.1524   24232590.7954   24232590.8964
      1369.5734
 -26448427.74449 -20589815.92548  20341086.9444   20341086.8434   20341089.6464
      1602.0734
 -21429919.18549 -16659491.49348  21093416.8994   21093416.6424   21093419.4534
       766.8904
 -13688071.18648 -10469806.08947  22891476.1284   22891475.4944   22891478.0754
      -362.0944
  -5195855.91047  -4024729.78146  23815910.3854   23815910.1894   23815911.9894
      3650.9744
 -23993760.13349 -18687301.63648  20890667.4854   20890667.6654   20890669.5474
     -1773.8674
 -15387528.37648 -11946780.14547  22305546.1234   22305546.2124   22305547.9864
       522.6754
 10  1  2  1 11 30.0000000  0  9G28G12G22G09G27G18G26G15G17
  -6824793.59647  -5282358.38446  24299081.8794   24299081.1404   24299083.8344
     -3067.5204
 -16877207.82748 -13095195.88247  22596453.7614   22596454.1144   22596455.2274
      3031.9014
  -6179396.98647  -4779482.81046  24224821.8684   24224819.8804   24224821.1754
      1352.8224
 -26496311.42949 -20627127.89048  20331975.2544   20331975.0494   20331977.3194
      1590.3164
 -21452824.36449 -16677339.68648  21089058.2744   21089058.0384   21089060.5844
       760.2444
 -13676927.13048 -10461122.42847  22893596.7764   22893596.4194   22893599.6894
      -380.7874
  -5305295.34147  -4110007.25146  23795084.1664   23795084.1324   23795085.7634
      3645.2564
 -23940297.85349 -18645642.72148  20900841.1744   20900841.2334   20900843.0104
     -1790.1234
 -15402917.61348 -11958771.74747  22302617.7394   22302617.6364   22302619.8094
       503.3544
 10  1  2  1 12  0.0000000  0  9G28G12G22G09G27G18G26G15G17
  -6732739.03147  -5210627.55346  24316598.9554   24316598.8474   24316601.4774
     -3069.8534
 -16968025.68148 -13165963.04747  22579171.9324   22579172.4864   22579173.5414
      3022.3834
  -6219734.17247  -4810914.39646  24217145.0624   24217143.5674   24217143.3234
      1336.2124
 -26543855.24549 -20664175.01948  20322927.7864   20322927.7744   20322930.1444
      1579.0894
 -21475543.47949 -16695042.89348  21084734.9094   21084734.5884   21084737.1744
       754.1944
 -13665238.98148 -10452014.78347  22895821.0854   22895820.2044   22895821.3374
      -398.8054
  -5414569.37347  -4195155.82546  23774289.2144   23774289.8224   23774290.9504
      3639.6834
 -23886360.59849 -18603613.69148  20911104.8494   20911105.4084   20911107.0074
     -1805.8084
 -15417743.76248 -11970324.58247  22299796.4624   22299796.3464   22299798.7904
       484.8384
 10  1  2  1 12 30.0000000  0  9G28G12G22G09G27G18G26G15G17
  -6640608.13147  -5138837.24646  24334131.8294   24334131.6494   24334133.3344
     -3072.6794
 -17058554.48148 -13236504.97147  22561944.6774   22561944.3684   22561946.0394
      3012.5194
  -6259574.08847  -4841958.48246  24209562.5914   24209564.8644   24209564.9124
      1319.3624
 -26591057.29849 -20700955.84148  20313945.7164   20313945.3774   20313947.9594
      1567.5514
 -21498075.17949 -16712600.06048  21080447.1584   21080446.9344   21080450.0284
       747.7574
 -13653007.15248 -10442483.50947  22898149.8064   22898147.5884   22898150.5734
      -417.2634
  -5523674.56447  -4280172.83046  23753528.4974   23753528.2344   23753530.5554
      3633.5954
 -23831948.93649 -18561214.99648  20921459.0404   20921459.4304   20921461.2884
     -1821.8554
 -15432005.38848 -11981437.52747  22297082.3414   22297082.9684   22297084.4934
       465.7714
 10  1  2  1 13  0.0000000  0  9G28G12G22G09G27G18G26G15G17
  -6548402.22547  -5066988.50746  24351677.3604   24351676.7244   24351678.8944
     -3074.6054
 -17148792.95348 -13306820.66447  22544772.6784   22544772.3954   22544773.6344
      3003.2304
  -6298915.57047  -4872614.19846  24202076.3524   24202075.8404   24202076.6804
      1303.0464
 -26637916.63649 -20737469.61148  20305028.5954   20305028.3404   20305031.0594
      1556.4084
 -21520419.06449 -16730010.87548  21076195.3474   21076195.2224   21076197.8304
       741.8154
 -13640232.34948 -10432529.12846  22900579.8844   22900579.6254   22900583.2124
      -434.7684
  -5632608.26547  -4365056.21846  23732799.0504   23732799.1254   23732800.1224
      3628.4194
 -23777063.50849 -18518447.12848  20931903.3044   20931903.3714   20931905.7164
     -1837.1844
 -15445701.42348 -11992109.75147  22294476.1964   22294476.4514   22294477.9664
       447.2894
 10  1  2  1 13 30.0000000  0  9G28G12G22G09G27G18G26G15G17
  -6456125.76047  -4995084.77746  24369237.3154   24369238.2294   24369239.1074
     -3076.9494
 -17238741.99348 -13376910.82347  22527655.7784   22527656.0714   22527656.6564
      2993.5384
  -6337760.27647  -4902882.79946  24194687.0594   24194685.7084   24194685.4684
      1286.9974
 -26684434.68649 -20773717.44048  20296176.5464   20296176.2334   20296178.5984
      1545.0684
 -21542577.17449 -16747276.93648  21071978.8004   21071978.6014   21071981.2644
       735.6374
 -13626917.99548 -10422154.31347  22903113.3634   22903113.5794   22903114.7734
      -452.7164
  -5741370.30847  -4449805.86946  23712102.5684   23712103.1054   23712104.1194
      3623.0344
 -23721707.81749 -18475312.82648  20942437.3384   20942437.6494   20942439.3904
     -1852.8804
 -15458833.69048 -12002342.67347  22291977.3524   22291977.4874   22291978.8284
       428.4354
 10  1  2  1 14  0.0000000  0  9G28G12G22G09G27G18G26G15G17
  -6363773.79447  -4923122.20846  24386811.0574   24386810.0244   24386812.1534
     -3079.0594
 -17328393.82348 -13446769.38847  22510595.5154   22510595.7344   22510597.0794
      2983.7104
  -6376100.37147  -4932758.20646  24187387.1294   24187388.0164   24187389.0714
      1269.9074
 -26730603.80349 -20809693.37848  20287390.8744   20287390.7024   20287392.7694
      1533.3944
 -21564542.54849 -16764392.81948  21067799.0504   21067798.7894   21067801.3094
       729.2094
 -13613058.45648 -10411354.68747  22905750.7964   22905751.3164   22905752.1764
      -470.3994
  -5849951.55947  -4534414.65446  23691438.8264   23691438.0684   23691442.6944
      3616.8004
 -23665876.52949 -18431807.93348  20953061.7904   20953062.0654   20953063.8804
     -1868.7434
 -15471395.14948 -12012130.81647  22289586.7864   22289587.1914   22289588.6994
       409.4074
 10  1  2  1 14 30.0000000  0  9G28G12G22G09G27G18G26G15G17
  -6271353.65447  -4851106.50446  24404398.0834   24404397.2864   24404398.6344
     -3082.2804
 -17417753.05448 -13516399.95947  22493590.8004   22493591.5694   22493592.3464
      2973.1034
  -6413940.61847  -4962244.11646  24180186.5634   24180186.7524   24180188.0464
      1252.2884
 -26776428.69749 -20845401.08448  20278670.5944   20278670.2354   20278673.0004
      1521.1234
 -21586320.78949 -16781362.87648  21063654.6924   21063654.3354   21063657.1894
       722.2084
 -13598660.62248 -10400135.62347  22908490.0104   22908489.0614   22908491.7604
      -489.3084
  -5958355.24447  -4618885.08146  23670811.0084   23670812.0534   23670813.2154
      3610.0454
 -23609576.27449 -18387937.60948  20963775.1694   20963775.4224   20963777.4564
     -1885.1004
 -15483390.65148 -12021477.95147  22287304.1414   22287304.2734   22287306.7084
       389.8804
 10  1  2  1 15  0.0000000  0  9G28G12G22G09G27G18G26G15G17
  -6178866.64247  -4779038.70946  24421997.7604   24421997.7844   24421998.6474
     -3083.3994
 -17506817.35948 -13585800.71547  22476643.1014   22476643.1384   22476644.8794
      2964.1374
  -6451279.75047  -4991339.56246  24173084.4194   24173082.6384   24173082.8474
      1236.3954
 -26821907.79949 -20880839.34448  20270016.2354   20270016.1014   20270018.3794
      1510.5614
 -21607910.69049 -16798186.17848  21059546.2334   21059546.0744   21059548.8834
       716.8314
 -13583724.62148 -10388497.18147  22911332.7264   22911331.8734   22911334.3214
      -506.7344
  -6066577.99747  -4703214.51446  23650218.0784   23650218.1244   23650222.1194
      3604.9324
 -23552807.70849 -18343702.37048  20974577.8154   20974578.0074   20974579.9934
     -1899.7394
 -15494818.54248 -12030382.79447  22285129.4494   22285129.3264   22285131.3884
       371.7474
 10  1  2  1 15 30.0000000  0  9G28G12G22G09G27G18G26G15G17
  -6086312.10647  -4706918.30146  24439609.8734   24439609.4784   24439611.0254
     -3086.1164
 -17595583.55848 -13654969.17547  22459751.1614   22459751.4464   22459752.5884
      2953.9734
  -6488114.43647  -5020041.93746  24166073.1124   24166074.3704   24166072.6564
      1219.2694
 -26867038.11349 -20916005.82148  20261428.2784   20261428.1414   20261430.3034
      1498.7694
 -21629309.95549 -16814860.93248  21055474.1114   21055473.6884   21055476.8634
       710.2954
 -13568249.61548 -10376438.73647  22914278.0954   22914278.5134   22914279.6274
      -524.7324
  -6174615.30947  -4787399.46246  23629658.3194   23629657.6884   23629660.7264
      3598.5404
 -23495569.84249 -18299101.43848  20985469.8884   20985470.2594   20985472.1674
     -1915.5944
 -15505676.24348 -12038843.32947  22283063.1534   22283063.4854   22283065.5944
       352.5504
 10  1  2  1 16  0.0000000  0  9G28G12G22G09G27G18G26G15G17
  -5993693.41947  -4634747.90246  24457235.0104   24457235.8494   24457236.0024
     -3088.9894
 -17684052.08748 -13723905.68847  22442915.8374   22442916.0454   22442917.5034
      2943.5374
  -6524445.51747  -5048351.87446  24159158.9874   24159159.2274   24159159.0894
      1202.2084
 -26911820.20649 -20950900.95848  20252906.3194   20252906.2964   20252908.7124
      1486.4864
 -21650519.96449 -16831388.21548  21051437.9924   21051437.7224   21051440.8084
       703.2974
 -13552238.69748 -10363962.70147  22917324.6034   22917323.7954   22917326.9224
      -543.2104
  -6282466.27647  -4871439.19346  23609134.6324   23609134.7974   23609136.3634
      3591.5984
 -23437865.86449 -18254137.30548  20996450.5734   20996450.8664   20996452.8634
     -1931.7154
 -15515965.23748 -12046860.71747  22281105.5014   22281105.9184   22281107.7784
       332.9764
 10  1  2  1 16 30.0000000  0  9G28G12G22G09G27G18G26G15G17
  -5901009.78647  -4562526.90546  24474872.1804   24474872.0294   24474873.6524
     -3090.8164
 -17772219.13748 -13792607.28447  22426138.1674   22426139.2674   22426140.3594
      2933.5684
  -6560269.25647  -5076266.49246  24152340.8794   24152342.8404   24152343.1024
      1185.5414
 -26956250.87849 -20985522.25748  20244451.4794   20244451.3394   20244453.7854
      1474.9344
 -21671537.58849 -16847765.58448  21047438.5034   21047438.1904   21047441.2364
       697.1924
 -13535690.17148 -10351067.76347  22920474.8574   22920473.1654   22920475.3774
      -560.7734
  -6390125.65547  -4955329.64246  23588648.1314   23588647.8414   23588650.5994
      3585.3564
 -23379694.11249 -18208808.66948  21007520.3214   21007520.6844   21007522.5834
     -1947.0654
 -15525681.84848 -12054432.09047  22279256.5894   22279256.2904   22279258.3704
       314.1814
 10  1  2  1 17  0.0000000  0  9G28G12G22G09G27G18G26G15G17
  -5808266.86547  -4490259.71046  24492520.4074   24492519.0564   24492521.8974
     -3092.0284
 -17860087.22048 -13861075.91847  22409418.0424   22409417.8504   22409419.4864
      2924.0494
  -6595588.61847  -5103788.08546  24145621.4804   24145619.7024   24145620.6284
      1168.8784
 -27000333.21049 -21019872.12748  20236062.9844   20236062.8184   20236065.2514
      1463.6594
 -21692366.45249 -16863995.86948  21043475.0284   21043474.8564   21043477.4364
       691.1814
 -13518609.06748 -10337757.82547  22923724.2574   22923723.9994   22923726.2894
      -578.0034
  -6497594.57947  -5039071.69246  23568197.0214   23568196.5574   23568200.3274
      3579.4274
 -23321059.64249 -18163119.47748  21018678.0964   21018678.3044   21018680.3084
     -1962.0684
 -15534829.54548 -12061560.15347  22277515.7274   22277515.9124   22277517.6284
       295.5714
 10  1  2  1 17 30.0000000  0  9G28G12G22G09G27G18G26G15G17
  -5715461.89047  -4417944.16946  24510180.9764   24510180.9114   24510181.0204
     -3094.4934
 -17947650.82248 -13929307.29747  22392755.1104   22392755.4064   22392756.6804
      2913.6114
  -6630398.67247  -5130912.81146  24138998.3044   24138998.1214   24138998.6464
      1152.0574
 -27044061.57149 -21053946.17348  20227741.5384   20227741.5284   20227744.0144
      1451.7014
 -21713001.76249 -16880075.33048  21039547.9924   21039547.7034   21039550.7824
       684.6344
 -13500992.22348 -10324030.41746  22927076.5244   22927075.6534   22927079.0444
      -595.9234
  -6604866.37647  -5122660.10246  23547783.5704   23547783.5634   23547786.8194
      3572.4384
 -23261959.31849 -18117067.28048  21029924.5734   21029924.7284   21029926.7624
     -1977.7724
 -15543403.49648 -12068241.14347  22275884.0194   22275883.9354   22275885.3534
       276.2714
 10  1  2  1 18  0.0000000  0 10G30G28G12G22G09G27G18G26G15G17
  -3252232.67056  -2274107.94755  25437519.6894   25437522.3244   25437523.0494
      3708.8374
  -5622599.57447  -4345583.94146  24527852.4674   24527850.9764   24527853.8654
     -3096.4744
 -18034911.84648 -13997302.89647  22376149.3464   22376149.7314   22376151.4974
      2903.9244
  -6664701.55847  -5157642.36246  24132469.1954   24132468.7304   24132470.5304
      1135.1934
 -27087438.11249 -21087746.07548  20219487.5734   20219487.2664   20219489.7504
      1440.2394
 -21733446.30949 -16896006.15348  21035657.8314   21035657.4804   21035660.2124
       678.6044
 -13482844.20048 -10309889.11346  22930530.3224   22930530.0464   22930531.3304
      -613.6054
  -6711941.35247  -5206095.13146  23527409.2204   23527408.6904   23527410.6364
      3565.9994
 -23202397.70449 -18070655.64148  21041258.5864   21041258.8564   21041260.7614
     -1992.7924
 -15551406.19248 -12074477.00047  22274360.8894   22274361.0214   22274363.6144
       257.4014
 10  1  2  1 18 30.0000000  0  9G28G12G22G09G27G18G26G15G17
  -5529679.10047  -4273178.38546  24545534.4234   24545533.1924   24545535.9154
     -3097.8334
 -18121866.40148 -14065059.69047  22359602.6214   22359602.9244   22359604.8224
      2893.8464
  -6698493.79147  -5183973.98546  24126039.7404   24126039.1034   24126039.5514
      1118.4194
 -27130459.29649 -21121269.07448  20211300.8674   20211300.6754   20211302.9484
      1428.5054
 -21753696.98349 -16911785.90148  21031804.2134   21031803.8294   21031806.6534
       672.1874
 -13464163.43048 -10295332.68846  22934084.1874   22934084.5024   22934085.3434
      -631.0574
  -6818814.35747  -5289372.80846  23507072.0834   23507072.2734   23507073.4974
      3559.4464
 -23142373.40349 -18023883.46048  21052680.9344   21052681.1944   21052683.0644
     -2007.9664
 -15558834.65348 -12080265.40447  22272947.4224   22272947.5984   22272949.7354
       238.4614
 10  1  2  1 19  0.0000000  0  9G28G12G22G09G27G18G26G15G17
  -5436706.44247  -4200732.16746  24563226.6764   24563224.9694   24563226.7094
     -3099.9154
 -18208517.66148 -14132580.15247  22343113.5034   22343113.3594   22343114.8704
      2883.6674
  -6731778.70047  -5209910.28846  24119705.0954   24119705.8834   24119706.0394
      1101.1844
 -27173128.83149 -21154518.06148  20203180.8844   20203180.7944   20203183.2664
      1416.7994
 -21773758.01949 -16927417.87948  21027986.4394   21027986.3954   21027989.0614
       665.9084
 -13444955.64248 -10280365.59146  22937739.5304   22937738.4524   22937741.6394
      -648.7624
  -6925487.15647  -5372494.48646  23486771.4404   23486771.6654   23486774.8354
      3552.6864
 -23081892.16049 -17976755.22348  21064190.2074   21064190.4764   21064192.2144
     -2023.2854
 -15565692.61048 -12085609.25447  22271642.6274   22271642.9274   22271644.7104
       219.4864
 10  1  2  1 19 30.0000000  0  9G28G12G22G09G27G18G26G15G17
  -5343679.95047  -4128244.02946  24580928.7714   24580927.9304   24580929.0834
     -3101.3824
 -18294860.97348 -14199860.65147  22326683.1994   22326683.1864   22326685.0734
      2873.0564
  -6764552.38047  -5235448.23546  24113470.0294   24113468.9154   24113469.8104
      1084.0464
 -27215442.18349 -21187489.50348  20195129.0594   20195128.9724   20195131.2314
      1404.5694
 -21793625.34749 -16942898.91748  21024205.8924   21024205.7724   21024208.5534
       659.1324
 -13425218.79047 -10264986.23146  22941494.9484   22941495.2004   22941497.4614
      -666.6714
  -7031953.68547  -5455455.40646  23466513.1084   23466513.1414   23466514.8984
      3545.7054
 -23020951.57549 -17929269.05748  21075786.6804   21075786.8644   21075789.0224
     -2038.8924
 -15571976.21348 -12090505.55347  22270446.6994   22270447.1274   22270448.8714
       199.9514
 10  1  2  1 20  0.0000000  0  9G28G12G22G09G27G18G26G15G17
  -5250597.15246  -4055711.99546  24598640.8264   24598639.8864   24598643.3484
     -3103.6874
 -18380890.98148 -14266897.01447  22310311.9384   22310312.1684   22310313.8394
      2861.7834
  -6796810.12147  -5260584.15546  24107332.9854   24107331.5264   24107330.8244
      1066.0634
 -27257394.27249 -21220179.44048  20187145.8354   20187145.7124   20187148.5794
      1391.8044
 -21813294.78949 -16958225.75448  21020463.0184   21020462.7114   21020465.2364
       651.7174
 -13404950.35848 -10249192.65746  22945352.5204   22945352.0814   22945353.4054
      -685.1964
  -7138207.18947  -5538250.32546  23446292.7154   23446292.7554   23446295.0304
      3537.5964
 -22959548.91149 -17881422.82648  21087471.2294   21087471.5394   21087473.3704
     -2055.0114
 -15577681.04248 -12094950.85747  22269361.3934   22269361.7244   22269363.3324
       179.8564
 10  1  2  1 20 30.0000000  0  9G28G12G22G09G27G18G26G15G17
  -5157467.82847  -3983143.71646  24616363.2424   24616362.9164   24616365.4134
     -3105.1854
 -18466615.01148 -14333694.95347  22293999.2804   22293999.7174   22294001.5704
      2852.2424
  -6828559.27547  -5285323.76946  24101289.2944   24101289.3534   24101289.2694
      1049.7174
 -27298992.45649 -21252593.60948  20179229.8634   20179229.8264   20179232.3784
      1380.5914
 -21832774.12649 -16973404.46448  21016756.1534   21016756.4484   21016758.5674
       645.9954
 -13384159.51347 -10232992.00046  22949308.6894   22949307.2994   22949310.7294
      -701.7214
  -7244253.38847  -5620883.72346  23426113.7084   23426114.0354   23426115.5324
      3531.5064
 -22897693.90549 -17833224.12648  21099241.9784   21099241.9664   21099244.0994
     -2069.5304
 -15582814.93048 -12098951.27847  22268384.0344   22268384.7774   22268386.0914
       161.4654
 10  1  2  1 21  0.0000000  0  9G28G12G22G09G27G18G26G15G17
  -5064287.62547  -3910535.78746  24634094.3644   24634095.2044   24634096.8734
     -3107.3604
 -18552025.60948 -14400248.66247  22277746.4694   22277746.6944   22277747.9664
      2841.2344
  -6859792.76147  -5309661.57146  24095346.0764   24095345.7954   24095345.3154
      1032.0474
 -27340229.84149 -21284726.63348  20171382.7684   20171382.5934   20171384.9024
      1368.0044
 -21852056.78649 -16988429.91548  21013086.8114   21013086.6564   21013089.2354
       638.9594
 -13362841.23348 -10216380.36346  22953365.7524   22953366.6964   22953366.1314
      -719.9104
  -7350083.60347  -5703348.81646  23405974.2304   23405974.5784   23405976.6884
      3523.5154
 -22835381.90149 -17784669.31748  21111099.4464   21111099.9174   21111101.6964
     -2085.1844
 -15587371.42848 -12102501.79047  22267517.1014   22267517.4294   22267519.5304
       141.7364
 10  1  2  1 21 30.0000000  0  9G28G12G22G09G27G18G26G15G17
  -4971060.20447  -3837891.05446  24651835.7314   24651834.6414   24651837.9584
     -3108.2074
 -18637123.92248 -14466559.03247  22261552.5474   22261552.5194   22261554.3334
      2831.4344
  -6890512.44447  -5333598.99146  24089501.7294   24089500.4004   24089499.7624
      1015.5424
 -27381107.52749 -21316579.37348  20163603.9444   20163603.7884   20163606.2954
      1356.6074
 -21871144.71549 -17003303.62848  21009454.7444   21009454.2824   21009457.0764
       633.0584
 -13340999.15348 -10199360.57646  22957522.8834   22957521.2454   22957525.0404
      -736.8304
  -7455697.31147  -5785645.19446  23385875.6424   23385875.2874   23385879.4674
      3516.8714
 -22772616.33849 -17735761.09048  21123043.2884   21123043.5874   21123045.3664
     -2099.5864
 -15591352.40948 -12105603.84447  22266759.3244   22266759.8614   22266761.5994
       123.0844
 10  1  2  1 22  0.0000000  0  9G28G12G22G09G27G18G26G15G17
  -4877788.07547  -3765211.48846  24669584.6194   24669586.0474   24669585.7804
     -3109.9154
 -18721909.40248 -14532625.63547  22245418.4934   22245418.7584   22245420.2584
      2820.8784
  -6920718.15547  -5357135.91846  24083753.7564   24083752.7114   24083751.4444
       997.9444
 -27421625.43949 -21348151.77148  20155893.7694   20155893.4464   20155896.1624
      1344.4124
 -21890038.19649 -17018025.82248  21005859.2144   21005859.0024   21005861.7224
       626.3624
 -13318635.75848 -10181934.55646  22961779.0594   22961777.8264   22961779.4144
      -754.2854
  -7561092.51647  -5867771.30746  23365820.0884   23365820.5804   23365821.6714
      3509.7494
 -22709399.39149 -17686501.13548  21135073.0634   21135073.3574   21135075.4374
     -2114.9014
 -15594757.95148 -12108257.50247  22266111.4634   22266111.4964   22266113.5934
       103.7964
 10  1  2  1 22 30.0000000  0 10G30G28G12G22G09G27G18G26G15G17
  -1149250.08017                  25247448.886
      3690.172
  -4784470.92647  -3692496.83746  24687342.4394   24687342.5834   24687344.4784
     -3111.5064
 -18806379.19648 -14598446.25047  22229344.6014   22229344.6404   22229346.3814
      2810.2144
  -6950407.37847  -5380270.39146  24078105.0324   24078102.4584   24078102.2794
       981.0464
 -27461780.89449 -21379441.73148  20148252.3734   20148252.0714   20148254.6164
      1332.2584
 -21908734.90249 -17032594.68048  21002301.3814   21002301.2014   21002303.9134
       619.7514
 -13295750.56248 -10164101.93646  22966132.9574   22966131.8834   22966133.2314
      -771.6694
  -7666264.77247  -5949723.70046  23345806.8284   23345806.7894   23345808.7284
      3502.0134
 -22645730.66149 -17636889.14048  21147188.9964   21147189.2504   21147190.9714
     -2129.9454
 -15597586.27448 -12110461.37447  22265573.1984   22265573.4584   22265575.2464
        84.5754
 10  1  2  1 23  0.0000000  0 10G30G28G12G22G09G27G18G26G15G17
  -1259925.280 7                  25226387.931
      3688.217
  -4691110.85247  -3619748.74546  24705108.0884   24705109.2934   24705108.0214
     -3112.4474
 -18890532.33848 -14664020.12347  22213330.3594   22213330.5234   22213332.1184
      2799.7134
  -6979580.04647  -5403002.32046  24072550.3694   24072550.9354   24072551.4184
       963.8194
 -27501572.89549 -21410448.48548  20140680.2984   20140680.1714   20140682.5354
      1320.3024
 -21927235.01549 -17047010.35648  20998780.8984   20998780.6254   20998783.5274
       613.3864
 -13272345.55748 -10145864.29146  22970586.3214   22970586.5204   22970587.4764
      -788.7284
  -7771211.97247  -6031500.73446  23325835.8984   23325837.0824   23325839.0364
      3494.4234
 -22581611.85949 -17586926.44148  21159390.4294   21159390.5814   21159392.7164
     -2144.7794
 -15599837.70248 -12112215.72047  22265145.0544   22265145.2104   22265146.6524
        65.4414
 10  1  2  1 23 30.0000000  0 10G30G28G12G22G09G27G18G26G15G17
  -1370534.11247  -1013143.16645  25205339.1314   25205338.0184   25205341.6134
      3686.2594
  -4597710.40147  -3546969.17546  24722881.9044   24722880.8244   24722885.8244
     -3113.8174
 -18974368.76748 -14729347.19847  22197377.0154   22197376.7954   22197378.6754
      2789.6914
  -7008236.10147  -5425331.75146  24067098.2874   24067096.5164   24067096.6914
       946.9584
 -27541001.45349 -21441172.03348  20133177.4034   20133177.1674   20133179.4934
      1308.7004
 -21945538.72949 -17061272.99148  20995297.8364   20995297.8234   20995300.5804
       607.2924
 -13248422.90848 -10127223.27046  22975139.7224   22975137.8124   22975139.2024
      -805.4234
  -7875931.93147  -6113100.67446  23305908.5934   23305907.9104   23305911.6654
      3487.2994
 -22517045.51249 -17536615.00748  21171676.9914   21171677.2354   21171679.2854
     -2159.2014
 -15601512.63448 -12113520.85447  22264826.0434   22264826.1734   22264828.5784
        46.6524
 10  1  2  1 24  0.0000000  0 10G30G28G12G22G09G27G18G26G15G17
  -1481075.11547  -1099279.04245  25184302.8934   25184302.1194   25184306.8374
      3683.5624
  -4504269.84347  -3474158.35146  24740662.9184   24740662.1634   24740664.6414
     -3115.3574
 -19057886.56948 -14794426.00047  22181484.2314   22181484.4414   22181485.9364
      2778.4994
  -7036373.99047  -5447257.35746  24061741.3974   24061742.5774   24061743.4394
       929.0414
 -27580065.44049 -21471611.50148  20125743.7564   20125743.7744   20125745.8624
      1295.9374
 -21963645.19249 -17075381.92448  20991852.2224   20991851.9454   20991854.8874
       600.1804
 -13223983.24048 -10108179.37646  22979790.6194   22979788.2184   22979790.4794
      -823.4034
  -7980421.56147  -6194521.14646  23286024.8244   23286024.8474   23286026.9554
      3478.9034
 -22452031.83449 -17485955.00248  21184048.4664   21184048.9224   21184050.6354
     -2174.6154
 -15602609.90048 -12114375.85347  22264617.5764   22264617.3234   22264619.1944
        26.8464
 10  1  2  1 24 30.0000000  0 10G30G28G12G22G09G27G18G26G15G17
  -1591545.57947  -1185359.94945  25163281.8324   25163283.6304   25163285.7494
      3680.9754
  -4410789.49447  -3401316.53646  24758452.2454   24758450.9824   24758454.0214
     -3117.0994
 -19141082.82848 -14859254.24147  22165652.3414   22165652.1134   22165653.8204
      2767.3824
  -7063992.16047  -5468778.00246  24056483.7854   24056486.9044   24056487.8664
       911.4694
 -27618761.90849 -21501764.58848  20118379.9604   20118379.5714   20118382.4894
      1283.2534
 -21981551.94649 -17089335.23848  20988444.6054   20988444.5674   20988447.4224
       593.1524
 -13199026.37748 -10088732.48346  22984538.7584   22984538.0834   22984539.4724
      -841.0494
  -8084676.32047  -6275758.61246  23266185.7944   23266185.8344   23266187.3594
      3470.8324
 -22386570.55949 -17434946.21848  21196505.4474   21196505.9654   21196507.8054
     -2189.9724
 -15603127.70948 -12114779.33047  22264518.7844   22264518.4714   22264520.9624
         7.2224
 10  1  2  1 25  0.0000000  0 10G30G28G12G22G09G27G18G26G15G17
  -1701945.87447  -1271386.11845  25142274.6004   25142276.4754   25142273.1534
      3678.7904
  -4317273.27547  -3328446.76446  24776247.8804   24776246.9514   24776248.9494
     -3117.6504
 -19223958.52148 -14923832.69147  22149881.7564   22149881.7284   22149883.1704
      2757.0184
  -7091091.77647  -5489894.58746  24051329.1094   24051331.0944   24051333.1414
       894.7384
 -27657091.95949 -21531632.16048  20111085.8594   20111085.8544   20111088.0404
      1271.4984
 -21999260.76649 -17103134.31948  20985074.9304   20985074.6874   20985077.3504
       586.9504
 -13173556.16447 -10068885.58246  22989385.4474   22989385.8304   22989386.3074
      -857.7204
  -8188695.64147  -6356812.61746  23246391.4034   23246391.5574   23246394.6814
      3463.3604
 -22320665.54649 -17383591.66348  21209046.9374   21209046.9314   21209049.0134
     -2204.2824
 -15603067.93748 -12114732.74847  22264529.8614   22264530.4054   22264532.7144
       -11.7954
 10  1  2  1 25 30.0000000  0 10G30G28G12G22G09G27G18G26G15G17
  -1812277.40847  -1357358.73946  25121278.5614   25121279.6594   25121281.1614
      3676.8164
  -4223724.66747  -3255551.76546  24794049.3384   24794049.1784   24794050.5254
     -3118.4154
 -19306514.74848 -14988162.21047  22134171.8774   22134172.2884   22134173.5164
      2746.5364
  -7117674.49847  -5510608.40146  24046274.3814   24046272.8724   24046272.0804
       877.8214
 -27695057.12149 -21561215.40048  20103861.1984   20103861.2334   20103863.6074
      1259.5014
 -22016773.66749 -17116780.73348  20981742.3444   20981741.9934   20981744.9914
       580.6444
 -13147576.21848 -10048641.48546  22994329.3054   22994329.0954   22994330.0904
      -874.3874
  -8292479.05347  -6437682.79746  23226641.6434   23226641.8654   23226644.4954
      3455.5534
 -22254320.60849 -17331894.30848  21221671.8904   21221672.1974   21221673.9594
     -2218.6864
 -15602432.84948 -12114237.86247  22264651.0844   22264651.0484   22264653.0124
       -30.6154
 10  1  2  1 26  0.0000000  0 10G30G28G12G22G09G27G18G26G15G17
  -1922534.40647  -1443273.23446  25100296.7094   25100298.8894   25100299.4884
      3673.8584
  -4130140.75147  -3182629.25646  24811857.4234   24811858.5704   24811858.6574
     -3120.0154
 -19388746.30848 -15052238.73947  22118523.4774   22118523.3394   22118525.2904
      2735.5284
  -7143735.36447  -5530915.56546  24041315.2794   24041313.3704   24041314.0914
       859.8504
 -27732651.96849 -21590510.08648  20096707.2694   20096707.1504   20096709.9044
      1246.9714
 -22034085.76049 -17130270.67448  20978447.9664   20978447.5884   20978450.6814
       573.6554
 -13121083.80348 -10027998.04246  22999371.5054   22999370.1214   22999373.6974
      -891.6544
  -8396019.45447  -6518363.62646  23206938.8854   23206938.3234   23206941.0514
      3447.2324
 -22187532.76449 -17279851.83248  21234381.0364   21234381.1894   21234383.2674
     -2233.6484
 -15601217.71948 -12113290.99447  22264882.1804   22264883.1014   22264884.0064
       -50.2064
 10  1  2  1 26 30.0000000  0 10G30G28G12G22G09G27G18G26G15G17
  -2032716.55347  -1529129.44046  25079329.5964   25079329.9084   25079333.4114
      3671.2214
  -4036524.34946  -3109681.43346  24829671.7154   24829671.0234   24829674.4214
     -3121.4064
 -19470653.19348 -15116062.27847  22102937.1694   22102937.1854   22102939.1634
      2724.5384
  -7169275.18947  -5550816.73146  24036455.5354   24036453.1264   24036453.1934
       842.3514
 -27769876.80149 -21619516.44948  20089623.7264   20089623.7814   20089626.0324
      1234.3944
 -22051197.60949 -17143604.58048  20975191.5034   20975191.2444   20975194.2514
       566.6794
 -13094081.54948 -10006957.35546  23004508.5704   23004509.2904   23004509.9744
      -908.8064
  -8499315.41147  -6598853.95746  23187282.2944   23187282.2464   23187284.8904
      3438.8444
 -22120304.45449 -17227466.13848  21247174.2864   21247174.5054   21247176.4294
     -2248.6904
 -15599423.52948 -12111892.91547  22265223.8314   22265224.0234   22265225.4644
       -69.6884
 10  1  2  1 27  0.0000000  0 10G30G28G12G22G09G27G18G26G15G17
  -2142821.64847  -1614925.56646  25058377.8634   25058379.3464   25058380.5774
      3669.3734
  -3942876.14846  -3036708.84346  24847492.8364   24847491.2664   24847495.6254
     -3121.9824
 -19552233.46048 -15179631.30447  22087412.7984   22087413.4024   22087414.6404
      2714.4224
  -7194292.27347  -5570310.56346  24031691.1634   24031692.4174   24031691.9004
       825.9944
 -27806729.69349 -21648232.98848  20082610.7454   20082610.7434   20082613.0464
      1222.7524
 -22068107.95549 -17156781.47148  20971973.7064   20971973.1804   20971976.1234
       560.8674
 -13066570.43648  -9985520.13346  23009744.6094   23009744.5474   23009745.7454
      -924.7274
  -8602363.18447  -6679150.93746  23167673.3894   23167674.2914   23167675.7444
      3431.4584
 -22052636.46549 -17174737.83448  21260051.1204   21260051.3024   21260053.3404
     -2262.3564
 -15597049.79748 -12110043.25247  22265675.3184   22265675.1994   22265676.9844
       -88.2254
 10  1  2  1 27 30.0000000  0 10G30G28G12G22G09G27G18G26G15G17
  -2252850.66647  -1700662.47146  25037440.1464   25037439.8624   25037443.4224
      3665.9344
  -3849199.87846  -2963714.38846  24865318.5374   24865319.4734   24865320.0814
     -3123.2794
 -19633488.04948 -15242946.56547  22071950.9204   22071951.1844   22071952.6064
      2702.8574
  -7218788.51847  -5589398.54446  24027030.5124   24027029.9944   24027031.1294
       807.7094
 -27843212.11649 -21676660.85148  20075668.5144   20075668.1574   20075670.7414
      1209.8654
 -22084818.61549 -17169802.76448  20968793.6104   20968793.3804   20968796.3514
       553.5884
 -13038554.08347  -9963689.22546  23015075.0874   23015076.1064   23015077.0694
      -942.4044
  -8705162.35147  -6759254.20246  23148110.0564   23148110.7534   23148112.8914
      3422.3694
 -21984532.72149 -17121669.98748  21273010.7014   21273011.2494   21273013.0644
     -2277.4364
 -15594098.05948 -12107743.18547  22266237.0664   22266237.5074   22266238.8754
      -108.0804
 10  1  2  1 28  0.0000000  0 10G30G28G12G22G09G27G18G26G15G17
  -2362797.74047  -1786335.46746  25016517.6594   25016518.3084   25016521.1464
      3663.0444
  -3755492.57846  -2890695.74345  24883150.6804   24883152.4544   24883152.7774
     -3124.6654
 -19714411.65848 -15306003.91347  22056551.5034   22056551.7544   22056553.2844
      2691.9314
  -7242758.89447  -5608076.76346  24022470.9904   24022469.9424   24022471.2084
       790.3094
 -27879318.63149 -21704795.80048  20068797.6484   20068797.4774   20068799.9744
      1197.2194
 -22101324.61849 -17182664.58248  20965652.7424   20965652.6024   20965655.4654
       546.7564
 -13010029.67748  -9941462.43146  23020504.4464   23020503.7674   23020506.1764
      -959.4654
  -8807705.82547  -6839158.20946  23128597.4324   23128597.3994   23128600.2794
      3413.7864
 -21915990.31849 -17068260.32548  21286053.9914   21286054.1534   21286056.3454
     -2292.2024
 -15590564.22848 -12104989.54547  22266909.5114   22266909.4234   22266911.7554
      -127.4764
 10  1  2  1 28 30.0000000  0 10G30G28G12G22G09G27G18G26G15G17
  -2472667.99547  -1871948.66446  24995609.3584   24995610.7774   24995614.3694
      3660.8854
  -3661761.97446  -2817658.94345  24900985.8364   24900984.1224   24900989.2454
     -3124.5404
 -19795009.34148 -15368807.29947  22041214.2834   22041214.5884   22041215.7244
      2680.9334
  -7266209.75847  -5626350.17146  24018010.1344   24018007.2294   24018008.5304
       772.8534
 -27915054.34549 -21732641.81348  20061997.2484   20061997.0544   20061999.5154
      1184.8774
 -22117631.81349 -17195371.48948  20962549.5844   20962549.1294   20962552.2434
       540.0824
 -12981005.26747  -9918846.00946  23026027.3234   23026026.3204   23026028.5054
      -975.9164
  -8909997.08447  -6918865.70646  23109132.5234   23109133.6834   23109135.6324
      3405.2824
 -21847016.90849 -17014514.81248  21299179.1964   21299179.7094   21299181.0994
     -2306.4724
 -15586454.31148 -12101787.00047  22267691.6434   22267692.1014   22267693.1814
      -146.6814
 10  1  2  1 29  0.0000000  0 10G30G28G12G22G09G27G18G26G15G17
  -2582457.60547  -1957498.93346  24974717.9894   24974717.6994   24974721.2154
      3659.1994
  -3568007.31446  -2744603.39245  24918827.6104   24918826.4104   24918828.5484
     -3125.4914
 -19875277.32348 -15431353.76647  22025939.6164   22025939.7664   22025941.1014
      2670.4954
  -7289137.78447  -5644216.17046  24013646.1334   24013644.4224   24013644.5304
       756.1004
 -27950415.98049 -21760196.32748  20055268.2844   20055268.1654   20055270.2864
      1172.8854
 -22133737.08949 -17207921.05448  20959484.8234   20959484.6014   20959487.4654
       533.9234
 -12951479.76048  -9895839.12746  23031645.9654   23031644.8994   23031646.5284
      -992.2044
  -9012030.82147  -6998372.55546  23089715.8894   23089715.4424   23089718.7334
      3397.2894
 -21777611.47349 -16960432.65548  21312386.5484   21312387.0454   21312388.6714
     -2320.2944
 -15581766.08048 -12098133.81747  22268583.4864   22268583.7444   22268585.7614
      -165.4494
 10  1  2  1 29 30.0000000  0 10G30G28G12G22G09G27G18G26G15G17
  -2692161.71147  -2042982.63746  24953841.8364   24953842.2354   24953845.6004
      3655.8584
  -3474226.24346  -2671527.26545  24936673.4024   24936671.1054   24936674.1194
     -3125.6874
 -19955211.35248 -15493640.00847  22010728.5974   22010728.9444   22010730.6624
      2659.4444
  -7311538.94347  -5661671.60746  24009381.5524   24009381.3634   24009382.7334
       738.2664
 -27985399.09149 -21787455.89348  20048611.2344   20048611.0214   20048613.4634
      1160.1764
 -22149636.38949 -17220310.11648  20956459.2354   20956458.8904   20956461.9174
       526.8904
 -12921451.52347  -9872440.50046  23037359.5974   23037359.2514   23037360.9024
     -1008.9384
  -9113800.41847  -7077673.54646  23070349.9244   23070350.3554   23070352.6034
      3388.2364
 -21707771.98249 -16906012.27448  21325676.5674   21325676.7214   21325678.8524
     -2334.9494
 -15576495.58748 -12094026.93347  22269586.7824   22269586.8614   22269588.3264
      -185.0784
 10  1  2  1 30  0.0000000  0 10G30G28G12G22G09G27G18G26G15G17
  -2801771.01547  -2128392.46446  24932982.5884   24932983.5934   24932985.8544
      3652.3374
  -3380412.28147  -2598425.47245  24954526.3344   24954525.8914   24954529.3834
     -3127.1704
 -20034802.49548 -15555659.06447  21995582.8514   21995583.4044   21995584.7484
      2647.8524
  -7333405.28447  -5678710.32246  24005221.1034   24005220.8364   24005220.3764
       720.2264
 -28019994.78049 -21814413.57248  20042027.8344   20042027.6374   20042030.1224
      1147.1884
 -22165321.42549 -17232532.22348  20953474.5234   20953474.3864   20953477.0364
       519.7774
 -12890914.48147  -9848645.41746  23043170.2334   23043169.7324   23043172.4394
     -1025.9604
  -9215295.61747  -7156760.71646  23051036.3704   23051035.9094   23051038.4444
      3379.1854
 -21637492.16549 -16851248.78448  21339050.3384   21339050.5984   21339052.5664
     -2349.5104
 -15570635.31848 -12089460.48047  22270701.7514   22270702.2724   22270703.7634
      -204.6284
 10  1  2  1 30 30.0000000  0 10G30G28G12G22G09G27G18G26G15G17
  -2911304.77547  -2213743.43846  24912140.5594   24912140.4064   24912143.7414
      3649.4984
  -3286587.73647  -2525315.42345  24972380.7204   24972379.4674   24972384.3624
     -3127.5784
 -20114070.30148 -15617426.17847  21980498.8664   21980499.0934   21980500.6204
      2636.8114
  -7354756.84347  -5695347.90446  24001156.8044   24001157.3494   24001156.5124
       703.2034
 -28054222.53149 -21841084.54548  20035514.4554   20035514.3554   20035516.6624
      1134.6504
 -22180812.09349 -17244602.87448  20950526.7174   20950526.4224   20950529.2904
       512.9274
 -12859890.59548  -9824470.96746  23049074.4514   23049075.7304   23049075.8314
     -1042.4134
  -9316534.09347  -7235647.86046  23031770.7554   23031771.3534   23031773.9244
      3370.1974
 -21566794.59349 -16796159.77348  21352503.4694   21352503.7464   21352506.0554
     -2363.7554
 -15564205.70248 -12084450.38547  22271925.4734   22271925.4654   22271927.4044
      -223.9884
 10  1  2  1 31  0.0000000  0 10G30G28G12G22G09G27G18G26G15G17
  -3020751.88947  -2299026.86146  24891312.5964   24891314.3104   24891315.7334
      3646.4544
  -3192743.90947  -2452190.37145  24990237.9164   24990238.1204   24990241.3794
     -3128.5304
 -20193003.70148 -15678932.71347  21965478.6664   21965478.3244   21965480.0714
      2625.6394
  -7375583.03947  -5711576.10746  23997193.0934   23997193.4844   23997194.2214
       685.6164
 -28088071.44049 -21867460.31648  20029073.3104   20029073.1504   20029075.6644
      1122.0074
 -22196098.15849 -17256514.09148  20947617.9834   20947617.7254   20947620.4164
       506.1624
 -12828371.75648  -9799910.84646  23055071.6954   23055072.4104   23055073.4444
     -1058.7404
  -9417503.23047  -7314325.13946  23012556.9344   23012556.8484   23012559.6244
      3361.2474
 -21495670.46449 -16740738.37348  21366038.1104   21366038.5844   21366040.2824
     -2378.0704
 -15557196.93448 -12078989.00247  22273259.0184   22273259.2524   22273260.9104
      -243.2924
 10  1  2  1 31 30.0000000  0 10G30G28G12G22G09G27G18G26G15G17
  -3130113.43146  -2384243.60646  24870501.9444   24870500.6114   24870504.3244
      3644.1614
  -3098885.02547  -2379053.55845  25008099.2914   25008099.5334   25008102.7204
     -3128.5714
 -20271604.37748 -15740179.97947  21950521.1274   21950521.1634   21950522.9814
      2614.3854
  -7395886.47847  -5727396.99546  23993330.8624   23993330.6544   23993328.6774
       668.1444
 -28121543.75049 -21893542.63648  20022703.6754   20022703.3554   20022705.7504
      1109.7864
 -22211181.63049 -17268267.45048  20944747.6454   20944747.4524   20944750.1004
       499.7924
 -12796362.38647  -9774968.47646  23061162.1094   23061162.6944   23061164.5014
     -1074.8074
  -9518202.78347  -7392792.31946  22993394.4174   22993394.6554   22993397.2734
      3352.4914
 -21424124.04349 -16684987.92048  21379652.9624   21379653.0374   21379655.0244
     -2391.3164
 -15549611.88348 -12073078.56147  22274702.4704   22274702.5454   22274704.2054
      -262.1614
 10  1  2  1 32  0.0000000  0 10G30G28G12G22G09G27G18G26G15G17
  -3239383.02346  -2469388.73546  24849708.9264   24849707.5284   24849710.8054
      3640.3504
  -3005007.39847  -2305902.16845  25025963.8894   25025963.1574   25025965.4104
     -3129.4164
 -20349866.34348 -15801163.31747  21935628.2984   21935628.7044   21935630.3394
      2603.1214
  -7415661.55047  -5742806.15546  23989566.5924   23989567.3774   23989566.8114
       650.5664
 -28154632.90649 -21919326.39248  20016407.1134   20016407.1504   20016409.1864
      1096.6504
 -22226056.73549 -17279858.44048  20941916.8934   20941916.7654   20941919.6584
       492.4394
 -12763859.13448  -9749641.27046  23067348.7664   23067348.2684   23067350.0834
     -1091.8414
  -9618624.54347  -7471043.04446  22974285.2964   22974285.1174   22974287.5744
      3342.7504
 -21352151.79849 -16628905.65348  21393348.9084   21393349.2074   21393351.0014
     -2406.1504
 -15541445.21848 -12066714.91647  22276256.3164   22276256.6334   22276258.2944
      -281.9284
 10  1  2  1 32 30.0000000  0 10G30G28G12G22G09G27G18G26G15G17
  -3348563.64646  -2554464.52145  24828931.4714   24828932.9854   24828934.9194
      3637.1244
  -2911116.23147  -2232740.17345  25043830.8194   25043828.1614   25043833.8724
     -3130.3044
 -20427792.26248 -15861884.80547  21920799.6064   21920799.5994   21920801.0514
      2591.5034
  -7434911.85147  -5757806.37246  23985901.9424   23985903.8864   23985905.1424
       633.0064
 -28187342.16949 -21944814.12348  20010182.5034   20010182.4754   20010184.9504
      1083.6814
 -22240727.27949 -17291290.02848  20939125.1324   20939125.3304   20939127.8764
       485.3094
 -12730867.87348  -9723933.79446  23073627.0924   23073626.5984   23073628.5684
     -1108.1584
  -9718770.14047  -7549078.57446  22955228.0304   22955228.3354   22955229.8604
      3333.3614
 -21279759.51849 -16572496.08848  21407124.6824   21407124.8244   21407126.8614
     -2420.3664
 -15532701.42048 -12059901.55347  22277920.1984   22277920.0164   22277922.5774
      -301.3434
 10  1  2  1 33  0.0000000  0 10G30G28G12G22G09G27G18G26G15G17
  -3457648.67346  -2639465.79945  24808172.8164   24808174.5194   24808176.4344
      3633.3774
  -2817207.97047  -2159564.87145  25061700.8994   25061699.9654   25061697.9714
     -3131.0164
 -20505376.24848 -15922339.85247  21906035.7914   21906035.9954   21906037.4394
      2579.9224
  -7453632.41147  -5772393.83246  23982341.9134   23982341.7074   23982341.8214
       614.4824
 -28219665.75349 -21970001.33248  20004031.7264   20004031.4584   20004033.8344
      1070.3554
 -22255187.63949 -17302557.84448  20936373.6184   20936373.4974   20936376.0034
       477.8684
 -12697385.50547  -9697843.65846  23079997.6274   23079996.6714   23079999.1574
     -1124.7454
  -9818631.56147  -7626892.68646  22936225.2714   22936224.8754   22936227.4634
      3323.2324
 -21206944.26849 -16515756.93648  21420980.9294   21420981.4264   21420983.0164
     -2434.9084
 -15523375.21448 -12052634.35747  22279694.9164   22279694.9584   22279697.4134
      -321.1674
 10  1  2  1 33 30.0000000  0 10G30G28G12G22G09G27G18G26G15G17
  -3566643.81846  -2724397.06146  24787432.6224   24787432.4974   24787435.6234
      3631.6234
  -2723290.88347  -2086382.70245  25079572.7294   25079572.0354   25079573.1474
     -3130.9014
 -20582624.35748 -15982533.17047  21891335.7474   21891335.8824   21891337.3664
      2569.0264
  -7471829.81947  -5786573.62246  23978880.2514   23978879.6744   23978879.0904
       597.4444
 -28251609.49949 -21994892.56348  19997952.9644   19997952.9644   19997955.2774
      1058.0994
 -22269444.02449 -17313666.71748  20933660.7664   20933660.3834   20933663.3114
       471.5204
 -12663420.72248  -9671377.59746  23086461.7164   23086461.2524   23086463.6094
     -1140.4204
  -9918213.21447  -7704488.76146  22917275.1684   22917274.0324   22917277.4174
      3314.6094
 -21133714.03549 -16458694.42248  21434915.9554   21434916.2394   21434918.3054
     -2448.2174
 -15513474.48948 -12044919.48847  22281579.2654   22281579.6364   22281580.9814
      -339.8984
 10  1  2  1 34  0.0000000  0 10G30G28G12G22G09G27G18G26G15G17
  -3675542.04946  -2809252.78746  24766709.7594   24766710.9584   24766714.3134
      3627.8354
  -2629360.98947  -2013190.55546  25097446.5284   25097446.9174   25097449.2264
     -3131.5484
 -20659529.78248 -16042459.46847  21876701.3504   21876701.5734   21876702.9314
      2557.5854
  -7489498.50547  -5800341.44846  23975516.3134   23975517.1624   23975515.6114
       579.7224
 -28283166.81149 -22019482.67448  19991947.7194   19991947.7264   19991950.2314
      1045.2494
 -22283490.25849 -17324611.83348  20930987.6594   20930987.5144   20930990.5874
       464.5474
 -12628969.61147  -9644532.60146  23093017.0204   23093016.9264   23093019.0944
     -1156.6164
 -10017506.27547  -7781859.96346  22898380.4934   22898381.1374   22898382.9304
      3304.7474
 -21060064.75549 -16401305.37648  21448931.2614   21448931.2614   21448933.4744
     -2462.1454
 -15502993.23848 -12036752.26247  22283573.5384   22283573.3204   22283575.6684
      -359.1094
 10  1  2  1 34 30.0000000  0 10G30G28G12G22G09G27G18G26G15G17
  -3784345.82846  -2894034.93446  24746004.7854   24746005.9554   24746007.4944
      3624.0434
  -2535423.07647  -1939992.21646  25115322.9364   25115323.2734   25115323.7264
     -3131.8864
 -20736095.16148 -16102120.79648  21862131.4404   21862131.6664   21862133.0724
      2545.9864
  -7506641.26547  -5813699.45746  23972254.7904   23972254.4244   23972254.7524
       562.0154
 -28314340.40049 -22043773.78448  19986015.7234   19986015.4604   19986017.9694
      1032.2264
 -22297329.51249 -17335395.67148  20928354.2354   20928354.2164   20928356.8524
       457.3824
 -12594037.46847  -9617312.74646  23099664.4394   23099664.6754   23099665.8714
     -1173.0194
 -10116511.62747  -7859006.99446  22879539.9314   22879539.7984   22879542.0454
      3294.7994
 -20986002.06449 -16343594.19348  21463024.5994   21463024.7024   21463027.3044
     -2476.2294
 -15491935.37748 -12028135.74147  22285678.0834   22285677.9314   22285679.9824
      -378.6604
 10  1  2  1 35  0.0000000  0 10G30G28G12G22G09G27G18G26G15G17
  -3893051.60046  -2978740.72146  24725319.4694   24725319.4264   24725321.9444
      3622.1724
  -2441476.39747  -1866787.04146  25133200.0514   25133199.2764   25133200.5124
     -3131.5114
 -20812317.63548 -16161514.92648  21847626.7884   21847626.7874   21847628.4874
      2535.1474
  -7523256.01947  -5826646.01346  23969091.9334   23969093.6204   23969093.0834
       545.0524
 -28345127.01149 -22067763.34648  19980157.2554   19980156.9894   19980159.4184
      1019.9114
 -22310959.00849 -17346016.06048  20925760.6274   20925760.4554   20925763.3554
       450.9024
 -12558624.13247  -9589717.95546  23106403.6824   23106402.1514   23106404.8824
     -1188.3854
 -10215224.31547  -7935925.96246  22860756.2754   22860756.2714   22860757.8944
      3285.8614
 -20911525.48349 -16285560.49648  21477197.2724   21477197.0764   21477199.6804
     -2489.3604
 -15480298.97548 -12019068.40847  22287892.2524   22287891.9074   22287894.0734
      -397.4474
 10  1  2  1 35 30.0000000  0 10G30G28G12G22G09G27G18G26G15G17
  -4001657.75946  -3063368.84646  24704652.2194   24704653.2944   24704655.8744
      3618.4334
  -2347522.03446  -1793575.85646  25151078.7314   25151077.5444   25151081.2684
     -3132.0894
 -20888195.78148 -16220640.74248  21833187.6384   21833187.7804   21833189.3574
      2523.5854
  -7539342.36647  -5839180.84446  23966032.3074   23966031.1034   23966031.2444
       527.2594
 -28375525.62049 -22091450.57548  19974372.6494   19974372.3934   19974374.8674
      1006.8934
 -22324378.20149 -17356472.57648  20923207.1544   20923206.9884   20923209.5014
       443.8444
 -12522731.51747  -9561749.68146  23113234.0524   23113232.7444   23113234.8534
     -1204.0804
 -10313641.12947  -8012614.37447  22842027.7664   22842028.4574   22842029.2224
      3275.5884
 -20836636.53249 -16227205.47348  21491448.0894   21491448.3384   21491450.3714
     -2503.1474
 -15468084.19448 -12009550.38247  22290216.4124   22290217.0214   22290218.4784
      -416.7434
 10  1  2  1 36  0.0000000  0 10G30G28G12G22G09G27G18G26G15G17
  -4110165.54547  -3147920.34646  24684004.8824   24684003.3844   24684005.9734
      3615.2494
  -2253563.48746  -1720361.43346  25168958.5574   25168958.5914   25168960.9404
     -3131.6354
 -20963730.77949 -16279499.17348  21818813.9224   21818814.0634   21818815.6904
      2512.0914
  -7554902.66147  -5851305.75346  23963071.1544   23963071.4364   23963069.6514
       509.9464
 -28405537.72949 -22114836.63148  19968661.4474   19968661.2054   19968663.7284
       993.9594
 -22337588.74549 -17366766.50948  20920693.1864   20920692.8924   20920695.7424
       436.8814
 -12486363.72547  -9533411.15146  23120154.1134   23120153.6274   23120156.4234
     -1220.1484
 -10411761.78347  -8089072.01646  22823356.4414   22823356.5114   22823358.2904
      3265.9424
 -20761338.93149 -16168532.02248  21505776.7304   21505777.2144   21505779.3534
     -2516.7434
 -15455293.62748 -11999583.68847  22292650.6084   22292650.4674   22292652.1674
      -435.9124
 10  1  2  1 36 30.0000000  0 10G30G28G12G22G09G27G18G26G15G17
  -4218567.91247  -3232389.67046  24663376.4264   24663376.0534   24663376.8294
      3611.4294
  -2159596.72346  -1647140.60546  25186840.5244   25186841.5574   25186840.9664
     -3132.9174
 -21038916.37449 -16338085.34348  21804506.4404   21804506.5834   21804508.2274
      2499.9214
  -7569931.27947  -5863016.38046  23960210.2594   23960210.1384   23960210.8514
       491.3114
 -28435156.59349 -22137916.26848  19963025.1084   19963025.0444   19963027.5944
       980.2164
 -22350584.39649 -17376892.99448  20918220.1874   20918220.0174   20918222.6024
       429.0324
 -12449517.09847  -9504699.49046  23127165.4424   23127164.0704   23127167.5104
     -1236.7044
 -10509577.96347  -8165292.39946  22804742.0984   22804742.0414   22804744.9884
      3254.9134
 -20685628.76949 -16109537.09348  21520184.1174   21520184.4204   21520186.2654
     -2531.0174
 -15441921.89348 -11989164.14147  22295194.9774   22295195.3274   22295196.8404
      -455.9114
 10  1  2  1 37  0.0000000  0 10G30G28G12G22G09G27G18G26G15G17
  -4326874.85847  -3316784.67446  24642765.1514   24642766.6584   24642769.5964
      3610.2304
  -2065634.67946  -1573923.44645  25204720.9634   25204720.0254   25204721.1634
     -3129.6024
 -21113763.06249 -16396407.43248  21790263.4904   21790263.4944   21790265.2994
      2490.8504
  -7584439.12747  -5874321.20746  23957450.0294   23957449.1124   23957448.9744
       476.5164
 -28464392.79549 -22160697.72748  19957461.6084   19957461.3504   19957463.8364
       969.7164
 -22363375.97149 -17386860.45748  20915786.0114   20915785.8894   20915788.6834
       424.7104
 -12412204.91148  -9475625.08046  23134267.5214   23134265.8374   23134266.8404
     -1249.8604
 -10607097.94147  -8241281.98146  22786184.3504   22786184.9304   22786187.8584
      3247.3654
 -20609519.49349 -16050231.16648  21534667.0734   21534667.3744   21534669.4684
     -2541.9884
 -15427980.90148 -11978301.02147  22297847.8284   22297847.7214   22297849.7774
      -472.5894
 10  1  2  1 37 30.0000000  0 10G30G28G12G22G09G27G18G26G15G17
  -4435075.07047  -3401096.53646  24622176.5924   24622175.6154   24622179.1094
      3604.7914
  -1971668.47656  -1500703.06055  25222601.3044   25222600.9804   25222603.7504
     -3132.9434
 -21188260.13749 -16454457.09348  21776087.2694   21776087.6754   21776088.9404
      2477.1634
  -7598416.01147  -5885212.29646  23954789.2294   23954790.6424   23954791.3434
       456.5574
 -28493235.48149 -22183172.54948  19951972.9464   19951972.7864   19951975.5074
       954.6234
 -22375952.87549 -17396660.64548  20913392.7294   20913392.5474   20913395.5834
       415.4914
 -12374419.11247  -9446181.59946  23141456.7484   23141455.9414   23141457.2454
     -1267.5984
 -10704309.03547  -8317030.87846  22767685.5724   22767686.7414   22767688.4114
      3234.9984
 -20533002.71049 -15990607.69948  21549227.8084   21549228.0104   21549230.0654
     -2557.5684
 -15413460.83748 -11966986.67147  22300611.0264   22300610.9624   22300613.3494
      -493.8684
 10  1  2  1 38  0.0000000  0  9G30G12G22G09G27G18G26G15G17
  -4543167.76847  -3485324.59746  24601606.3544   24601606.9464   24601608.9044
      3600.9294
 -21262406.96649 -16512233.83948  21761977.7734   21761977.9864   21761979.6234
      2465.5234
  -7611862.65347  -5895690.21546  23952233.1504   23952232.0814   23952231.2774
       439.0774
 -28521683.99449 -22205340.22548  19946559.4054   19946559.2024   19946561.7324
       941.5824
 -22388315.08649 -17406293.53548  20911040.2444   20911040.0424   20911042.7684
       408.4344
 -12336162.27247  -9416371.08146  23148736.0994   23148735.6144   23148738.0724
     -1283.2474
 -10801208.87047  -8392537.22646  22749245.8874   22749246.1634   22749248.7744
      3224.6574
 -20456080.83249 -15930668.57448  21563865.6644   21563865.9394   21563867.6004
     -2570.8694
 -15398362.65248 -11955221.84247  22303484.3454   22303484.2194   22303485.8804
      -513.1124
 10  1  2  1 38 30.0000000  0  9G30G12G22G09G27G18G26G15G17
  -4651152.53747  -3569468.54446  24581057.5194   24581059.3384   24581059.9724
      3597.8054
 -21336203.28849 -16569737.46348  21747934.6274   21747934.9194   21747936.4564
      2454.3444
  -7624780.33347  -5905755.96546  23949775.7644   23949772.8874   23949772.8204
       422.2334
 -28549738.86449 -22227201.16648  19941220.8564   19941220.7514   19941223.2644
       928.8974
 -22400462.88949 -17415759.35948  20908728.5444   20908728.5164   20908731.1274
       401.5934
 -12297437.64947  -9386196.06146  23156105.1194   23156103.9804   23156106.7014
     -1298.2664
 -10897795.58447  -8467799.58947  22730866.5754   22730867.0664   22730869.0734
      3214.5884
 -20378756.45149 -15870415.81148  21578579.7644   21578580.0254   21578581.8404
     -2583.8754
 -15382687.85148 -11943007.70347  22306466.9324   22306466.4734   22306468.6614
      -531.8464
 10  1  2  1 39  0.0000000  0  9G30G12G22G09G27G18G26G15G17
  -4759029.78447  -3653528.72746  24560528.7354   24560528.2164   24560533.0454
      3593.9404
 -21409649.83149 -16626968.53548  21733958.1614   21733958.6194   21733959.9494
      2442.2934
  -7637170.24747  -5915410.44146  23947417.2784   23947415.8024   23947415.4534
       403.7144
 -28577400.30549 -22248755.54148  19935957.0504   19935957.0054   19935959.5294
       915.4074
 -22412397.35649 -17425058.94448  20906457.4904   20906457.3814   20906460.0024
       394.3184
 -12258248.25147  -9355658.86646  23163563.7774   23163562.2454   23163563.7774
     -1314.1324
 -10994067.61047  -8542816.73747  22712546.7114   22712547.1834   22712549.4214
      3203.6994
 -20301032.96649 -15809852.05548  21593370.1784   21593370.4724   21593372.2944
     -2597.5724
 -15366438.29148 -11930345.70147  22309559.2224   22309559.0124   22309560.8284
      -551.2894
 10  1  2  1 39 30.0000000  0  9G30G12G22G09G27G18G26G15G17
  -4866798.32847  -3737504.20146  24540021.8414   24540020.5254   24540024.0184
      3590.2604
 -21482746.33349 -16683926.84648  21720048.5404   21720048.7044   21720050.0554
      2430.6964
  -7649032.34847  -5924653.63046  23945161.6014   23945158.6234   23945157.4364
       386.4084
 -28604667.36649 -22270002.60648  19930768.3664   19930768.1834   19930770.5624
       902.3894
 -22424117.75849 -17434191.72648  20904227.3784   20904227.2024   20904229.8074
       387.1434
 -12218596.24447  -9324761.19346  23171109.0834   23171107.8164   23171110.7714
     -1329.4294
 -11090022.37647  -8617586.66647  22694287.2284   22694287.2534   22694290.0724
      3193.1184
 -20222911.86349 -15748978.47048  21608236.0174   21608236.4174   21608238.3204
     -2610.4584
 -15349614.47648 -11917236.22347  22312760.5774   22312760.2804   22312762.0594
      -570.2704
 10  1  2  1 40  0.0000000  0  9G30G12G22G09G27G18G26G15G17
  -4974453.26647  -3821391.15546  24519535.6564   24519537.5494   24519536.9264
      3586.8444
 -21555487.93749 -16740608.61048  21706205.9754   21706206.2244   21706208.0504
      2418.9494
  -7660363.18748  -5933482.91546  23943007.2614   23943002.4144   23943003.2564
       369.0174
 -28631535.90149 -22290939.13348  19925655.4564   19925655.3414   19925657.8094
       889.2274
 -22435620.21749 -17443154.68048  20902038.3854   20902038.1274   20902041.0284
       379.9564
 -12178480.47547  -9293502.16846  23178742.3464   23178742.1774   23178744.0624
     -1344.8204
 -11185653.51647  -8692104.43247  22676089.4364   22676089.2964   22676091.4644
      3182.5984
 -20144391.88449 -15687794.07348  21623177.8414   21623177.8154   21623180.3054
     -2623.7814
 -15332213.52348 -11903677.02847  22316071.6864   22316072.2754   22316073.5724
      -589.5944
 10  1  2  1 40 30.0000000  0  9G30G12G22G09G27G18G26G15G17
  -5081999.06047  -3905193.07246  24499070.6464   24499071.8664   24499073.8664
      3582.7704
 -21627879.63149 -16797017.71248  21692430.6464   21692430.8254   21692432.2154
      2406.7134
  -7671168.36647  -5941902.53446  23940948.3534   23940946.0254   23940946.1514
       351.0954
 -28658010.61849 -22311568.78448  19920617.6454   19920617.2184   19920619.8814
       875.4604
 -22446909.84749 -17451951.79148  20899890.1444   20899889.5874   20899892.5664
       372.3434
 -12137908.45147  -9261887.61046  23186462.8304   23186462.9164   23186464.9294
     -1360.5244
 -11280964.02447  -8766372.34547  22657951.9124   22657951.5864   22657955.6924
      3171.1694
 -20065480.34949 -15626304.56848  21638194.3834   21638194.6184   21638196.4654
     -2637.2854
 -15314241.63048 -11889672.94447  22319491.8384   22319491.9354   22319493.3994
      -608.9874
 10  1  2  1 41  0.0000000  0  9G30G12G22G09G27G18G26G15G17
  -5189432.03847  -3988907.10546  24478626.0174   24478625.9794   24478629.3214
      3579.1544
 -21699917.93749 -16853151.45448  21678721.9764   21678722.0794   21678724.0974
      2394.8384
  -7681445.71647  -5949910.87646  23938994.4224   23938991.1524   23938990.2164
       333.4774
 -28684087.97249 -22331888.80348  19915655.0954   19915654.7994   19915657.1744
       862.2224
 -22457983.30649 -17460580.46248  20897782.8044   20897782.4784   20897785.3684
       365.0414
 -12096879.78347  -9229917.23846  23194270.5534   23194270.0114   23194272.3624
     -1375.8944
 -11375948.46648  -8840386.20047  22639877.6584   22639877.2544   22639879.3434
      3160.3624
 -19986176.52249 -15564509.38248  21653285.2204   21653285.5464   21653287.6504
     -2650.3684
 -15295696.59548 -11875222.25647  22323020.8084   22323021.1114   22323022.5694
      -628.0854
 10  1  2  1 41 30.0000000  0  9G30G12G22G09G27G18G26G15G17
  -5296747.46347  -4072529.53046  24458205.5524   24458206.4464   24458206.8594
      3574.8094
 -21771599.03549 -16909006.85148  21665081.4204   21665081.8184   21665083.2404
      2383.0404
  -7691191.98847  -5957505.37746  23937134.8714   23937135.1804   23937136.3124
       315.8324
 -28709764.04249 -22351896.13648  19910769.1294   19910768.9084   19910771.5414
       848.7534
 -22468836.96449 -17469037.85448  20895717.5364   20895717.0854   20895719.9934
       357.6034
 -12055393.61447  -9197590.36646  23202165.4324   23202164.1694   23202167.0174
     -1390.9614
 -11470600.68348  -8914141.16047  22621865.4614   22621866.1914   22621868.3574
      3149.1704
 -19906479.58449 -15502407.87348  21668451.2024   21668451.3594   21668453.5454
     -2663.5014
 -15276575.84248 -11860322.95347  22326659.5714   22326659.1524   22326661.2254
      -647.4384
 10  1  2  1 42  0.0000000  0 10G30G28G12G22G09G27G18G26G15G17
  -5403946.20647  -4156061.02046  24437806.7684   24437805.5224   24437809.5524
      3571.4254
  -1020791.829 7                  25383511.241
     -3131.080
 -21842923.78849 -16964584.57648  21651508.7464   21651509.2164   21651510.5664
      2371.3644
  -7700409.09147  -5964687.52546  23935380.5414   23935379.9114   23935382.2214
       298.4194
 -28735039.72549 -22371591.47948  19905959.2924   19905959.1794   19905961.5214
       835.6804
 -22479472.16049 -17477325.02048  20893693.5294   20893693.4324   20893696.1674
       350.6944
 -12013453.99347  -9164910.14146  23210146.8094   23210144.0914   23210145.9774
     -1405.5784
 -11564919.53748  -8987636.37047  22603917.3014   22603917.3764   22603919.7754
      3138.3114
 -19826392.57149 -15440002.41148  21683691.3744   21683691.4404   21683693.6404
     -2676.1694
 -15256882.04148 -11844977.12347  22330406.8784   22330406.5764   22330408.7514
      -666.1154
 10  1  2  1 42 30.0000000  0 10G30G28G12G22G09G27G18G26G15G17
  -5511028.62547  -4239501.86746  24417428.5274   24417429.4224   24417430.2994
      3567.6974
   -926874.90346   -780952.58846  25401382.5024   25401382.2474   25401386.8984
     -3130.1504
 -21913893.18249 -17019885.39848  21638003.8754   21638003.6574   21638005.6284
      2359.8134
  -7709099.28847  -5971459.15946  23933730.2084   23933728.6264   23933728.8504
       281.2534
 -28759915.80449 -22390975.43848  19901225.4974   19901225.2934   19901227.7554
       822.7244
 -22489889.91349 -17485442.74348  20891711.2144   20891710.8194   20891713.8234
       343.8214
 -11971064.43347  -9131879.32946  23218212.6414   23218212.3994   23218214.8824
     -1420.3094
 -11658904.28248  -9060871.22747  22586032.0814   22586032.4954   22586035.1064
      3127.3334
 -19745919.32549 -15377295.99048  21699004.7704   21699004.9184   21699007.0764
     -2688.7334
 -15236617.61448 -11829186.65247  22334263.2444   22334263.3004   22334264.4154
      -684.6194
 10  1  2  1 43  0.0000000  0 10G30G28G12G22G09G27G18G26G15G17
  -5617992.22647  -4322850.13046  24397073.6774   24397074.1784   24397077.8724
      3562.7574
   -832970.18347   -707780.12745  25419251.9844   25419252.0284   25419253.2064
     -3130.9224
 -21984505.45249 -17074907.93748  21624566.8674   21624566.9204   21624568.3894
      2346.9694
  -7717261.83847  -5977819.59246  23932172.0954   23932174.6084   23932176.0694
       262.4054
 -28784390.23149 -22410046.42348  19896568.1624   19896567.9094   19896570.5204
       808.3814
 -22500088.46049 -17493389.65848  20889770.3644   20889770.2464   20889773.0214
       335.6054
 -11928226.06847  -9098498.80046  23226364.5964   23226363.1074   23226365.5504
     -1436.0164
 -11752550.79848  -9133842.54747  22568212.1954   22568212.7314   22568216.2544
      3115.1344
 -19665060.79449 -15314289.34348  21714391.8054   21714391.8554   21714394.0124
     -2702.4834
 -15215782.33848 -11812951.35347  22338228.0104   22338228.5854   22338229.7064
      -704.5674
 10  1  2  1 43 30.0000000  0 10G30G28G12G22G09G27G18G26G15G17
  -5724834.11247  -4406103.51546  24376742.9714   24376742.1694   24376745.6214
      3558.9434
   -739076.54147   -634616.27045  25437120.5704   25437118.1354   25437122.3344
     -3129.9784
 -22054757.96149 -17129650.14848  21611198.2784   21611198.3264   21611199.9884
      2335.1884
  -7724894.42247  -5983767.06146  23930723.8364   23930722.1484   23930722.4704
       245.0314
 -28808460.64349 -22428802.59048  19891987.7004   19891987.6014   19891990.0694
       795.1484
 -22510065.32049 -17501163.83348  20887871.8634   20887871.7424   20887874.4374
       328.4054
 -11884939.38647  -9064768.92246  23234601.3894   23234599.8464   23234602.5644
     -1450.5384
 -11845854.29648  -9206546.56947  22550456.7234   22550458.1874   22550460.2504
      3103.7084
 -19583817.03048 -15250982.51748  21729851.7204   21729852.2064   21729854.4064
     -2715.0914
 -15194374.19548 -11796269.66947  22342301.6224   22342301.8824   22342303.0564
      -723.5994
 10  1  2  1 44  0.0000000  0 10G30G28G12G22G09G27G18G26G15G17
  -5831559.93747  -4489266.49246  24356433.3154   24356432.9534   24356436.7144
      3555.2174
   -645202.43047   -561467.63945  25454983.3704   25454985.4054   25454984.4474
     -3128.8534
 -22124656.73849 -17184116.72148  21597896.7634   21597896.9444   21597898.6654
      2323.8834
  -7732004.23747  -5989307.22046  23929369.9364   23929370.6784   23929369.2834
       227.9694
 -28832133.14249 -22447248.69148  19887483.0114   19887482.6464   19887485.3874
       782.1544
 -22519827.05449 -17508770.37648  20886014.3204   20886014.2464   20886017.2914
       321.5124
 -11841213.56247  -9030696.86046  23242922.4774   23242921.3254   23242922.8774
     -1465.0884
 -11938819.11948  -9278986.69047  22532766.5784   22532767.2994   22532767.5074
      3092.9024
 -19502196.64949 -15187382.22348  21745383.7694   21745383.8684   21745385.9834
     -2727.2184
 -15172401.04748 -11779147.71847  22346483.0784   22346483.7034   22346484.8094
      -741.9434
 10  1  2  1 44 30.0000000  0 10G30G28G12G22G09G27G18G26G15G17
  -5938159.64947  -4572331.20946  24336147.3884   24336148.4014   24336151.1504
      3551.1504
   -551340.61447   -488328.50845  25472845.4754   25472844.7894   25472845.6174
     -3128.8954
 -22194192.46749 -17238300.39948  21584664.6354   21584664.6634   21584666.2414
      2311.4824
  -7738583.09847  -5994433.61446  23928117.3174   23928116.2004   23928118.0234
       210.1284
 -28855397.93049 -22465377.09248  19883055.7604   19883055.6064   19883058.0564
       768.4984
 -22529364.25749 -17516201.96048  20884199.6084   20884199.2264   20884201.9494
       314.0604
 -11797042.16247  -8996277.59946  23251327.5534   23251328.2284   23251329.6254
     -1479.9734
 -12031433.72648  -9351153.92147  22515142.5924   22515142.9484   22515145.4644
      3081.1374
 -19420193.06949 -15123483.33448  21760988.4974   21760988.4804   21760990.5814
     -2739.8564
 -15149854.97248 -11761579.33947  22350773.4624   22350773.5354   22350775.4784
      -761.1614
 10  1  2  1 45  0.0000000  0 11G30G14G28G12G22G09G27G18G26G15G17
  -6044637.23247  -4655300.74646  24315886.1374   24315886.0514   24315889.6934
      3546.4904
  -1530708.45746  -1137283.01145  25566065.1834   25566064.9434   25566064.8754
      3606.7964
   -457497.07447   -415203.71245  25490702.6774   25490702.0584   25490704.5064
     -3128.7144
 -22263369.23349 -17292204.36548  21571500.6874   21571500.8334   21571502.5834
      2299.2064
  -7744636.32947  -5999150.43746  23926966.4234   23926966.5084   23926965.9694
       192.3534
 -28878259.31049 -22483191.15148  19878705.3734   19878705.1334   19878707.8124
       754.6734
 -22538681.34449 -17523462.02048  20882426.5904   20882426.4824   20882429.4414
       306.1504
 -11752432.79247  -8961517.05246  23259816.3414   23259815.9944   23259817.3534
     -1494.7554
 -12123700.15548  -9423049.83147  22497584.7144   22497584.2364   22497587.4854
      3068.9704
 -19337813.61949 -15059291.55348  21776664.6934   21776665.4144   21776666.7214
     -2752.9204
 -15126742.10648 -11743569.30447  22355171.7894   22355171.5244   22355173.2564
      -780.6064
 10  1  2  1 45 30.0000000  0 10G30G28G12G22G09G27G18G26G15G17
  -6150990.07647  -4738173.09646  24295648.2504   24295648.6254   24295651.4334
      3542.7644
   -363671.96846   -342093.20945  25508557.3664   25508556.9384   25508558.2614
     -3127.7574
 -22332185.18749 -17345827.17948  21558405.4254   21558405.5354   21558407.2634
      2287.3434
  -7750162.97147  -6003456.92346  23925915.1024   23925913.8804   23925913.2854
       175.4054
 -28900715.32949 -22500689.34348  19874432.2564   19874432.0564   19874434.4084
       741.3334
 -22547776.55249 -17530549.19148  20880695.7114   20880695.5414   20880698.2154
       299.0574
 -11707385.81947  -8926415.54746  23268390.0024   23268388.4634   23268389.2464
     -1509.2734
 -12215614.42348  -9494671.34147  22480094.4374   22480093.9454   22480095.7694
      3057.3154
 -19255058.25749 -14994806.85948  21792412.5014   21792412.7084   21792415.0384
     -2765.1614
 -15103061.87548 -11725117.15947  22359677.8224   22359677.7104   22359679.4454
      -799.3304
 10  1  2  1 46  0.0000000  0 10G30G28G12G22G09G27G18G26G15G17
  -6257214.62047  -4820945.46546  24275434.1374   24275434.8384   24275436.5344
      3538.5594
   -269864.04846   -268996.17545  25526408.0434   25526404.8874   25526410.7924
     -3126.7164
 -22400637.37449 -17399166.54148  21545379.5454   21545379.6104   21545381.0994
      2275.5804
  -7755160.95647  -6007351.49846  23924963.4884   23924963.2684   23924962.2624
       157.7284
 -28922762.41349 -22517868.88748  19870236.8404   19870236.7484   19870239.1254
       728.0164
 -22556646.86049 -17537461.11948  20879007.7274   20879007.6094   20879010.5124
       291.9024
 -11661901.32247  -8890973.09546  23277043.4594   23277044.3824   23277045.6004
     -1523.6174
 -12307171.39148  -9566014.43147  22462671.5374   22462671.6104   22462674.3154
      3045.8874
 -19171926.93949 -14930029.20948  21808231.7484   21808232.1644   21808233.8744
     -2777.3534
 -15078812.46848 -11706221.50647  22364292.5204   22364292.7014   22364293.5694
      -817.8924
 10  1  2  1 46 30.0000000  0 10G30G28G12G22G09G27G18G26G15G17
  -6363312.20147  -4903618.89946  24255244.7474   24255244.1544   24255248.1834
      3534.4114
   -176076.78946   -195915.15145  25544254.9524   25544255.8054   25544255.0824
     -3125.9694
 -22468727.33549 -17452223.64748  21532422.4634   21532422.5884   21532424.1334
      2263.7264
  -7759632.80747  -6010836.05346  23924113.4114   23924112.5904   23924111.6254
       140.3974
 -28944402.44049 -22534731.24148  19866118.9374   19866118.8694   19866121.2834
       714.6044
 -22565294.31549 -17544199.39348  20877362.2084   20877362.0354   20877364.8904
       284.5544
 -11615984.24847  -8855193.56646  23285781.7434   23285783.1554   23285784.2994
     -1537.6564
 -12398370.72348  -9637078.84847  22445316.7564   22445316.3954   22445319.2344
      3033.8814
 -19088424.19748 -14864962.14648  21824121.8894   21824122.1804   21824124.0354
     -2789.5594
 -15053997.28448 -11686884.99247  22369014.2574   22369015.0534   22369016.1914
      -836.5724
 10  1  2  1 47  0.0000000  0 10G30G28G12G22G09G27G18G26G15G17
  -6469281.68947  -4986192.50846  24235079.0684   24235079.7004   24235082.1564
      3530.4214
    -82311.71746   -122851.46945  25562098.4974   25562098.5044   25562099.7074
     -3124.6094
 -22536454.71749 -17504998.21848  21519534.2834   21519534.3734   21519535.9614
      2251.8084
  -7763579.55047  -6013911.46446  23923360.3284   23923360.6104   23923361.1894
       123.2724
 -28965634.77449 -22551275.91348  19862078.4364   19862078.2084   19862081.0044
       701.1374
 -22573718.45449 -17550763.65748  20875759.2014   20875758.9194   20875761.8864
       277.3974
 -11569637.54947  -8819079.27146  23294600.1384   23294601.6694   23294604.5244
     -1551.6804
 -12489209.70748  -9707862.46347  22428030.6344   22428030.2194   22428034.0194
      3022.1614
 -19004552.20648 -14799607.35048  21840082.2364   21840082.8024   21840084.1794
     -2801.5444
 -15028617.60948 -11667108.61347  22373844.0734   22373844.2344   22373846.1064
      -855.1654
 10  1  2  1 47 30.0000000  0 10G30G28G12G22G09G27G18G26G15G17
  -6575122.17947  -5068665.59746  24214938.4284   24214939.1074   24214942.0054
      3526.0734
     11429.00646    -49806.77545  25579936.5704   25579934.7014   25579942.5004
     -3124.2104
 -22603819.31949 -17557490.11148  21506715.0314   21506714.9044   21506716.8774
      2239.3934
  -7767001.98547  -6016578.31346  23922708.4514   23922707.9914   23922709.3024
       105.4794
 -28986459.27049 -22567502.78948  19858115.7794   19858115.4344   19858117.8134
       687.4244
 -22581919.07249 -17557153.74648  20874198.8094   20874198.4074   20874201.2594
       269.7444
 -11522863.29647  -8782631.79846  23303502.7724   23303501.9274   23303503.6134
     -1565.9644
 -12579685.89148  -9778363.38047  22410813.1364   22410814.2014   22410815.0654
      3009.9124
 -18920313.42948 -14733966.74548  21856112.4584   21856112.4674   21856114.7764
     -2814.0194
 -15002674.52548 -11646893.21047  22378780.7944   22378780.6974   22378782.2124
      -874.2124
 10  1  2  1 48  0.0000000  0 10G30G28G12G22G09G27G18G26G15G17
  -6680830.94247  -5151036.05046  24194822.7594   24194821.7464   24194824.2224
      3522.0194
    105146.37146     23219.73545  25597770.6224   25597771.0084   25597773.3644
     -3123.8314
 -22670818.62649 -17609697.35448  21493965.8014   21493965.8994   21493967.3714
      2227.5434
  -7769898.79147  -6018835.59746  23922159.9754   23922157.4614   23922159.7564
        88.1764
 -29006873.22249 -22583409.76148  19854230.9424   19854230.9684   19854233.4704
       674.0694
 -22589893.95049 -17563367.93748  20872680.9234   20872680.7184   20872683.8224
       262.4954
 -11475662.23647  -8745851.76946  23312484.9254   23312484.5974   23312486.7114
     -1579.9994
 -12669795.12648  -9848578.36647  22393666.3414   22393667.3614   22393668.8054
      2997.8804
 -18835708.40648 -14668040.75648  21872212.1714   21872212.3074   21872214.7914
     -2825.8604
 -14976167.43148 -11626238.32747  22383825.0474   22383825.3304   22383826.9724
      -892.5464
 10  1  2  1 48 30.0000000  0 10G30G28G12G22G09G27G18G26G15G17
  -6786404.31147  -5233300.99746  24174732.2334   24174731.4944   24174735.2154
      3516.9454
    198841.69016     96229.09855  25615599.847                    25615595.1904
     -3122.406
 -22737449.57949 -17661617.56548  21481286.1464   21481286.3934   21481287.7854
      2215.0714
  -7772267.65447  -6020681.49246  23921704.6344   23921706.9214   23921707.8124
        70.1654
 -29026872.98649 -22598993.99148  19850425.3514   19850424.8094   19850427.5984
       659.8904
 -22597639.92949 -17569403.76648  20871207.2004   20871207.0264   20871209.5014
       254.5624
 -11428034.30647  -8708739.10546  23321548.5854   23321547.3974   23321548.3744
     -1594.6894
 -12759531.79848  -9918503.03347  22376589.8814   22376589.6514   22376592.4304
      2984.9644
 -18750736.36848 -14601828.78248  21888381.8634   21888381.8524   21888384.3784
     -2838.3584
 -14949094.35448 -11605142.41847  22388976.9154   22388977.1344   22388978.7694
      -911.6364
 10  1  2  1 49  0.0000000  0  9G30G12G22G09G27G18G26G15G17
  -6891845.75047  -5315463.14846  24154667.8784   24154668.5764   24154671.0364
      3512.8664
 -22803716.28149 -17713253.94548  21468676.1534   21468676.1764   21468677.8924
      2203.0604
  -7774114.11347  -6022120.29546  23921358.6044   23921356.6774   23921356.7344
        53.1374
 -29046462.90349 -22614258.85748  19846697.2804   19846697.2574   19846699.8684
       646.3834
 -22605160.96749 -17575264.31448  20869775.8404   20869775.4494   20869778.4154
       247.1884
 -11379986.70047  -8671299.41646  23330690.9944   23330690.1014   23330692.4844
     -1608.1994
 -12848897.52748  -9988138.65547  22359583.9724   22359583.8274   22359586.7764
      2972.8814
 -18665404.25048 -14535336.22548  21904619.9764   21904620.3914   21904622.1774
     -2850.0774
 -14921460.91848 -11583609.86247  22394235.2174   22394235.3734   22394237.2824
      -930.2544
 10  1  2  1 49 30.0000000  0  9G30G12G22G09G27G18G26G15G17
  -6997152.17447  -5397520.08846  24134628.1904   24134629.1094   24134631.2514
      3508.0914
 -22869615.89449 -17764604.28248  21456135.9184   21456136.3834   21456137.0794
      2190.4844
  -7775436.40247  -6023150.65146  23921106.2394   23921103.3954   23921105.3064
        35.2924
 -29065640.09949 -22629202.12648  19843048.0584   19843047.7744   19843050.3914
       632.3304
 -22612454.35549 -17580947.47748  20868388.0234   20868387.7464   20868390.7334
       239.1614
 -11331519.61447  -8633532.85846  23339912.6754   23339913.4654   23339915.4174
     -1622.6724
 -12937887.82148 -10057481.74047  22342650.1024   22342649.9874   22342651.9804
      2959.8384
 -18579711.66448 -14468562.78348  21920926.3554   21920926.5864   21920929.4064
     -2862.4564
 -14893266.25448 -11561639.99147  22399600.5774   22399600.5774   22399602.6984
      -949.1524
 10  1  2  1 50  0.0000000  0  9G30G12G22G09G27G18G26G15G17
  -7102324.91547  -5479472.86846  24114615.3754   24114614.4724   24114618.1834
      3503.6634
 -22935150.82649 -17815670.45348  21443664.9344   21443665.3724   21443666.2514
      2178.7424
  -7776237.58047  -6023774.97846  23920954.5114   23920951.8304   23920951.6194
        18.1124
 -29084406.53149 -22643825.31948  19839476.7744   19839476.5984   19839479.2144
       618.9224
 -22619522.50549 -17586455.12748  20867042.9264   20867042.6284   20867045.4914
       232.1224
 -11282638.49447  -8595443.70846  23349215.5154   23349215.7774   23349216.0354
     -1636.0664
 -13026502.62948 -10126532.23747  22325786.9274   22325787.0824   22325789.4884
      2947.7044
 -18493663.59448 -14401512.34248  21937301.0394   21937301.3884   21937302.9364
     -2873.8534
 -14864513.91448 -11539235.55947  22405071.9584   22405072.1314   22405073.9534
      -967.5504
 10  1  2  1 50 30.0000000  0  9G30G12G22G09G27G18G26G15G17
  -7207357.66447  -5561316.56746  24094628.7564   24094629.2874   24094630.9754
      3499.1464
 -23000315.27349 -17866447.93348  21431264.7064   21431264.7994   21431265.9864
      2166.3194
  -7776513.47847  -6023989.97246  23920900.6504   23920898.7674   23920900.8364
          .7154
 -29102756.33349 -22658123.86448  19835985.0684   19835984.9094   19835987.4234
       605.0494
 -22626359.62549 -17591782.75748  20865741.8554   20865741.5304   20865744.4044
       224.3834
 -11233340.59747  -8557029.76946  23358596.4524   23358597.6794   23358597.4764
     -1649.7204
 -13114734.08848 -10195284.01347  22308997.4984   22308997.3624   22308999.4114
      2935.0354
 -18407257.30948 -14334182.77248  21953743.5064   21953743.7554   21953746.0524
     -2885.8074
 -14835200.12948 -11516393.64047  22410650.1674   22410650.4184   22410652.0624
      -986.0904
 10  1  2  1 51  0.0000000  0  9G30G12G22G09G27G18G26G15G17
  -7312252.83647  -5643053.07246  24074667.3994   24074665.9294   24074668.6064
      3493.6804
 -23065112.18049 -17916939.02048  21418934.2294   21418934.1504   21418935.6364
      2153.3064
  -7776268.04347  -6023798.75546  23920947.5954   23920946.0734   23920947.2764
       -16.9454
 -29120692.25649 -22672099.90648  19832571.9704   19832571.8494   19832574.3884
       590.6124
 -22632968.66849 -17596932.66148  20864484.1704   20864483.8384   20864486.6964
       216.0684
 -11183631.64547  -8518295.52546  23368055.5964   23368056.6774   23368058.1424
     -1664.2024
 -13202582.87548 -10263737.61647  22292280.1814   22292280.6294   22292282.6774
      2921.5144
 -18320498.09148 -14266578.19147  21970253.4694   21970253.6494   21970255.5404
     -2898.2194
 -14805329.47248 -11493117.80547  22416334.4834   22416334.9844   22416336.3004
     -1005.4384
 10  1  2  1 51 30.0000000  0  9G30G12G22G09G27G18G26G15G17
  -7417006.23747  -5724679.07746  24054733.6624   24054734.3504   24054736.1864
      3489.3074
 -23129537.45049 -17967140.52048  21406674.5364   21406674.7084   21406675.8864
      2141.1374
  -7775498.40547  -6023199.04046  23921093.3254   23921092.7624   23921093.6764
       -34.3674
 -29138210.35949 -22685750.37648  19829238.5114   19829238.2374   19829240.7274
       576.8854
 -22639345.89149 -17601901.92448  20863270.6114   20863270.3574   20863273.2464
       208.5884
 -11133511.11647  -8479240.57846  23377593.7704   23377594.0754   23377594.3794
     -1677.7194
 -13290043.00448 -10331888.35647  22275637.2414   22275637.0974   22275640.2014
      2908.8254
 -18233385.06048 -14198697.90747  21986830.6324   21986830.9184   21986832.6344
     -2909.7984
 -14774899.60348 -11469406.21647  22422125.0374   22422125.3224   22422126.5944
     -1023.7084
 10  1  2  1 52  0.0000000  0  9G30G12G22G09G27G18G26G15G17
  -7521618.72447  -5806195.28846  24034825.9884   24034826.4364   24034828.9574
      3484.1704
 -23193593.04549 -18017053.96248  21394485.1474   21394484.9934   21394486.6174
      2128.4034
  -7774208.08647  -6022193.61346  23921339.0854   23921339.1654   23921338.8504
       -52.2374
 -29155311.85949 -22699076.22148  19825983.9954   19825983.9674   19825986.4194
       562.4794
 -22645492.79149 -17606691.72248  20862101.0134   20862100.6514   20862103.6554
       200.4204
 -11082984.06647  -8439868.85246  23387208.8274   23387208.5284   23387210.0924
     -1691.3974
 -13377113.82148 -10399735.73147  22259068.2774   22259067.3524   22259070.6604
      2895.2354
 -18145922.29248 -14130545.10047  22003474.0164   22003474.2864   22003476.6184
     -2921.8224
 -14743914.01848 -11445261.60247  22428021.2194   22428021.5044   22428023.2084
     -1042.7914
 10  1  2  1 52 30.0000000  0  9G30G12G22G09G27G18G26G15G17
  -7626088.68647  -5887600.45046  24014946.4264   24014946.5154   24014948.2704
      3479.9554
 -23257277.89149 -18066678.50748  21382366.0034   21382366.4574   21382367.6374
      2116.4124
  -7772396.66547  -6020782.13246  23921684.8084   23921682.9714   23921683.4434
       -69.3244
 -29171995.79649 -22712076.69348  19822809.2804   19822809.1454   19822811.6284
       548.9844
 -22651408.08549 -17611301.04348  20860975.2284   20860974.9954   20860977.8724
       193.1294
 -11032052.06947  -8400181.61446  23396901.3604   23396900.1104   23396903.1224
     -1704.6624
 -13463792.05948 -10467277.21747  22242574.0044   22242573.8374   22242576.4194
      2882.4774
 -18058111.81748 -14062121.35747  22020183.9624   22020184.0484   22020185.7694
     -2932.8864
 -14712373.19548 -11420684.33547  22434023.1364   22434023.6374   22434025.0994
     -1060.8384
 10  1  2  1 53  0.0000000  0  9G30G12G22G09G27G18G26G15G17
  -7730414.30347  -5968893.12346  23995093.8414   23995094.0044   23995096.2344
      3474.8724
 -23320590.79749 -18116013.22848  21370318.1934   21370318.4024   21370319.8964
      2103.8124
  -7770064.28647  -6018964.70646  23922128.3194   23922127.9514   23922127.4204
       -87.0314
 -29188260.78649 -22724750.71048  19819714.3104   19819713.9974   19819716.5094
       534.8174
 -22657090.62049 -17615728.99248  20859893.8764   20859893.6704   20859896.3474
       185.1944
 -10980716.95347  -8360180.22646  23406668.9914   23406668.6474   23406671.3904
     -1718.3534
 -13550074.41948 -10534510.22247  22226155.1404   22226154.3764   22226158.4734
      2869.1234
 -17969954.89348 -13993427.64447  22036959.7734   22036959.9164   22036961.6274
     -2944.6504
 -14680277.91448 -11395675.01647  22440130.6954   22440130.7144   22440132.7024
     -1079.5234
 10  1  2  1 53 30.0000000  0  9G30G12G22G09G27G18G26G15G17
  -7834597.09147  -6050074.50946  23975268.1274   23975268.1444   23975270.7744
      3469.9714
 -23383534.29549 -18165060.10148  21358340.2224   21358340.4394   21358342.1324
      2091.4574
  -7767214.50047  -6016744.11746  23922668.3724   23922668.6914   23922671.0864
      -104.1024
 -29204108.42449 -22737099.52348  19816698.5084   19816698.3634   19816700.5364
       520.7614
 -22662542.57549 -17619977.27448  20858856.4234   20858856.1954   20858859.0694
       177.3284
 -10928984.10947  -8319868.92446  23416513.5334   23416512.1974   23416515.2624
     -1731.5544
 -13635960.93148 -10601434.77347  22209811.3054   22209811.1784   22209813.4904
      2855.8224
 -17881456.32348 -13924467.72147  22053800.2624   22053800.9104   22053802.8174
     -2956.2004
 -14647631.36748 -11370236.14847  22446342.9624   22446343.7514   22446345.0504
     -1097.9194
 10  1  2  1 54  0.0000000  0  9G30G12G22G09G27G18G26G15G17
  -7938630.90947  -6131139.81746  23955471.0634   23955471.5014   23955474.1274
      3465.4554
 -23446102.11449 -18213814.23048  21346434.0174   21346434.2604   21346435.5754
      2079.2334
  -7763842.70647  -6014116.73146  23923310.0214   23923310.7044   23923311.3664
      -121.3074
 -29219532.89849 -22749118.59048  19813763.1044   19813763.0734   19813765.5954
       507.0324
 -22667758.06349 -17624041.28848  20857863.9194   20857863.9424   20857866.9164
       169.8704
 -10876850.60647  -8279245.43646  23426434.7774   23426433.8124   23426436.0994
     -1744.4484
 -13721443.27348 -10668044.39847  22193544.2344   22193545.0714   22193547.3124
      2842.7214
 -17792613.58448 -13855239.60847  22070706.8124   22070707.0414   22070708.5064
     -2967.1234
 -14614429.91848 -11344364.87947  22452661.4494   22452661.4504   22452663.1874
     -1115.8114
 10  1  2  1 54 30.0000000  0  9G30G12G22G09G27G18G26G15G17
  -8042516.15647  -6212089.34146  23935702.4694   23935703.0734   23935705.4244
      3460.1364
 -23508295.52449 -18262276.61748  21334599.0114   21334599.3544   21334600.7284
      2066.7164
  -7759951.19947  -6011084.38846  23924050.4174   23924053.1344   23924051.3604
      -138.4404
 -29234535.24149 -22760808.72948  19810908.5174   19810908.1314   19810910.8994
       492.9564
 -22672738.21649 -17627921.92848  20856916.1784   20856916.1604   20856918.8244
       161.9774
 -10824321.08647  -8238313.36446  23436431.0544   23436429.8614   23436431.2274
     -1757.6404
 -13806520.52448 -10734338.35747  22177354.7064   22177355.0684   22177357.4854
      2829.2104
 -17703429.85348 -13785745.78847  22087677.6864   22087677.5554   22087679.4874
     -2978.5644
 -14580676.45848 -11318063.48447  22459084.3254   22459084.5254   22459085.9604
     -1134.4754
 10  1  2  1 55  0.0000000  0  9G30G12G22G09G27G18G26G15G17
  -8146255.94047  -6292925.52946  23915961.3484   23915961.6584   23915965.7714
      3455.5724
 -23570118.29049 -18310450.18848  21322834.6234   21322834.7714   21322836.1134
      2054.3344
  -7755545.05147  -6007651.01646  23924888.4504   23924890.0354   23924890.6414
      -155.3684
 -29249118.88049 -22772172.60548  19808133.1854   19808133.1784   19808135.5064
       478.9824
 -22677486.60149 -17631621.96748  20856012.6964   20856012.2884   20856015.1944
       154.2204
 -10771401.63247  -8197077.42646  23446500.6684   23446500.6804   23446502.3784
     -1770.7174
 -13891194.15648 -10800317.80447  22161241.5484   22161240.5694   22161245.1854
      2815.3394
 -17613911.42848 -13715991.17147  22104712.4294   22104713.1934   22104714.4134
     -2989.5594
 -14546376.28548 -11291336.07047  22465611.1784   22465611.4104   22465612.5404
     -1152.7844
 10  1  2  1 55 30.0000000  0  9G30G12G22G09G27G18G26G15G17
  -8249844.13147  -6373643.58946  23896249.3104   23896248.5874   23896252.7344
      3450.4704
 -23631564.68249 -18358330.48348  21311141.5334   21311141.7174   21311143.1374
      2041.9214
  -7750619.61047  -6003813.03046  23925827.5234   23925827.5764   23925826.0344
      -172.7874
 -29263278.07649 -22783205.74548  19805438.9064   19805438.6314   19805440.8774
       464.9944
 -22681997.28549 -17635136.78348  20855154.2834   20855154.1544   20855156.7994
       146.4514
 -10718090.59647  -8155536.38646  23456645.2664   23456644.4154   23456647.2134
     -1783.2984
 -13975456.14648 -10865976.49147  22145207.3594   22145207.7594   22145210.3004
      2801.8184
 -17524055.56948 -13645973.61147  22121811.5334   22121811.8674   22121813.5724
     -3000.6714
 -14511525.33348 -11264179.48447  22472243.5464   22472243.4894   22472245.3554
     -1170.8444
 10  1  2  1 56  0.0000000  0  9G30G12G22G09G27G18G26G15G17
  -8353283.42147  -6454245.64946  23876565.5554   23876565.8024   23876568.0474
      3445.5324
 -23692638.26149 -18405920.27448  21299519.7354   21299519.9164   21299521.2154
      2029.4514
  -7745179.82147  -5999574.24346  23926863.7524   23926863.4544   23926862.8134
      -189.8024
 -29277016.08549 -22793910.68948  19802824.5014   19802824.4614   19802826.9724
       450.8184
 -22686273.78149 -17638469.11748  20854340.5744   20854340.1444   20854343.2094
       138.4404
 -10664393.95447  -8113694.85646  23466864.9274   23466864.7404   23466866.6214
     -1796.4784
 -14059307.79748 -10931315.44247  22129251.2224   22129251.0024   22129253.2624
      2787.9224
 -17433868.33048 -13575697.83947  22138973.5004   22138973.8004   22138975.4174
     -3011.8514
 -14476129.04448 -11236597.95747  22478978.9034   22478979.1114   22478980.5134
     -1188.9504
 10  1  2  1 56 30.0000000  0  9G30G12G22G09G27G18G26G15G17
  -8456569.53147  -6534728.31246  23856910.8994   23856910.4184   23856912.7894
      3440.6174
 -23753335.50849 -18453216.81948  21287969.3964   21287969.6054   21287971.0284
      2017.0724
  -7739223.55947  -5994932.98546  23927997.0644   23927995.7234   23927995.9034
      -206.5504
 -29290329.10949 -22804284.47548  19800291.1904   19800291.0754   19800293.4464
       436.8544
 -22690312.53249 -17641616.19948  20853571.9044   20853571.9564   20853574.9634
       130.7544
 -10610311.27847  -8071552.52346  23477155.4494   23477154.4394   23477156.9124
     -1809.0034
 -14142743.55048 -10996330.31147  22113373.4284   22113374.2174   22113375.2174
      2774.3704
 -17343349.09548 -13505163.36547  22156198.7714   22156198.9344   22156201.1684
     -3022.5614
 -14440185.70748 -11208590.16047  22485818.7664   22485818.6064   22485820.5154
     -1207.1594
 10  1  2  1 57  0.0000000  0  9G30G12G22G09G27G18G26G15G17
  -8559701.39847  -6615090.79346  23837285.4854   23837286.0504   23837288.0594
      3434.6594
 -23813656.36249 -18500220.06748  21276490.6404   21276491.0064   21276492.1444
      2004.1084
  -7732752.00847  -5989890.24146  23929228.1144   23929228.1464   23929229.0144
      -224.4854
 -29303216.57449 -22814326.65748  19797838.7944   19797838.6644   19797841.0104
       422.1764
 -22694112.87349 -17644577.50548  20852848.9044   20852848.5714   20852851.5424
       122.4624
 -10555845.69947  -8029111.81746  23487520.6354   23487519.9114   23487521.1474
     -1822.2454
 -14225760.51948 -11061018.86947  22097575.8904   22097575.7764   22097579.0154
      2759.9094
 -17252500.11548 -13434371.95047  22173486.7664   22173486.8944   22173488.8094
     -3034.0684
 -14403696.53448 -11180157.03147  22492762.4934   22492762.9924   22492764.3584
     -1225.6554
 10  1  2  1 57 30.0000000  0  9G30G12G22G09G27G18G26G15G17
  -8662678.33247  -6695332.54046  23817690.0974   23817689.7484   23817693.1684
      3429.5554
 -23873600.93349 -18546930.10848  21265083.4734   21265083.8464   21265085.3034
      1991.4034
  -7725766.04847  -5984446.64246  23930557.6074   23930557.3034   23930556.7664
      -241.8814
 -29315678.15549 -22824036.98148  19795467.4444   19795467.3784   19795469.8334
       407.8794
 -22697674.61449 -17647352.88848  20852170.9784   20852170.8604   20852173.9004
       114.2564
 -10500999.87647  -7986374.81446  23497956.6424   23497956.7944   23497957.0924
     -1834.8524
 -14308356.45648 -11125379.34947  22081858.4464   22081858.3444   22081861.0174
      2746.0474
 -17161324.12248 -13363325.71947  22190836.9264   22190836.9554   22190838.6994
     -3045.0484
 -14366663.30448 -11151299.96247  22499809.8504   22499809.3974   22499810.7574
     -1244.0344
 10  1  2  1 58  0.0000000  0 10G30G14G12G22G09G27G18G26G15G17
  -8765499.77247  -6775453.13346  23798123.5294   23798122.8104   23798127.4374
      3424.7544
  -1324389.77517                  25034678.910
      3544.039
 -23933168.61949 -18593346.47448  21253748.1644   21253748.2984   21253749.7984
      1979.3484
  -7718267.36647  -5978603.52946  23931982.1884   23931985.2524   23931984.8104
      -258.0544
 -29327713.95149 -22833415.52348  19793177.0314   19793176.8504   19793179.3764
       394.1144
 -22700997.91149 -17649942.46948  20851538.7804   20851538.2964   20851541.1394
       106.7224
 -10445777.28947  -7943344.23446  23508464.8044   23508464.5944   23508467.2144
     -1846.9464
 -14390529.10648 -11189409.98647  22066221.5564   22066221.4514   22066223.9904
      2732.0774
 -17069824.04048 -13292026.95747  22208248.6544   22208248.6864   22208251.2554
     -3055.4244
 -14329088.22248 -11122020.67147  22506959.9884   22506959.6334   22506962.1534
     -1261.5704
 10  1  2  1 58 30.0000000  0  9G30G12G22G09G27G18G26G15G17
  -8868163.55947  -6855450.88946  23778586.8104   23778587.5264   23778590.4154
      3419.3894
 -23992357.97649 -18639468.03848  21242484.9854   21242485.0504   21242486.6474
      1966.5954
  -7710255.46347  -5972360.52046  23933507.5344   23933509.7014   23933510.2064
      -276.2384
 -29339321.73949 -22842460.55048  19790968.1614   19790968.0834   19790970.6574
       379.6294
 -22704080.79749 -17652344.71548  20850951.9124   20850951.7134   20850954.6054
        98.5234
 -10390179.40647  -7900021.22246  23519045.1264   23519044.5564   23519047.1764
     -1859.4544
 -14472274.77648 -11253107.91747  22050666.0034   22050665.7264   22050668.7244
      2717.5084
 -16978000.54748 -13220476.18547  22225722.4014   22225722.8324   22225724.6214
     -3066.3884
 -14290971.12848 -11092319.03747  22514213.4224   22514213.1534   22514214.9774
     -1279.6024
 10  1  2  1 59  0.0000000  0 10G30G14G12G22G09G27G18G26G15G17
  -8970669.72747  -6935325.81146  23759080.8874   23759082.2394   23759082.2104
      3413.9284
  -1536827.21246  -1141754.88745  24994255.2634   24994255.1214   24994260.1294
      3537.1864
 -24051170.01749 -18685295.59348  21231293.3954   21231293.3834   21231295.1954
      1954.0494
  -7701732.62847  -5965719.35346  23935130.6074   23935131.5474   23935130.9184
      -292.6974
 -29350502.10349 -22851172.52148  19788840.5044   19788840.3904   19788842.9954
       365.4244
 -22706923.83449 -17654560.06648  20850410.9844   20850410.8494   20850413.6114
        90.6484
 -10334209.87647  -7856408.62446  23529696.8514   23529695.8664   23529698.3974
     -1871.7634
 -14553591.86348 -11316471.88647  22035191.3844   22035192.5294   22035195.1674
      2703.3134
 -16885857.41748 -13148676.34447  22243256.7234   22243257.0984   22243258.7764
     -3076.8194
 -14252314.70948 -11062197.14147  22521569.6684   22521569.7484   22521571.0794
     -1297.7164
 10  1  2  1 59 30.0000000  0 10G30G14G12G22G09G27G18G26G15G17
  -9073016.43147  -7015076.46046  23739604.9964   23739605.9614   23739606.4414
      3408.4174
  -1642885.68546  -1224397.83745  24974074.1144   24974074.6524   24974077.6194
      3533.1794
 -24109603.38449 -18730828.07548  21220173.8494   21220174.1904   21220175.5304
      1940.9774
  -7692698.95947  -5958680.13846  23936848.9714   23936848.5704   23936848.9704
      -309.8524
 -29361253.71549 -22859550.40048  19786794.5624   19786794.3604   19786797.0964
       350.8314
 -22709525.45149 -17656587.30448  20849915.9144   20849915.6404   20849918.7034
        82.3354
 -10277870.67647  -7812507.95446  23540416.9054   23540415.1054   23540418.9644
     -1884.5884
 -14634476.73248 -11379499.05747  22019800.1134   22019800.4064   22019802.1954
      2688.5934
 -16793395.53948 -13076628.12947  22260851.6654   22260852.0254   22260854.1274
     -3087.6944
 -14213119.38048 -11031655.32547  22529028.1434   22529028.5494   22529030.0634
     -1315.8474
                            4  1
RINEX FILE SPLICE; other post-header comments skipped       COMMENT
 10  1  2  2  0  0.0000000  0 10G30G14G12G22G09G27G18G26G15G17
  -9175200.94147  -7094700.75546  23720159.6014   23720160.2974   23720161.5124
      3404.4954
  -1748832.39446  -1306953.67145  24953915.0454   24953916.8944   24953915.3974
      3530.3064
 -24167656.27649 -18776064.08148  21209126.7004   21209126.9894   21209128.2314
      1929.3464
  -7683153.61947  -5951242.20746  23938663.2314   23938665.7404   23938665.8784
      -325.6004
 -29371574.44849 -22867592.52748  19784830.6154   19784830.6974   19784833.0704
       337.5314
 -22711883.49049 -17658424.73948  20849467.4514   20849467.3044   20849469.5484
        75.3024
 -10221162.70647  -7768319.94146  23551209.4254   23551207.2534   23551209.6254
     -1895.4574
 -14714925.11948 -11442186.11347  22004491.4224   22004490.9024   22004493.4364
      2675.2744
 -16700616.17048 -13004332.51747  22278506.8044   22278507.1484   22278509.2364
     -3097.0724
 -14173385.37848 -11000693.75747  22536589.3904   22536589.0674   22536590.6164
     -1332.8444
 10  1  2  2  0 30.0000000  0 10G30G14G12G22G09G27G18G26G15G17
  -9277226.16047  -7174200.89546  23700745.2224   23700744.7434   23700748.1524
      3397.7894
  -1854669.06846  -1389423.78645  24933772.5134   24933773.6174   24933774.0824
      3525.8964
 -24225332.45549 -18821006.54548  21198151.3364   21198151.5544   21198152.9754
      1915.7274
  -7673101.91347  -5943409.73146  23940578.3494   23940578.0504   23940577.7744
      -343.8364
 -29381467.56849 -22875301.45348  19782947.9714   19782947.8274   19782950.4534
       322.1714
 -22714001.38349 -17660075.05048  20849064.1574   20849064.0474   20849066.7384
        66.0364
 -10164092.81147  -7723849.92146  23562067.3214   23562068.7954   23562070.6554
     -1908.6914
 -14794938.22248 -11504533.99247  21989265.0544   21989266.1064   21989267.3504
      2659.2884
 -16607525.22248 -12931794.11847  22296221.6024   22296221.5784   22296223.4454
     -3108.7744
 -14133117.51948 -10969316.20147  22544251.9254   22544252.2264   22544253.1494
     -1351.6224
 10  1  2  2  1  0.0000000  0 10G30G14G12G22G09G27G18G26G15G17
  -9379087.01647  -7253572.96446  23681361.5394   23681361.1564   23681363.3964
      3393.3244
  -1960389.51246  -1471803.36345  24913655.6884   24913655.7274   24913657.0954
      3522.6924
 -24282627.46749 -18865651.99148  21187248.3174   21187248.7394   21187250.0884
      1904.1544
  -7662541.02247  -5935180.48146  23942590.4824   23942587.9574   23942587.6934
      -360.0334
 -29390928.72649 -22882673.78148  19781147.7154   19781147.3504   19781150.0344
       308.7234
 -22715874.70449 -17661534.78148  20848707.8824   20848707.6534   20848710.3894
        58.9434
 -10106660.20947  -7679097.24046  23572997.3114   23572994.6604   23572997.3684
     -1919.6654
 -14874509.65248 -11566537.70447  21974123.1534   21974123.4894   21974125.4334
      2645.7234
 -16514121.14648 -12859011.71547  22313995.6934   22313995.4024   22313997.3844
     -3118.0294
 -14092313.70848 -10937521.01747  22552016.6994   22552017.2584   22552017.9944
     -1368.4164
 10  1  2  2  1 30.0000000  0 10G30G14G12G22G09G27G18G26G15G17
  -9480783.34747  -7332816.86946  23662009.5964   23662009.2654   23662011.2464
      3386.9504
  -2065992.51546  -1554091.42545  24893560.2284   24893559.5314   24893563.3834
      3517.9084
 -24339541.86849 -18910000.86548  21176418.1274   21176417.9014   21176419.6414
      1890.5654
  -7651472.87447  -5926555.96146  23944696.9484   23944695.3854   23944693.5894
      -377.5944
 -29399958.09249 -22889709.64648  19779429.5514   19779429.4134   19779432.0134
       293.5724
 -22717503.77949 -17662804.19548  20848397.7364   20848397.5974   20848400.2484
        49.9994
 -10048868.24647  -7634064.54846  23583993.4064   23583993.6664   23583995.8974
     -1932.7214
 -14953637.78048 -11628195.99847  21959065.5134   21959065.8244   21959067.6094
      2630.0864
 -16420407.40348 -12785988.02247  22331828.9034   22331828.7914   22331830.2734
     -3129.1414
 -14050976.63848 -10905310.30647  22559882.8484   22559883.0244   22559884.4394
     -1386.9784
 10  1  2  2  2  0.0000000  0 11G30G14G01G12G22G09G27G18G26G15G17
  -9582315.18847  -7411932.56446  23642687.7454   23642688.2494   23642690.8774
      3381.7314
  -2171476.45346  -1636286.73845  24873485.7894   24873486.7104   24873486.4884
      3513.6764
  -1558360.20047  -1204623.67346  24129389.0154   24129389.1244   24129390.6904
      3316.7564
 -24396076.35749 -18954053.70448  21165659.9424   21165659.9444   21165661.3484
      1877.9754
  -7639899.29047  -5917537.60346  23946895.9414   23946897.3164   23946897.4344
      -394.1804
 -29408555.58349 -22896408.98448  19777793.3264   19777793.2854   19777795.6994
       279.1344
 -22718888.81449 -17663883.44548  20848134.2604   20848133.9894   20848136.8134
        41.8174
  -9990720.53147  -7588754.67146  23595059.4094   23595057.5524   23595061.1364
     -1943.9204
 -15032320.52448 -11689507.23047  21944092.9864   21944092.5534   21944095.1934
      2614.9374
 -16326386.83348 -12712725.23747  22349720.4624   22349720.5084   22349722.1184
     -3139.2854
 -14009108.58948 -10872685.84847  22567849.8654   22567850.1634   22567851.4894
     -1404.5284
 10  1  2  2  2 30.0000000  0 11G30G14G01G12G22G09G27G18G26G15G17
  -9683679.61747  -7490917.80646  23623399.3234   23623398.6614   23623402.2304
      3375.7984
  -2276837.35946  -1718386.14945  24853437.4414   24853437.9044   24853439.4834
      3510.0494
  -1657792.70347  -1282103.51546  24110467.2824   24110467.8374   24110469.8764
      3311.4314
 -24452228.97349 -18997808.97448  21154974.2644   21154974.4084   21154975.9544
      1865.2244
  -7627819.80647  -5908125.04546  23949193.2134   23949194.8784   23949196.1424
      -411.2604
 -29416719.35149 -22902770.35948  19776239.8654   19776239.8394   19776242.1254
       264.6474
 -22720027.69649 -17664770.88748  20847917.5744   20847917.3064   20847920.1724
        33.6054
  -9932218.26947  -7543168.49446  23606190.7064   23606190.7364   23606192.6114
     -1956.8044
 -15110553.83148 -11750468.25247  21929205.6324   21929205.6464   21929207.9294
      2600.0814
 -16232060.21548 -12639223.97447  22367669.9894   22367669.8854   22367672.0654
     -3149.6184
 -13966709.08648 -10839647.26947  22575918.4724   22575918.3994   22575920.3394
     -1422.4974
 10  1  2  2  3  0.0000000  0 11G30G14G01G12G22G09G27G18G26G15G17
  -9784884.46147  -7569778.72846  23604140.5474   23604140.6954   23604143.5454
      3370.7394
  -2382082.05846  -1800395.00145  24833410.3544   24833409.7414   24833412.3754
      3505.9334
  -1757075.12947  -1359466.42946  24091574.5064   24091575.0134   24091577.3194
      3306.6354
 -24508008.04249 -19041273.17448  21144359.9264   21144360.1204   21144361.5494
      1852.8624
  -7615244.25447  -5898325.91646  23951588.0624   23951587.5484   23951589.1504
      -427.5424
 -29424457.56649 -22908800.13748  19774767.2554   19774767.1444   19774769.7474
       250.6864
 -22720928.38249 -17665472.72648  20847745.9384   20847746.0354   20847748.6934
        25.8754
  -9873373.16047  -7497315.19346  23617388.7574   23617390.7484   23617391.8224
     -1967.9184
 -15188343.70748 -11811083.73847  21914402.3574   21914401.9604   21914404.7054
      2585.3904
 -16137439.31648 -12565493.40347  22385675.8204   22385676.0374   22385677.8954
     -3158.9024
 -13923788.87448 -10806202.95147  22584085.7554   22584085.7174   22584087.8594
     -1439.6104
 10  1  2  2  3 30.0000000  0 11G30G14G01G12G22G09G27G18G26G15G17
  -9885909.27947  -7648499.33346  23584915.9504   23584916.2774   23584919.9894
      3365.0724
  -2487188.35846  -1882295.99845  24813409.3104   24813409.6944   24813410.1624
      3501.6224
  -1856186.87747  -1436696.34246  24072714.2614   24072715.3534   24072716.6164
      3301.5084
 -24563393.88949 -19084430.95848  21133820.5124   21133820.6644   21133821.6134
      1840.0364
  -7602154.39447  -5888126.04446  23954078.2844   23954078.8974   23954079.2914
      -444.1524
 -29431750.14149 -22914482.65848  19773379.5964   19773379.4144   19773381.9974
       236.0324
 -22721570.93849 -17665973.41848  20847623.8054   20847623.6104   20847626.5684
        17.5074
  -9814168.50047  -7451181.71846  23628657.1154   23628657.3954   23628657.2514
     -1979.0604
 -15265668.11348 -11871336.52147  21899688.3264   21899688.4904   21899690.9144
      2570.1164
 -16042506.22048 -12491519.55847  22403740.7584   22403741.0984   22403742.6914
     -3169.1894
 -13880329.96948 -10772338.86647  22592355.5424   22592356.1594   22592357.6534
     -1457.0974
 10  1  2  2  4  0.0000000  0 11G30G14G01G12G22G09G27G18G26G15G17
  -9986767.79247  -7727090.37946  23565724.0444   23565723.2794   23565726.6204
      3359.4924
  -2592168.77846  -1964098.96546  24793432.1694   24793431.5774   24793432.4614
      3497.3234
  -1955141.92147  -1513804.14446  24053884.1524   24053884.0824   24053885.6444
      3296.1164
 -24618401.30449 -19127293.85948  21123352.8564   21123352.8664   21123354.1884
      1827.4614
  -7588566.56247  -5877538.16646  23956665.1584   23956665.4604   23956663.9774
      -461.3614
 -29438611.45249 -22919829.13348  19772073.8634   19772073.8324   19772076.2164
       221.6704
 -22721969.72849 -17666284.16848  20847547.9844   20847547.8104   20847550.6054
         9.3834
  -9754621.84447  -7404781.73846  23639988.0554   23639989.0064   23639991.4264
     -1990.6224
 -15342539.26348 -11931236.11447  21885060.2844   21885059.6484   21885062.1594
      2554.8854
 -15947278.61748 -12417316.22947  22421861.7574   22421861.9734   22421864.1104
     -3178.8544
 -13836348.87948 -10738067.88647  22600725.0204   22600725.7924   22600726.3784
     -1474.5624
 10  1  2  2  4 30.0000000  0 11G30G14G01G12G22G09G27G18G26G15G17
 -10087454.84847  -7805547.80146  23546562.8674   23546564.0684   23546565.4194
      3353.0954
  -2697017.04846  -2045798.94946  24773480.2314   24773478.7864   24773480.9124
      3491.7144
  -2053934.96047  -1590785.72846  24035084.2184   24035083.4994   24035086.7524
      3290.0434
 -24673025.44349 -19169858.10548  21112958.3134   21112958.4894   21112959.8004
      1814.0664
  -7574477.48047  -5866559.65546  23959346.7174   23959345.3624   23959346.9124
      -478.5484
 -29445036.38249 -22924835.56748  19770851.3794   19770851.2644   19770853.8184
       206.5344
 -22722119.67649 -17666401.01348  20847519.3944   20847519.0324   20847522.0084
          .5634
  -9694731.88747  -7358114.24846  23651385.4544   23651383.8214   23651385.8484
     -2002.7584
 -15418950.43048 -11990777.28647  21870519.7294   21870519.4674   21870522.2644
      2539.0054
 -15851754.34148 -12342881.72447  22440039.7634   22440040.1804   22440041.6034
     -3189.2264
 -13791842.84848 -10703387.84947  22609194.4694   22609194.7364   22609196.0074
     -1492.4864
 10  1  2  2  5  0.0000000  0 11G30G14G01G12G22G09G27G18G26G15G17
 -10187968.40047  -7883870.03246  23527435.9844   23527435.9544   23527438.6384
      3346.8014
  -2801729.55346  -2127393.14546  24753553.4094   24753552.6674   24753553.8174
      3487.8284
  -2152564.08347  -1667639.57646  24016315.3084   24016316.2194   24016317.6204
      3284.4074
 -24727265.28249 -19212122.90148  21102636.6584   21102636.6784   21102638.1904
      1801.1764
  -7559887.04547  -5855190.51246  23962122.5674   23962122.9614   23962122.5144
      -494.8454
 -29451023.40349 -22929500.77348  19769711.9944   19769711.9264   19769714.6094
       191.8714
 -22722019.20849 -17666322.73248  20847538.6004   20847538.4614   20847541.1544
        -7.8794
  -9634500.28047  -7311180.54646  23662846.4194   23662846.2724   23662848.7134
     -2013.6664
 -15494897.78648 -12049957.04047  21856067.5294   21856067.5954   21856069.2674
      2523.5824
 -15755934.74548 -12268217.10347  22458273.4154   22458273.9774   22458275.4214
     -3199.1384
 -13746812.61748 -10668299.35247  22617763.3724   22617763.9614   22617765.0134
     -1510.0794
 10  1  2  2  5 30.0000000  0 11G30G14G01G12G22G09G27G18G26G15G17
 -10288310.21147  -7962058.43346  23508341.3674   23508341.5154   23508345.1744
      3341.3054
  -2906306.73147  -2208881.86946  24733653.0914   24733652.2214   24733653.8464
      3483.0064
  -2251031.26947  -1744367.24046  23997577.1554   23997577.2644   23997579.3164
      3278.7564
 -24781123.25649 -19254090.14148  21092387.8144   21092387.9194   21092389.2454
      1788.2744
  -7544799.71447  -5843434.18546  23964995.6594   23964992.2744   23964993.8764
      -511.9744
 -29456575.03549 -22933826.72048  19768655.5904   19768655.3634   19768657.9884
       177.1064
 -22721670.55749 -17666051.06448  20847604.8574   20847604.7414   20847607.5004
       -16.4644
  -9573932.58447  -7263984.95346  23674370.4104   23674372.0084   23674373.3054
     -2025.1464
 -15570381.67448 -12108775.64447  21841703.3274   21841703.3064   21841705.7574
      2507.9434
 -15659825.18348 -12193326.52847  22476562.7014   22476562.5564   22476565.6744
     -3208.9014
 -13701262.81748 -10632805.99447  22626431.2834   22626430.9794   22626433.3324
     -1527.7724
 10  1  2  2  6  0.0000000  0 11G30G14G01G12G22G09G27G18G26G15G17
 -10388475.93947  -8040109.66246  23489281.2504   23489280.8834   23489283.2334
      3335.5694
  -3010743.13047  -2290260.88646  24713780.3164   24713780.9894   24713780.8804
      3478.7624
  -2349332.03347  -1820965.22546  23978871.7464   23978872.6394   23978873.7654
      3273.7154
 -24834595.92349 -19295757.14148  21082212.2634   21082212.4374   21082213.8104
      1775.8034
  -7529213.28247  -5831288.89646  23967955.9004   23967959.0384   23967961.5954
      -528.0554
 -29461687.30249 -22937810.30248  19767682.6374   19767682.6454   19767685.1584
       162.7564
 -22721070.00549 -17665583.10948  20847719.1024   20847718.7224   20847721.5854
       -24.4954
  -9513028.43647  -7216527.19846  23685961.3814   23685960.7594   23685963.2664
     -2035.8034
 -15645396.22648 -12167228.53547  21827428.4494   21827429.2084   21827430.6034
      2492.3504
 -15563424.49948 -12118209.10947  22494906.8604   22494906.6604   22494908.9814
     -3218.5374
 -13655191.37048 -10596906.16847  22635198.2704   22635198.0644   22635200.4914
     -1544.6004
 10  1  2  2  6 30.0000000  0 11G30G14G01G12G22G09G27G18G26G15G17
 -10488464.72147  -8118023.00146  23470254.2224   23470253.7464   23470255.7804
      3330.1164
  -3115036.51746  -2371528.45446  24693934.7904   24693932.9364   24693934.3534
      3474.4424
  -2447465.78647  -1897433.09546  23960197.7554   23960198.1364   23960200.2184
      3268.4484
 -24887683.68949 -19337124.21448  21072109.8464   21072109.9044   21072111.4054
      1763.3854
  -7513129.26747  -5818755.94046  23971021.7814   23971020.2224   23971020.7204
      -544.1504
 -29466359.96549 -22941451.33848  19766793.5724   19766793.3874   19766795.7614
       148.7074
 -22720217.14349 -17664918.54948  20847881.3284   20847881.1504   20847884.1984
       -32.3784
  -9451791.24747  -7168809.90546  23697614.8884   23697613.4154   23697615.4514
     -2046.7864
 -15719939.29548 -12225314.04347  21813243.5154   21813243.5904   21813245.2564
      2477.0894
 -15466735.46148 -12042866.99747  22513306.3844   22513306.6444   22513308.2234
     -3227.5114
 -13608600.29448 -10560601.43647  22644064.0504   22644064.1684   22644065.7564
     -1561.5124
 10  1  2  2  7  0.0000000  0 11G30G14G01G12G22G09G27G18G26G15G17
 -10588281.30647  -8195802.14446  23451259.6864   23451259.3534   23451262.3754
      3324.5514
  -3219190.33547  -2452687.25946  24674114.1614   24674113.4614   24674113.5564
      3469.6844
  -2545437.17347  -1973774.44946  23941554.3144   23941554.4924   23941556.7134
      3263.0214
 -24940392.08749 -19378195.67748  21062079.6784   21062079.8684   21062081.1404
      1750.6984
  -7496555.02347  -5805840.95846  23974174.8274   23974172.8814   23974173.2604
      -560.8604
 -29470598.10549 -22944753.78748  19765987.0464   19765986.8004   19765989.4404
       134.0714
 -22719117.17549 -17664061.43948  20848090.7124   20848090.5064   20848093.2024
       -40.7334
  -9390229.52547  -7120839.74346  23709328.8654   23709328.9624   23709330.7204
     -2057.4114
 -15794013.78848 -12283034.41647  21799147.3674   21799147.6654   21799149.7844
      2461.3754
 -15369766.22748 -11967306.55547  22531758.8514   22531758.9934   22531761.5004
     -3236.9904
 -13561497.59248 -10523898.01947  22653027.3284   22653027.4844   22653029.1964
     -1578.7054
 10  1  2  2  7 30.0000000  0 11G30G14G01G12G22G09G27G18G26G15G17
 -10687913.28247  -8273437.43246  23432300.2994   23432300.6954   23432302.5934
      3318.2014
  -3323190.79046  -2533726.53846  24654321.6854   24654321.5484   24654323.9174
      3464.0984
  -2643234.40247  -2049980.06346  23922944.1084   23922944.1024   23922946.0874
      3257.0564
 -24992708.55749 -19418961.74548  21052124.4564   21052124.4454   21052125.8694
      1737.3564
  -7479480.00447  -5792535.74146  23977422.5144   23977423.2274   23977424.6014
      -577.7254
 -29474389.97949 -22947708.49448  19765265.3874   19765265.3754   19765267.9134
       118.8894
 -22717757.83449 -17663002.21348  20848349.5014   20848349.3274   20848351.9784
       -49.5644
  -9328334.52647  -7072609.88846  23721108.2934   23721105.9454   23721108.7464
     -2068.4714
 -15867605.75648 -12340378.80347  21785142.9264   21785143.4574   21785146.5844
      2445.0474
 -15272507.67748 -11891520.67147  22550266.8484   22550266.4724   22550268.9334
     -3246.6934
 -13513873.15248 -10486788.06347  22662089.9964   22662090.0004   22662091.4864
     -1596.1654
 10  1  2  2  8  0.0000000  0 11G30G14G01G12G22G09G27G18G26G15G17
 -10787372.54447  -8350938.15346  23413373.3414   23413372.9654   23413376.2074
      3311.9184
  -3427048.12547  -2614654.31246  24634560.1704   24634560.7944   24634561.9334
      3459.1944
  -2740868.94147  -2126058.91346  23904364.4244   23904365.1894   23904367.2084
      3251.5074
 -25044646.37849 -19459432.75948  21042240.8904   21042241.2184   21042242.3764
      1724.6604
  -7461918.56747  -5778851.54046  23980764.0284   23980765.6224   23980766.0354
      -593.8534
 -29477747.74049 -22950324.93248  19764626.5454   19764626.4384   19764628.9634
       104.5004
 -22716151.24849 -17661750.33348  20848655.2034   20848654.9754   20848657.6074
       -57.9824
  -9266121.94347  -7024132.53046  23732947.0204   23732944.8944   23732947.9464
     -2079.3494
 -15940725.42948 -12397355.16747  21771229.0724   21771229.2374   21771231.9974
      2429.2164
 -15174975.06048 -11815521.22647  22568826.5334   22568826.2524   22568828.7184
     -3255.8474
 -13465741.45248 -10449282.84547  22671249.3004   22671249.6384   22671251.0754
     -1613.0994
 10  1  2  2  8 30.0000000  0 11G30G14G01G12G22G09G27G18G26G15G17
 -10886648.07047  -8428295.69846  23394481.9214   23394481.9884   23394485.3934
      3305.8134
  -3530750.38647  -2695461.26146  24614825.2014   24614826.0964   24614827.0794
      3453.7764
  -2838329.33147  -2202002.06546  23885818.7534   23885819.8224   23885820.6284
      3245.3264
 -25096195.46449 -19499600.86548  21032431.5464   21032431.5704   21032432.9734
      1711.3984
  -7443862.13947  -5764781.63146  23984203.7924   23984202.9144   23984203.5034
      -610.4464
 -29480661.04049 -22952595.03848  19764072.1784   19764072.0244   19764074.5154
        89.2804
 -22714287.14449 -17660297.78748  20849009.8814   20849009.7554   20849012.5034
       -66.8804
  -9203584.90147  -6975402.37546  23744846.3974   23744845.2314   23744846.4854
     -2090.2194
 -16013360.39348 -12453953.84247  21757407.0274   21757407.3014   21757409.1974
      2412.6334
 -15077161.00348 -11739302.48547  22587439.8824   22587440.8244   22587442.5784
     -3265.5084
 -13417094.60548 -10411376.20447  22680506.7294   22680507.1924   22680508.5474
     -1630.5094
 10  1  2  2  9  0.0000000  0 11G30G14G01G12G22G09G27G18G26G15G17
 -10985744.59747  -8505513.77846  23375624.9014   23375624.7434   23375627.8104
      3299.9064
  -3634300.75447  -2776149.86446  24595122.0474   24595121.0674   24595123.1164
      3448.8474
  -2935621.09347  -2277813.83146  23867304.3024   23867303.9444   23867307.4774
      3240.1764
 -25147361.01449 -19539470.10948  21022694.9574   21022695.1864   21022696.4844
      1698.7544
  -7425318.09446  -5750331.73946  23987727.5704   23987725.4684   23987728.5324
      -626.3474
 -29483135.07149 -22954522.85548  19763601.4344   19763601.3954   19763603.7894
        74.8814
 -22712170.44549 -17658648.41848  20849412.6474   20849412.5814   20849415.2774
       -75.0864
  -9140731.95947  -6926426.08646  23756808.3414   23756806.4944   23756808.8244
     -2100.6084
 -16085514.00948 -12510177.43047  21743676.5914   21743676.8844   21743679.3894
      2396.6964
 -14979073.57948 -11662870.72547  22606105.4074   22606105.6954   22606107.2644
     -3274.2894
 -13367939.76648 -10373073.73647  22689860.4204   22689861.0934   22689861.7504
     -1647.1934
 10  1  2  2  9 30.0000000  0 11G30G14G01G12G22G09G27G18G26G15G17
 -11084653.67747  -8582585.79346  23356802.6414   23356802.4344   23356805.5004
      3293.4834
  -3737689.51246  -2856712.52346  24575447.2494   24575446.6004   24575446.6594
      3443.3054
  -3032735.68747  -2353487.52446  23848824.5284   23848824.9344   23848827.1464
      3233.6794
 -25198136.25049 -19579035.21948  21013032.7184   21013032.8854   21013034.1674
      1685.6574
  -7406280.27947  -5735497.09846  23991353.8034   23991352.5364   23991352.4924
      -642.9464
 -29485162.03449 -22956102.31048  19763215.7394   19763215.6124   19763218.0844
        59.7544
 -22709793.31949 -17656796.12048  20849865.2594   20849864.8954   20849867.7794
       -83.9164
  -9077559.58947  -6877200.85446  23768829.0774   23768828.8714   23768830.3784
     -2111.2824
 -16157176.42348 -12566018.27347  21730039.9034   21730039.8824   21730041.5894
      2380.2804
 -14880708.11048 -11586222.30647  22624823.6564   22624823.5164   22624825.8014
     -3283.7564
 -13318271.72848 -10334371.37447  22699312.1184   22699311.2784   22699313.4294
     -1664.4164
 10  1  2  2 10  0.0000000  0 11G30G14G01G12G22G09G27G18G26G15G17
 -11183383.58547  -8659518.18346  23338015.4594   23338015.3654   23338017.5744
      3287.5864
  -3840923.39246  -2937154.49846  24555801.6064   24555799.2124   24555801.5504
      3438.1944
  -3129681.55947  -2429029.76746  23830376.2684   23830376.0734   23830378.1354
      3228.1424
 -25248529.54249 -19618302.70748  21003443.0774   21003443.2154   21003444.9234
      1672.8634
  -7386759.19147  -5720285.87146  23995066.0054   23995067.7994   23995068.1984
      -659.1294
 -29486750.25349 -22957339.88948  19762913.4944   19762913.3084   19762915.7814
        45.0404
 -22707164.26149 -17654747.50948  20850365.2114   20850365.1314   20850367.8824
       -92.3744
  -9014078.46747  -6827735.06946  23780907.8194   23780906.8404   23780908.6124
     -2121.7174
 -16228353.82148 -12621481.18247  21716495.0034   21716495.0934   21716497.9404
      2363.8464
 -14782075.78448 -11509365.95447  22643592.7774   22643593.2084   22643595.3134
     -3292.7404
 -13268101.26448 -10295277.51147  22708859.0104   22708859.1574   22708861.2444
     -1681.2934
 10  1  2  2 10 30.0000000  0 11G30G14G01G12G22G09G27G18G26G15G17
 -11281926.39647  -8736304.78846  23319262.4384   23319263.0884   23319265.8754
      3281.7394
  -3943992.99747  -3017468.47646  24536187.9314   24536187.8744   24536187.6654
      3432.7244
  -3226450.62047  -2504434.23646  23811961.9564   23811961.4894   23811963.5544
      3222.5584
 -25298533.94849 -19657267.17048  20993927.8574   20993927.7154   20993929.0384
      1660.1744
  -7366749.40547  -5704693.84846  23998878.1194   23998872.6064   23998875.2644
      -675.3984
 -29487892.62949 -22958230.05448  19762696.1234   19762696.0174   19762698.2354
        30.4214
 -22704275.63649 -17652496.63748  20850915.0764   20850914.8664   20850917.3674
      -100.7134
  -8950284.74247  -6778025.67046  23793047.8204   23793047.0294   23793049.0144
     -2132.1834
 -16299037.14648 -12676559.09847  21703044.6324   21703044.5374   21703046.9634
      2347.6994
 -14683172.12448 -11432298.16547  22662413.1424   22662413.5774   22662415.7074
     -3301.4204
 -13217423.08548 -10255788.01747  22718502.7754   22718502.4724   22718504.5224
     -1697.8814
 10  1  2  2 11  0.0000000  0 11G30G14G01G12G22G09G27G18G26G15G17
 -11380284.09747  -8812947.14146  23300546.0714   23300546.3294   23300548.0824
      3274.8564
  -4046898.96547  -3097654.95946  24516605.9254   24516606.0364   24516605.3224
      3426.7394
  -3323045.00547  -2579702.58646  23793580.6784   23793580.1194   23793582.8034
      3216.5524
 -25348152.53149 -19695930.99348  20984485.5464   20984485.8274   20984487.2634
      1647.0244
  -7346255.32147  -5688724.43946  24002772.5874   24002778.1624   24002777.8854
      -691.3914
 -29488591.87249 -22958774.92348  19762562.9614   19762562.7844   19762565.2964
        15.4354
 -22701129.99349 -17650045.49148  20851513.8374   20851513.5644   20851516.1154
      -109.5354
  -8886185.00747  -6728077.83446  23805245.6464   23805245.8984   23805247.2524
     -2142.2054
 -16369226.94648 -12731252.45547  21689687.8634   21689688.0154   21689690.9024
      2331.0164
 -14584002.80548 -11355023.36947  22681284.9034   22681284.7044   22681286.2324
     -3310.4264
 -13166242.56348 -10215907.08447  22728242.2014   22728242.0814   22728243.1484
     -1714.8374
 10  1  2  2 11 30.0000000  0 11G30G14G01G12G22G09G27G18G26G15G17
 -11478455.61047  -8889444.42846  23281864.7474   23281864.7824   23281867.2314
      3269.2784
  -4149638.94646  -3177712.11946  24497054.2854   24497053.4614   24497054.7134
      3421.5604
  -3419463.75347  -2654834.04246  23775232.5084   23775232.6164   23775234.7564
      3210.8924
 -25397385.12749 -19734294.04548  20975116.9294   20975117.0664   20975118.3264
      1634.4204
  -7325278.79647  -5672379.09946  24006768.4104   24006766.6894   24006768.3234
      -707.3764
 -29488847.32249 -22958973.97948  19762514.7044   19762514.3814   19762516.8954
          .8794
 -22697726.65849 -17647393.54348  20852161.3574   20852161.1654   20852164.2224
      -117.9284
  -8821781.96447  -6677893.66746  23817501.5214   23817500.8864   23817501.9804
     -2151.7274
 -16438920.50348 -12785559.13247  21676425.5594   21676425.5194   21676427.8414
      2314.7334
 -14484570.10648 -11277543.34247  22700205.8344   22700206.4524   22700208.1224
     -3318.6434
 -13114561.19048 -10175635.88147  22738076.8884   22738076.6564   22738078.5064
     -1731.2694
 10  1  2  2 12  0.0000000  0 11G30G14G01G12G22G09G27G18G26G15G17
 -11576437.18047  -8965793.69546  23263219.1354   23263219.3034   23263222.0444
      3262.8404
  -4252207.45247  -3257635.62146  24477537.8114   24477539.4074   24477537.0684
      3416.6024
  -3515703.23447  -2729825.84146  23756918.8954   23756919.1824   23756921.2524
      3204.9774
 -25446229.02449 -19772354.21448  20965822.1744   20965822.4924   20965823.8374
      1621.9134
  -7303817.92847  -5655656.38746  24010852.4684   24010852.4734   24010850.2724
      -723.0014
 -29488655.71849 -22958824.67648  19762550.9794   19762550.7194   19762553.3084
       -13.6214
 -22694062.16549 -17644538.09548  20852858.5464   20852858.3854   20852861.2584
      -126.2174
  -8757075.70547  -6627473.20446  23829815.3594   23829814.5054   23829814.8674
     -2161.8304
 -16508112.49948 -12839474.97647  21663258.6564   21663258.5674   21663261.7484
      2298.1414
 -14384873.88148 -11199857.97947  22719177.9894   22719177.6774   22719179.9224
     -3327.4344
 -13062378.02148 -10134973.66947  22748007.0274   22748006.4724   22748008.3734
     -1747.4724
 10  1  2  2 12 30.0000000  0 11G30G14G01G12G22G09G27G18G26G15G17
 -11674232.22247  -9041997.61246  23244609.2264   23244610.8774   23244610.9534
      3255.9874
  -4354606.44347  -3337427.04946  24458051.3314   24458051.5704   24458051.0374
      3409.7364
  -3611767.00647  -2804680.72346  23738637.9664   23738638.3534   23738640.4984
      3198.3744
 -25494688.07949 -19810114.50448  20956600.6364   20956600.8534   20956602.0124
      1608.2784
  -7281878.79847  -5638560.94746  24015025.9214   24015024.9234   24015024.6544
      -739.7824
 -29488020.64449 -22958329.81348  19762671.7034   19762671.3684   19762673.9804
       -29.2294
 -22690140.21449 -17641482.03348  20853604.8914   20853604.6564   20853607.3904
      -135.6344
  -8692073.69647  -6576822.27546  23842183.6334   23842182.3014   23842184.2074
     -2172.9734
 -16576805.03548 -12893001.62647  21650187.3644   21650186.9434   21650189.7034
      2280.6554
 -14284920.52948 -11121972.24447  22738197.8424   22738197.6784   22738201.0894
     -3336.7614
 -13009699.29448 -10093925.30847  22758031.2934   22758031.7104   22758032.6224
     -1764.8814
 10  1  2  2 13  0.0000000  0 11G30G14G01G12G22G09G27G18G26G15G17
 -11771833.86347  -9118050.84446  23226036.5434   23226037.8664   23226039.6864
      3250.6024
  -4456827.72347  -3417079.99446  24438596.5834   24438594.8504   24438597.1924
      3404.8534
  -3707647.87747  -2879393.07946  23720392.7404   23720393.0274   23720395.0254
      3193.3084
 -25542756.15649 -19847570.14248  20947453.7944   20947453.7904   20947455.1294
      1596.1314
  -7259456.86447  -5621089.32946  24019291.9124   24019291.2904   24019294.6054
      -755.1044
 -29486935.78549 -22957484.47348  19762877.9994   19762877.9334   19762880.5344
       -43.2714
 -22685954.11849 -17638220.14648  20854401.4554   20854401.2554   20854403.9744
      -143.5184
  -8626772.54547  -6525938.27146  23854611.1664   23854611.0924   23854613.5974
     -2181.3014
 -16644989.49648 -12946132.38247  21637211.9494   21637211.7474   21637214.3574
      2264.7994
 -14184706.28948 -11043883.22947  22757268.6614   22757268.7804   22757270.5164
     -3344.2914
 -12956520.85548 -10052487.57147  22768150.8634   22768151.2374   22768153.5254
     -1780.6444
 10  1  2  2 13 30.0000000  0 11G30G14G01G12G22G09G27G18G26G15G17
 -11869246.64547  -9193956.90346  23207500.1454   23207499.4384   23207503.0704
      3243.2774
  -4558874.12647  -3496596.65346  24419180.7824   24419181.0234   24419181.8584
      3398.1384
  -3803350.58047  -2953966.59946  23702181.1224   23702181.0644   23702184.0794
      3186.9324
 -25590439.00549 -19884725.60148  20938379.9274   20938380.0684   20938381.6674
      1582.7234
  -7236559.30347  -5603247.10346  24023649.8694   24023651.8774   24023652.1404
      -771.3264
 -29485406.38949 -22956292.74048  19763169.1424   19763169.0394   19763171.6044
       -58.7844
 -22681509.04349 -17634756.45648  20855247.4924   20855247.3084   20855250.2834
      -152.7994
  -8561180.84247  -6474827.85646  23867092.4254   23867092.3054   23867093.3984
     -2191.4644
 -16712669.07448 -12998869.71547  21624333.1074   21624333.2654   21624335.7804
      2247.2664
 -14084239.74048 -10965597.60547  22776386.6654   22776387.9074   22776388.9044
     -3353.3524
 -12902850.17848 -10010666.26647  22778364.2064   22778364.1064   22778365.3994
     -1797.5934
 10  1  2  2 14  0.0000000  0 11G30G14G01G12G22G09G27G18G26G15G17
 -11966465.75547  -9269712.04446  23188999.1204   23188998.7844   23189002.5484
      3237.8234
  -4660739.42047  -3575972.18946  24399795.9704   24399793.2244   24399798.0704
      3393.1314
  -3898870.26247  -3028397.51546  23684004.0814   23684004.5794   23684007.3084
      3181.5094
 -25637732.39049 -19921577.58148  20929380.2414   20929380.4164   20929381.6104
      1570.3784
  -7213183.80347  -5585032.43446  24028100.5864   24028098.6344   24028098.4724
      -786.7324
 -29483428.05849 -22954751.18448  19763545.6174   19763545.6924   19763548.1504
       -73.0304
 -22676800.23849 -17631087.26348  20856143.4634   20856143.2914   20856145.9624
      -160.9874
  -8495297.76247  -6423490.39446  23879629.9604   23879630.0284   23879631.1004
     -2200.4494
 -16779837.28148 -13051208.56947  21611551.3634   21611551.2644   21611553.6634
      2230.8504
 -13983519.25748 -10887114.11347  22795553.1364   22795553.1774   22795555.4624
     -3361.0374
 -12848685.27848  -9968459.84747  22788671.2154   22788671.6264   22788672.8664
     -1813.2954
 10  1  2  2 14 30.0000000  0 11G30G14G01G12G22G09G27G18G26G15G17
 -12063492.70647  -9345317.44246  23170536.1054   23170536.4874   23170539.1844
      3230.9204
  -4762423.79347  -3655206.72946  24380446.2774   24380445.1024   24380449.5194
      3386.1984
  -3994208.88047  -3102687.33447  23665861.9684   23665862.3054   23665864.8934
      3174.4244
 -25684638.93349 -19958128.12548  20920454.2654   20920454.4584   20920455.7404
      1556.7624
  -7189334.63647  -5566448.68046  24032635.5894   24032636.9244   24032636.5034
      -803.3554
 -29481003.00749 -22952861.53348  19764007.2554   19764007.1524   19764009.2194
       -88.6464
 -22671829.97349 -17627214.33248  20857089.2364   20857089.1124   20857091.9594
      -170.3714
  -8429128.84747  -6371930.19446  23892221.5084   23892220.2764   23892221.8814
     -2210.4144
 -16846494.54648 -13103149.29147  21598867.1134   21598867.3734   21598869.2114
      2213.0594
 -13882550.26548 -10808436.97447  22814766.5234   22814767.0894   22814768.8624
     -3369.9964
 -12794031.04748  -9925872.13747  22799071.6114   22799072.5334   22799073.6384
     -1830.1664
 10  1  2  2 15  0.0000000  0 11G30G14G01G12G22G09G27G18G26G15G17
 -12160322.34847  -9420769.09546  23152109.8364   23152109.2674   23152111.8254
      3224.7064
  -4863920.49246  -3734295.03746  24361130.1654   24361128.1474   24361135.0244
      3379.9214
  -4089361.07547  -3176831.90046  23647754.7724   23647755.2894   23647757.4354
      3168.6604
 -25731154.27649 -19994373.84248  20911602.6724   20911602.8874   20911604.3394
      1544.1064
  -7165009.08947  -5547493.72746  24037263.3814   24037262.9554   24037264.4824
      -819.0074
 -29478126.60249 -22950620.18048  19764554.6994   19764554.5904   19764556.8024
      -103.2374
 -22666593.23249 -17623133.75448  20858085.7114   20858085.5104   20858088.6604
      -178.8674
  -8362673.34747  -6320146.67846  23904867.0064   23904866.6104   23904868.2954
     -2219.4044
 -16912634.18248 -13154686.65947  21586281.1134   21586281.1284   21586283.7134
      2196.1314
 -13781330.81548 -10729564.67547  22834028.2874   22834028.6374   22834031.1124
     -3378.0334
 -12738884.97948  -9882901.17147  22809565.2404   22809565.2334   22809567.7044
     -1846.4464
 10  1  2  2 15 30.0000000  0 11G30G14G01G12G22G09G27G18G26G15G17
 -12256957.87247  -9496069.50746  23133720.8404   23133720.1924   23133723.6694
      3218.4144
  -4965231.57947  -3813238.70146  24341852.4054   24341853.8054   24341854.0424
      3374.5104
  -4184330.40147  -3250833.96547  23629683.1894   23629683.2684   23629685.5414
      3162.6914
 -25777283.00749 -20030318.29748  20902824.5494   20902824.8054   20902826.2234
      1531.3564
  -7140213.24247  -5528172.29546  24041982.8454   24041983.1444   24041984.3264
      -833.6054
 -29474802.84149 -22948030.23748  19765187.0874   19765186.9054   19765189.3334
      -117.9494
 -22661093.90349 -17618848.56248  20859132.3274   20859132.2884   20859134.8474
      -187.4584
  -8295938.09447  -6268145.19446  23917565.9554   23917565.0464   23917567.8504
     -2228.8394
 -16978257.95948 -13205822.06647  21573793.4424   21573793.7364   21573795.6984
      2178.9894
 -13679867.04148 -10650501.99447  22853336.2344   22853336.3434   22853338.4514
     -3385.8124
 -12683253.66048  -9839552.09147  22820151.8764   22820151.5454   22820153.3194
     -1862.1354
 10  1  2  2 16  0.0000000  0 11G30G14G01G12G22G09G27G18G26G15G17
 -12353397.33848  -9571217.13346  23115368.7364   23115370.2864   23115372.4594
      3211.0094
  -5066353.22846  -3892034.76846  24322610.4534   24322609.4144   24322609.9784
      3367.0354
  -4279115.05347  -3324692.12147  23611645.7914   23611646.4504   23611648.2714
      3156.2264
 -25823024.30849 -20065960.85648  20894120.4264   20894120.6324   20894121.8994
      1517.8794
  -7114947.66547  -5508484.87546  24046793.7144   24046791.5424   24046793.7774
      -850.3064
 -29471030.41249 -22945090.68148  19765904.8704   19765904.8814   19765907.2434
      -133.5334
 -22655330.22649 -17614357.38648  20860229.2774   20860228.7774   20860231.4924
      -196.8594
  -8228925.01347  -6215927.22046  23930317.6404   23930316.9504   23930318.7924
     -2238.7694
 -17043362.70148 -13256553.02647  21561404.0434   21561404.3144   21561406.7114
      2161.1394
 -13578160.94048 -10571250.49147  22872690.0324   22872690.1464   22872692.2934
     -3394.3934
 -12627137.47848  -9795825.19647  22830830.5244   22830831.1114   22830832.6014
     -1878.8214
 10  1  2  2 16 30.0000000  0 11G30G14G01G12G22G09G27G18G26G15G17
 -12449637.60048  -9646209.53446  23097055.1404   23097055.1384   23097057.4704
      3204.7334
  -5167280.92046  -3970679.69546  24303402.9184   24303403.5484   24303404.8154
      3361.4744
  -4373711.77947  -3398403.84847  23593645.1724   23593644.9944   23593647.6974
      3149.8534
 -25868375.40449 -20101299.36448  20885490.3704   20885490.6064   20885491.8174
      1505.1364
  -7089211.71147  -5488430.87846  24051688.7134   24051689.8824   24051691.5274
      -865.7394
 -29466806.36549 -22941799.21448  19766708.6364   19766708.3634   19766710.8084
      -148.4214
 -22649299.12449 -17609657.83148  20861376.7554   20861376.5024   20861379.3314
      -205.7314
  -8161634.88747  -6163493.36546  23943123.6694   23943124.6234   23943125.9254
     -2247.5454
 -17107943.54748 -13306875.75647  21549115.1384   21549115.2904   21549117.4464
      2143.8344
 -13476212.73348 -10491810.32547  22892090.3454   22892090.3484   22892092.2214
     -3402.4874
 -12570536.48848  -9751720.52447  22841600.7254   22841601.3394   22841602.9834
     -1894.8234
 10  1  2  2 17  0.0000000  0 11G30G14G01G12G22G09G27G18G26G15G17
 -12545680.49247  -9721048.12946  23078778.7904   23078777.8784   23078780.8834
      3197.9624
  -5268015.04546  -4049173.77446  24284233.4934   24284231.7804   24284237.6694
      3354.1734
  -4468122.56348  -3471970.70747  23575679.7804   23575679.7034   23575681.9694
      3143.6424
 -25913339.18549 -20136336.06948  20876933.9414   20876934.0424   20876935.5974
      1492.1504
  -7063010.02147  -5468013.98546  24056676.4764   24056675.7134   24056674.7414
      -881.0484
 -29462133.38649 -22938157.93248  19767597.9154   19767597.7764   19767600.0324
      -163.5514
 -22643003.00049 -17604751.76248  20862574.9334   20862574.4874   20862577.5684
      -214.4874
  -8094073.49147  -6110848.12346  23955979.2394   23955978.9254   23955980.9594
     -2256.3734
 -17172001.07548 -13356790.70947  21536925.1224   21536925.4424   21536927.1484
      2126.2634
 -13374027.80648 -10412185.71247  22911535.5654   22911535.5134   22911537.2084
     -3410.1654
 -12513455.46248  -9707241.81047  22852463.2684   22852464.3134   22852466.3624
     -1910.8594
 10  1  2  2 17 30.0000000  0 11G30G14G01G12G22G09G27G18G26G15G17
 -12641523.16947  -9795730.71646  23060540.1284   23060540.2804   23060541.6304
      3190.8444
  -5368550.83847  -4127513.33246  24265103.9874   24265104.5484   24265103.3734
      3347.3024
  -4562344.59647  -3545390.45947  23557749.0174   23557749.3044   23557751.6024
      3136.9784
 -25957913.70149 -20171069.44548  20868451.8544   20868452.0384   20868453.2244
      1478.7614
  -7036342.51647  -5447234.16346  24061752.3684   24061752.0394   24061750.2934
      -897.3954
 -29457009.02549 -22934164.92748  19768573.0514   19768572.9324   19768575.4804
      -178.9384
 -22636439.37549 -17599637.25448  20863823.9354   20863823.3074   20863826.4304
      -223.8874
  -8026242.25147  -6057992.61746  23968888.4584   23968888.4554   23968890.5944
     -2266.4704
 -17235530.88048 -13406294.44747  21524835.7924   21524835.9024   21524837.8034
      2108.1614
 -13271606.74348 -10332377.09647  22931025.4294   22931025.9274   22931028.0684
     -3418.5534
 -12455894.69348  -9662389.26247  22863416.5814   22863416.4914   22863418.4924
     -1927.3584
 10  1  2  2 18  0.0000000  0 11G30G14G01G12G22G09G27G18G26G15G17
 -12737164.76048  -9870256.62446  23042339.9304   23042341.2074   23042343.4564
      3184.8654
  -5468886.17347  -4205696.71246  24246010.1064   24246009.5514   24246012.5154
      3341.1494
  -4656376.98347  -3618662.43247  23539855.7904   23539856.7534   23539858.0334
      3131.4704
 -26002099.21549 -20205499.70448  20860043.5634   20860043.7494   20860044.7954
      1466.4644
  -7009210.89747  -5426092.60846  24066911.1074   24066912.0934   24066915.5374
      -911.8404
 -29451432.88449 -22929819.88848  19769634.1664   19769634.0054   19769636.4164
      -193.3084
 -22629607.62249 -17594313.81448  20865123.9904   20865123.5724   20865126.5354
      -232.0214
  -7958144.04647  -6004929.09146  23981845.8114   23981846.3264   23981848.3614
     -2273.9664
 -17298531.01148 -13455385.45447  21512847.3504   21512847.2844   21512849.4664
      2091.2214
 -13168952.21248 -10252386.55447  22950560.0244   22950560.5544   22950562.9594
     -3425.6034
 -12397855.96848  -9617164.27547  22874461.2324   22874461.8004   22874462.7314
     -1942.4174
 10  1  2  2 18 30.0000000  0 11G30G14G01G12G22G09G27G18G26G15G17
 -12832602.86447  -9944623.96246  23024178.6634   23024178.5934   23024180.8084
      3177.8254
  -5569017.02447  -4283720.71946  24226956.3464   24226956.5144   24226955.9724
      3334.1764
  -4750217.50047  -3691784.90947  23521998.4914   23521998.8314   23522000.4724
      3124.6734
 -26045894.09949 -20239625.57948  20851709.7034   20851709.9464   20851710.9744
      1453.2164
  -6981615.03147  -5404589.38646  24072167.8284   24072166.2404   24072166.0314
      -927.4734
 -29445403.23749 -22925121.46248  19770781.5004   19770781.4344   19770783.9184
      -208.6404
 -22622505.64149 -17588779.80448  20866475.3754   20866475.2504   20866478.1934
      -241.2494
  -7889780.38347  -5951658.70646  23994855.5374   23994853.6094   23994856.5764
     -2283.6304
 -17360997.26448 -13504060.45147  21500960.2224   21500959.8734   21500962.7764
      2073.2874
 -13066064.85448 -10172214.58547  22970139.0624   22970139.3384   22970140.8524
     -3433.6144
 -12339340.07448  -9571567.46647  22885596.6664   22885596.6334   22885598.0454
     -1958.6894
 10  1  2  2 19  0.0000000  0 11G30G14G01G12G22G09G27G18G26G15G17
 -12927839.17348 -10018834.05646  23006056.1664   23006056.4604   23006057.8654
      3171.0544
  -5668943.62747  -4361585.60246  24207940.5094   24207940.1714   24207941.7504
      3327.3964
  -4843867.77647  -3764759.14647  23504176.8694   23504177.3304   23504179.8434
      3118.2384
 -26089300.84449 -20273449.00548  20843449.5184   20843449.7084   20843451.0934
      1440.3074
  -6953559.25947  -5382727.70246  24077502.3184   24077502.7834   24077503.6564
      -942.8094
 -29438922.22949 -22920071.32748  19772014.8834   19772014.5514   19772017.1804
      -223.7294
 -22615135.29449 -17583036.67948  20867877.9954   20867877.7044   20867880.7214
      -250.3304
  -7821156.88147  -5898185.85046  24007914.5594   24007914.6574   24007915.7664
     -2291.6344
 -17422930.27348 -13552319.93147  21489174.9244   21489174.6274   21489177.3184
      2055.3984
 -12962949.79248 -10091865.18847  22989760.7544   22989760.9174   22989763.9394
     -3441.2324
 -12280351.73548  -9525602.51847  22896821.3204   22896820.8874   22896823.6094
     -1974.5264
 10  1  2  2 19 30.0000000  0 11G30G14G01G12G22G09G27G18G26G15G17
 -13022871.60048 -10092885.28346  22987972.0334   22987972.6954   22987974.2504
      3164.0064
  -5768662.10247  -4439288.29146  24188964.6504   24188964.0214   24188966.9624
      3320.4224
  -4937325.99647  -3837583.72647  23486392.6654   23486393.1614   23486395.1254
      3111.9734
 -26132318.61149 -20306969.33048  20835263.6604   20835263.9264   20835264.8494
      1427.3044
  -6925044.48447  -5360508.45946  24082929.4334   24082931.5404   24082929.5504
      -958.5564
 -29431988.53249 -22914668.44648  19773334.3414   19773333.9794   19773336.7674
      -238.9144
 -22607495.19349 -17577083.35348  20869332.0054   20869331.7024   20869334.5804
      -259.3334
  -7752275.43847  -5844511.98846  24021020.5874   24021019.8944   24021024.3264
     -2300.5764
 -17484326.46448 -13600161.11447  21477491.4544   21477491.8964   21477494.0644
      2037.4694
 -12859608.54348 -10011339.53847  23009426.6814   23009426.5314   23009428.9694
     -3448.7644
 -12220891.94048  -9479270.21047  22908136.2564   22908136.0324   22908137.4644
     -1989.9994
 10  1  2  2 20  0.0000000  0 11G30G14G01G12G22G09G27G18G26G15G17
 -13117697.80548 -10166775.81547  22969926.9144   22969928.6854   22969930.3374
      3157.9124
  -5868168.40946  -4516825.66746  24170029.3474   24170027.2944   24170030.6764
      3313.7054
  -5030589.87047  -3910256.87247  23468645.0994   23468645.6044   23468647.8284
      3105.9954
 -26174946.15549 -20340185.59348  20827151.8674   20827152.0954   20827153.5504
      1414.9684
  -6896071.26447  -5337931.90546  24088441.2814   24088441.3374   24088442.0324
      -973.1984
 -29424600.14549 -22908911.26348  19774740.3874   19774740.1974   19774742.8274
      -253.4304
 -22599583.23549 -17570918.19348  20870837.3164   20870837.2754   20870839.8824
      -267.7614
  -7683137.69347  -5790638.41746  24034179.4234   24034178.4854   24034181.0444
     -2308.4954
 -17545182.18548 -13647581.15247  21465911.3864   21465911.1924   21465913.5594
      2019.8944
 -12756042.11448  -9930638.43247  23029134.2864   23029134.4434   23029136.7914
     -3455.5724
 -12160961.12948  -9432570.87947  22919540.6954   22919541.0264   22919542.6114
     -2004.8264
 10  1  2  2 20 30.0000000  0 11G30G14G01G12G22G09G27G18G26G15G17
 -13212320.27848 -10240507.59647  22951920.2034   22951921.5794   22951924.6844
      3150.5554
  -5967464.07147  -4594198.90646  24151134.2664   24151134.7584   24151136.5094
      3305.9574
  -5123662.12147  -3982780.69247  23450933.7794   23450933.8654   23450937.1544
      3098.9244
 -26217186.81949 -20373100.38348  20819113.6424   20819113.9864   20819115.2154
      1401.4494
  -6866644.92047  -5315002.28146  24094041.4264   24094041.9724   24094045.1934
      -988.3534
 -29416760.55349 -22902802.49148  19776232.2324   19776232.1334   19776234.5454
      -269.0314
 -22591402.25249 -17564543.40748  20872394.2024   20872393.9814   20872396.9444
      -277.2064
  -7613750.17747  -5736570.23246  24047383.2354   24047382.1704   24047385.6884
     -2317.1454
 -17605498.54648 -13694580.91247  21454433.1754   21454433.5244   21454435.9644
      2001.2894
 -12652256.68248  -9849766.66647  23048883.9864   23048884.1994   23048886.2254
     -3463.1704
 -12100565.12248  -9385509.05947  22931033.6204   22931034.0304   22931035.2484
     -2020.8414
 10  1  2  2 21  0.0000000  0 11G30G14G01G12G22G09G27G18G26G15G17
 -13306733.21448 -10314076.10947  22933955.0984   22933954.8254   22933957.3424
      3143.3554
  -6066541.41847  -4671402.06246  24132280.5374   24132279.7504   24132281.6444
      3298.9084
  -5216537.02747  -4055150.74147  23433260.4794   23433261.0814   23433262.8324
      3092.4034
 -26259035.82049 -20405709.98348  20811150.0894   20811150.1994   20811151.6354
      1388.4044
  -6836762.13447  -5291717.00046  24099728.3074   24099727.0644   24099727.3094
     -1003.7534
 -29408464.44749 -22896337.99548  19777810.8884   19777810.5964   19777813.0714
      -284.1214
 -22582946.64549 -17557954.62148  20874003.3824   20874003.2704   20874005.8384
      -286.5454
  -7544111.01247  -5682305.95846  24060634.6004   24060634.7234   24060637.1364
     -2325.3994
 -17665268.67648 -13741155.03747  21443059.4244   21443059.4694   21443061.8144
      1983.2204
 -12548249.85348  -9768722.38047  23068675.5594   23068676.4294   23068677.1794
     -3470.5834
 -12039700.95248  -9338082.42447  22942615.7884   22942616.0904   22942617.7894
     -2036.6034
 10  1  2  2 21 30.0000000  0 11G30G14G01G12G22G09G27G18G26G15G17
 -13400937.71748 -10387482.19546  22916028.0004   22916029.0064   22916031.0294
      3136.3804
  -6165400.14447  -4748434.83446  24113467.8624   24113467.0234   24113469.9764
      3291.5104
  -5309215.52547  -4127367.72947  23415624.2364   23415625.2114   23415627.4904
      3085.6484
 -26300495.21249 -20438015.99048  20803260.6414   20803260.8464   20803261.9714
      1375.2184
  -6806426.95047  -5268079.20046  24105498.5534   24105500.2644   24105503.3974
     -1018.8484
 -29399713.49549 -22889519.07548  19779476.0354   19779475.8244   19779478.2474
      -299.5464
 -22574217.89149 -17551152.99748  20875664.3304   20875663.8764   20875666.9124
      -295.6604
  -7474225.36847  -5627849.64346  24073934.0804   24073933.0964   24073935.0714
     -2334.2874
 -17724492.16948 -13787303.21347  21431789.6824   21431789.8584   21431792.0174
      1964.8754
 -12444026.37248  -9687509.28647  23088508.6954   23088508.6664   23088510.6384
     -3477.9694
 -11978373.12048  -9290294.50647  22954286.2414   22954286.0024   22954288.0354
     -2052.3104
 10  1  2  2 22  0.0000000  0 11G30G14G01G12G22G09G27G18G26G15G17
 -13494933.86948 -10460725.94447  22898141.4754   22898142.0264   22898144.6634
      3129.2234
  -6264038.22447  -4825295.68646  24094697.8764   24094697.3014   24094698.5454
      3283.7024
  -5401697.94248  -4199431.93847  23398025.9984   23398025.3694   23398027.9304
      3079.0454
 -26341566.19349 -20470019.34148  20795444.9344   20795445.0984   20795446.7204
      1362.0074
  -6775642.06747  -5244091.02746  24111359.5414   24111359.6824   24111358.5904
     -1034.3344
 -29390508.44749 -22882346.31248  19781227.8284   19781227.6904   19781229.8104
      -314.9074
 -22565216.15049 -17544138.65448  20877377.3984   20877376.9964   20877379.8684
      -305.3074
  -7404097.21247  -5573204.33146  24087278.4504   24087278.4554   24087278.5974
     -2341.7994
 -17783167.69248 -13833024.40347  21420623.9204   21420623.6444   21420626.2674
      1946.0444
 -12339589.27748  -9606129.73347  23108382.4174   23108382.4974   23108384.0984
     -3485.5024
 -11916584.36948  -9242147.43147  22966044.1764   22966043.8874   22966045.4804
     -2067.7984
 10  1  2  2 22 30.0000000  0 11G30G14G01G12G22G09G27G18G26G15G17
 -13588718.53148 -10533804.87147  22880295.3284   22880294.9744   22880298.4934
      3122.4264
  -6362451.18247  -4901981.14346  24075970.8624   24075970.5184   24075971.9934
      3276.4784
  -5493981.49248  -4271341.17747  23380464.4194   23380465.4374   23380467.3474
      3072.7124
 -26382246.86249 -20501718.55148  20787703.8224   20787703.8074   20787705.4074
      1349.3344
  -6744407.24647  -5219752.22646  24117304.3204   24117303.1114   24117303.6794
     -1048.9364
 -29380846.97349 -22874817.89148  19783066.3174   19783066.1944   19783068.6424
      -329.7904
 -22555938.90249 -17536909.62848  20879142.7664   20879142.2564   20879145.3624
      -314.1794
  -7333727.98447  -5518371.15046  24100668.9694   24100667.3324   24100669.9054
     -2350.7534
 -17841290.83648 -13878315.16247  21409563.4944   21409564.0704   21409565.9684
      1928.0234
 -12234939.19848  -9524584.21147  23128296.8144   23128297.3584   23128299.3584
     -3491.9844
 -11854335.03448  -9193641.44947  22977889.7754   22977889.9154   22977891.8294
     -2082.7814
 10  1  2  2 23  0.0000000  0 11G30G14G01G12G22G09G27G18G26G15G17
 -13682293.44848 -10606720.38847  22862487.9324   22862487.4984   22862490.9084
      3115.4964
  -6460639.16247  -4978491.27946  24057285.8444   24057285.5204   24057287.5914
      3269.2214
  -5586067.71647  -4343096.67247  23362941.5684   23362941.7714   23362942.8584
      3066.5964
 -26422539.51349 -20533115.41448  20780036.3304   20780036.4854   20780037.8734
      1336.5904
  -6712727.12347  -5195066.38146  24123331.2814   24123330.3834   24123332.3574
     -1063.3644
 -29370731.02849 -22866935.33848  19784991.2584   19784991.0324   19784993.5644
      -344.8104
 -22546387.91349 -17529467.30148  20880960.0804   20880959.8744   20880962.8204
      -322.9424
  -7263122.98147  -5463354.25846  24114105.2884   24114104.3394   24114107.0634
     -2357.7674
 -17898862.34648 -13923176.07947  21398607.8304   21398607.5044   21398610.3204
      1909.7784
 -12130081.22548  -9442876.70647  23148250.6344   23148251.0694   23148252.1934
     -3498.8434
 -11791629.48648  -9144779.97447  22989822.1944   22989821.5704   22989823.4164
     -2097.7124
 10  1  2  2 23 30.0000000  0 11G30G14G01G12G22G09G27G18G26G15G17
 -13775656.02648 -10679470.43447  22844721.6354   22844723.3084   22844723.3994
      3107.9804
  -6558597.77347  -5054822.66046  24038645.4804   24038644.5614   24038647.0764
      3261.0154
  -5677953.91047  -4414696.28047  23345455.6774   23345455.0984   23345458.6044
      3059.1884
 -26462442.16349 -20564208.37748  20772442.9624   20772443.2814   20772444.4654
      1323.1714
  -6680601.52247  -5170033.49946  24129447.5914   24129447.4334   24129446.8354
     -1078.4854
 -29360158.45649 -22858696.97148  19787003.2934   19787003.1004   19787005.5344
      -360.5214
 -22536560.86149 -17521809.86248  20882830.3374   20882830.2374   20882832.6864
      -332.5994
  -7192282.85847  -5408154.16246  24127584.9454   24127584.1614   24127586.0144
     -2366.0404
 -17955878.09348 -13967603.92547  21387758.0574   21387758.2314   21387760.8384
      1890.7154
 -12025016.22648  -9361007.87347  23168244.0634   23168243.5034   23168244.9254
     -3506.0724
 -11728468.27948  -9095563.44047  23001841.6974   23001841.7444   23001842.3794
     -2113.4624
 10  1  2  2 24  0.0000000  0 11G30G14G01G12G22G09G27G18G26G15G17
 -13868802.72448 -10752052.27047  22826996.5744   22826997.6334   22826999.4404
      3101.2364
  -6656321.80847  -5130971.26046  24020048.0284   24020047.5324   24020050.4744
      3253.6814
  -5769636.86347  -4486137.52947  23328008.3864   23328008.0634   23328011.9024
      3052.7624
 -26501953.16849 -20594996.16248  20764924.4604   20764924.4924   20764925.9214
      1310.5644
  -6648029.95947  -5144653.06446  24135644.6784   24135642.3214   24135641.2694
     -1092.9404
 -29349126.88249 -22850100.94048  19789102.5654   19789102.3844   19789104.7394
      -375.2934
 -22526454.69749 -17513934.93448  20884753.2074   20884753.1134   20884756.1344
      -341.4374
  -7121208.60347  -5352771.63346  24141109.0414   24141107.0914   24141111.5124
     -2373.2004
 -18012333.40748 -14011595.07747  21377015.1884   21377015.3564   21377017.5764
      1872.6834
 -11919743.88948  -9278977.48047  23188276.6504   23188275.8504   23188278.5054
     -3512.4594
 -11664851.42148  -9045991.85047  23013947.4324   23013947.7224   23013948.2484
     -2127.7274
 10  1  2  2 24 30.0000000  0 11G30G14G01G12G22G09G27G18G26G15G17
 -13961736.53148 -10824468.21747  22809312.4194   22809312.0174   22809315.1164
      3093.6944
  -6753812.92247  -5206938.36246  24001497.3844   24001496.7704   24001499.2874
      3245.3494
  -5861119.64248  -4557422.80247  23310601.3644   23310602.4204   23310601.9304
      3045.7664
 -26541076.35949 -20625481.75648  20757479.4794   20757479.5524   20757480.9304
      1297.0414
  -6615018.39847  -5118929.73046  24141926.5404   24141923.7064   24141926.1214
     -1108.0524
 -29337639.76249 -22841149.94148  19791288.3294   19791288.2214   19791290.7624
      -391.1104
 -22516072.70849 -17505845.07848  20886728.9734   20886728.6674   20886731.7734
      -351.2734
  -7049907.39347  -5297212.28246  24154678.1224   24154678.3434   24154679.6024
     -2381.2484
 -18068229.83248 -14055150.73247  21366378.6494   21366378.4334   21366381.5294
      1853.3604
 -11814270.55748  -9196790.46947  23208347.2094   23208348.4114   23208349.3364
     -3519.4864
 -11600784.62348  -8996069.66947  23026138.8794   23026138.1794   23026140.3424
     -2143.6324
 10  1  2  2 25  0.0000000  0 11G30G14G01G12G22G09G27G18G26G15G17
 -14054455.48948 -10896716.75847  22791667.9234   22791669.0874   22791670.5114
      3087.3634
  -6851066.88247  -5282720.70746  23982990.6984   23982989.1464   23982991.5634
      3238.3774
  -5952400.19347  -4628550.47747  23293230.6154   23293230.3984   23293233.1144
      3039.4374
 -26579809.98949 -20655663.79748  20750108.6434   20750108.8234   20750110.3114
      1284.8674
  -6581567.05247  -5092863.82946  24148291.5554   24148290.8794   24148291.9454
     -1121.9944
 -29325695.46349 -22831842.69548  19793561.3134   19793561.2944   19793563.6334
      -405.5154
 -22505412.75649 -17497538.62848  20888757.4484   20888757.1974   20888759.9114
      -359.6814
  -6978380.54747  -5241477.09246  24168289.4944   24168287.7054   24168289.0134
     -2388.0024
 -18123563.85948 -14098268.15047  21355848.4044   21355848.7614   21355851.1724
      1835.3204
 -11708597.65748  -9114447.95347  23228456.4464   23228456.2174   23228457.9414
     -3525.4974
 -11536268.85948  -8945797.64347  23038415.8034   23038416.3844   23038418.0614
     -2157.8074
 10  1  2  2 25 30.0000000  0 11G30G14G01G12G22G09G27G18G26G15G17
 -14146958.11248 -10968796.69747  22774064.6434   22774064.4364   22774068.8334
      3078.9214
  -6948080.77347  -5358315.97546  23964529.0124   23964527.7994   23964529.8334
      3229.1364
  -6043477.50347  -4699519.77347  23275898.4084   23275898.6644   23275902.1404
      3031.8494
 -26618154.23949 -20685542.42548  20742812.1034   20742812.2844   20742813.6304
      1270.8004
  -6547678.01247  -5066456.78046  24154742.0274   24154741.8454   24154740.4324
     -1137.6434
 -29313293.62549 -22822178.93048  19795921.2464   19795921.1904   19795923.4874
      -421.8494
 -22494474.15549 -17489015.04848  20890839.0504   20890838.8614   20890841.6704
      -370.1244
  -6906631.14547  -5185568.47746  24181943.4624   24181943.6714   24181945.2104
     -2396.2824
 -18178333.54948 -14140945.82547  21345426.3914   21345426.3094   21345429.0134
      1815.3614
 -11602727.48948  -9031951.72447  23248602.9124   23248602.8474   23248604.9754
     -3533.0814
 -11471305.99048  -8895177.23747  23050777.7144   23050778.6794   23050779.4044
     -2173.5874
 10  1  2  2 26  0.0000000  0 11G30G14G01G12G22G09G27G18G26G15G17
 -14239246.05348 -11040709.37347  22756503.7374   22756503.4444   22756506.3434
      3072.2264
  -7044855.04647  -5433724.47346  23946113.6384   23946112.9594   23946115.0314
      3221.4424
  -6134353.15547  -4770331.96247  23258605.7764   23258606.0124   23258608.1264
      3025.3304
 -26656111.99949 -20715119.89448  20735588.9244   20735589.0524   20735590.0944
      1258.3384
  -6513355.79447  -5039712.16146  24161268.8744   24161269.1774   24161269.1384
     -1151.6914
 -29300436.44249 -22812160.35348  19798367.9704   19798367.7914   19798370.2064
      -436.5724
 -22483259.08149 -17480276.03548  20892973.0704   20892972.8714   20892975.8604
      -378.9424
  -6834665.03347  -5129491.02346  24195637.7104   24195638.0564   24195637.4754
     -2402.7034
 -18232539.11148 -14183183.92447  21335111.3434   21335111.3494   21335113.8404
      1796.9734
 -11496665.09048  -8949305.69647  23268785.8644   23268785.8514   23268787.7464
     -3538.9884
 -11405900.92048  -8844212.25847  23063224.0204   23063223.6234   23063224.8364
     -2188.0834
 10  1  2  2 26 30.0000000  0 11G30G14G01G12G22G09G27G18G26G15G17
 -14331312.36748 -11112449.34147  22738984.3144   22738984.1354   22738985.6054
      3065.2514
  -7141380.81047  -5508939.32446  23927745.3734   23927745.6034   23927746.5704
      3213.7274
  -6225020.31747  -4840981.69247  23241352.4154   23241353.0724   23241355.3454
      3019.0694
 -26693677.34649 -20744391.58548  20728440.3834   20728440.8014   20728441.7834
      1245.8794
  -6478596.27347  -5012626.88746  24167887.6954   24167885.8644   24167885.9204
     -1165.7434
 -29287117.47649 -22801781.94348  19800902.5544   19800902.0684   19800904.8114
      -451.4124
 -22471760.50049 -17471316.11148  20895161.3574   20895161.4064   20895163.7784
      -387.7964
  -6762478.86747  -5073242.08746  24209374.9754   24209373.8074   24209374.2984
     -2409.5404
 -18286172.28048 -14224976.00147  21324905.3964   21324905.2444   21324907.5314
      1778.4334
 -11390407.03048  -8866507.20047  23289006.2714   23289007.3654   23289008.2544
     -3544.9584
 -11340049.80348  -8792899.70347  23075754.8664   23075755.3814   23075756.3194
     -2201.9064
 10  1  2  2 27  0.0000000  0 11G30G14G01G12G22G09G27G18G26G15G17
 -14423160.90748 -11184019.63547  22721504.9184   22721505.6024   22721509.1394
      3058.2184
  -7237659.94647  -5583962.04246  23909423.7194   23909424.5214   23909426.0044
      3205.4074
  -6315482.75648  -4911471.89947  23224138.4614   23224138.8394   23224140.5374
      3012.3004
 -26730854.98949 -20773361.16648  20721365.7374   20721365.8684   20721367.1704
      1233.0464
  -6443405.84347  -4985205.73746  24174578.9484   24174579.1374   24174581.9664
     -1180.0474
 -29273341.11549 -22791047.12448  19803524.0274   19803523.6644   19803526.1494
      -466.6064
 -22459982.55149 -17462138.49248  20897402.5674   20897402.2564   20897405.2004
      -397.0764
  -6690080.28447  -5016827.62646  24223150.2654   24223150.8714   24223152.2844
     -2416.3394
 -18339235.77548 -14266324.17047  21314807.5824   21314807.9664   21314810.0954
      1759.5724
 -11283960.22148  -8783561.64147  23309262.1014   23309262.9594   23309264.1794
     -3551.0954
 -11273759.27248  -8741244.73847  23088369.7804   23088369.7214   23088371.2404
     -2216.7054
 10  1  2  2 27 30.0000000  0 11G30G14G01G12G22G09G27G18G26G15G17
 -14514787.27248 -11255416.78947  22704069.8144   22704070.7094   22704072.0054
      3050.4294
  -7333686.89447  -5658788.24646  23891150.2884   23891149.9904   23891151.5954
      3196.5964
  -6405736.34247  -4981799.35447  23206963.3804   23206964.0134   23206966.9804
      3004.6524
 -26767641.66549 -20802026.10048  20714365.5734   20714365.5844   20714366.8454
      1219.5144
  -6407783.56747  -4957448.11046  24181362.7034   24181359.6544   24181361.3074
     -1194.8494
 -29259104.00549 -22779953.27848  19806233.2144   19806232.9244   19806235.4564
      -482.4704
 -22447921.29949 -17452740.11748  20899697.6434   20899697.3754   20899700.2154
      -406.9544
  -6617469.26547  -4960247.60746  24236967.2554   24236966.9404   24236968.2974
     -2424.3654
 -18391724.13948 -14307224.18947  21304819.4474   21304819.2664   21304821.9644
      1739.8834
 -11177323.81848  -8700468.34347  23329554.4014   23329553.9394   23329556.9994
     -3557.8394
 -11207028.37548  -8689246.63747  23101067.9354   23101067.7344   23101069.5344
     -2231.8674
 10  1  2  2 28  0.0000000  0 11G30G14G01G12G22G09G27G18G26G15G17
 -14606193.43748 -11326642.35647  22686675.6024   22686676.0424   22686678.4764
      3042.6364
  -7429461.53547  -5733417.82046  23872925.1494   23872923.5394   23872926.2124
      3188.3984
  -6495782.67048  -5051965.30647  23189828.2974   23189828.6584   23189830.1284
      2997.6174
 -26804040.02849 -20830388.44748  20707438.9654   20707439.1864   20707440.6214
      1206.3064
  -6371733.75047  -4929357.42346  24188220.8974   24188222.3434   24188220.6924
     -1209.4774
 -29244408.53349 -22768502.26648  19809029.7594   19809029.6384   19809032.0654
      -497.9714
 -22435578.76149 -17443122.56148  20902046.4574   20902046.4514   20902049.1584
      -416.4944
  -6544651.47946  -4903506.49046  24250824.8004   24250823.5734   24250826.6484
     -2431.4074
 -18443638.08248 -14347676.60447  21294940.5344   21294940.4544   21294943.1364
      1720.4394
 -11070503.25048  -8617231.53847  23349881.7484   23349882.4174   23349883.8404
     -3564.0934
 -11139861.83348  -8636909.07347  23113849.1334   23113849.0904   23113851.3774
     -2246.5634
