     2.11           OBSERVATION DATA    G (GPS)             RINEX VERSION / TYPE
teqc  2009Oct19     administrateur ccgps20100104 10:29:15UTCPGM / RUN BY / DATE
Solaris 5.9|UltraSparc IIe|cc -xarch=v9 SC5.8|=+-|*Sparc    COMMENT
teqc  2009Oct19     administrateur ccgps20100104 10:26:57UTCCOMMENT
teqc  2009Oct19     CNES                20100104 10:05:23UTCCOMMENT
MSXP|IAx86-PII|bcc32 5.0|MSWin95->XP|486/DX+                COMMENT
teqc  2009Oct19                         20100104 10:05:22UTCCOMMENT
BIT 2 OF LLI FLAGS DATA COLLECTED UNDER A/S CONDITION       COMMENT
GRAS                                                        MARKER NAME
10002M006                                                   MARKER NUMBER
CARDALIAGUET        CNES                                    OBSERVER / AGENCY
48002               ASHTECH UZ-12       CN00-1A01           REC # / TYPE / VERS
24222               ASH701945E_M    NONE                    ANT # / TYPE
  4581697.3100   556114.1400  4389365.5000                  APPROX POSITION XYZ
        0.0350        0.0000        0.0000                  ANTENNA: DELTA H/E/N
     1     1                                                WAVELENGTH FACT L1/2
     7    L1    L2    C1    P1    P2    D1    D2            # / TYPES OF OBSERV
    30.0000                                                 INTERVAL
Version: Version:                                           COMMENT
Project: A002_______CNE_____________                        COMMENT
 SNR is mapped to RINEX snr flag value [0-9]                COMMENT
  L1 & L2: min(max(int(snr_dBHz/6), 0), 9)                  COMMENT
pseudorange smoothing corrections not applied               COMMENT
Forced Modulo Decimation to 30 seconds                      COMMENT
  2010     1     3     0     0    0.0000000     GPS         TIME OF FIRST OBS
                                                            END OF HEADER
 10  1  3  0  0  0.0000000  0  9G18G05G08G10G28G09G27G15G17
  -9570360.22447  -7224398.14046  23549515.3054   23549513.9884   23549516.3664
      2018.8404
  -4617768.35047  -3586053.25946  23756303.4444   23756303.3954   23756305.4634
     -3584.1694
 -11037475.07547  -8587820.81246  23990476.7934   23990476.5904   23990480.6694
     -2925.8564
    -88348.19747    -23436.64046  25000810.7614   25000809.5714   25000812.8604
     -3698.3184
 -18094251.07948 -14058521.58947  22219771.6554   22219771.4954   22219773.3384
     -2132.7044
 -16993008.32348 -13149245.21647  22065514.4854   22065515.0594   22065517.8764
      2821.8144
 -17752519.30848 -13793010.51547  21979326.4444   21979326.2274   21979328.9534
      1543.2364
 -25514598.39249 -19868370.19148  20379385.6934   20379385.8284   20379387.2844
       422.8774
  -8471876.09948  -6564801.46647  23543773.4134   23543773.8514   23543775.0484
      2503.4974
 10  1  3  0  0 30.0000000  0 10G12G18G05G08G10G28G09G27G15G17
   -758933.77946   -572958.45545  25284334.6174   25284333.7444   25284335.5464
      3813.3124
  -9630668.88847  -7271391.89546  23538038.1584   23538037.9284   23538039.8274
      2002.4554
  -4510176.38747  -3502215.38646  23776777.4554   23776777.8684   23776780.2714
     -3588.9414
 -10949642.15347  -8519379.58046  24007190.7144   24007189.8354   24007194.5774
     -2928.8704
     22604.69047     63020.16346  25021923.5194   25021921.3284   25021927.7894
     -3697.7304
 -18030079.21948 -14008517.55247  22231983.0614   22231982.3944   22231984.2494
     -2144.9574
 -17077538.84548 -13215113.14547  22049429.2594   22049429.1534   22049431.3154
      2814.0864
 -17798710.29548 -13829003.48447  21970536.9034   21970536.7144   21970538.9674
      1536.7184
 -25527033.74849 -19878060.08548  20377019.3194   20377019.5894   20377021.0224
       406.7154
  -8546817.16748  -6623197.10047  23529512.6764   23529512.8654   23529514.4714
      2493.1794
 10  1  3  0  1  0.0000000  0 10G12G18G05G08G10G28G09G27G15G17
   -873294.70046   -662070.90545  25262571.6714   25262570.8784   25262571.2904
      3811.0974
  -9690516.73447  -7318026.59246  23526649.7894   23526649.5544   23526651.1684
      1987.6054
  -4402487.16447  -3418301.70846  23797270.0034   23797269.2524   23797273.3484
     -3591.3174
 -10861746.71647  -8450889.66146  24023917.4864   24023916.8974   24023920.8814
     -2930.3864
    133506.05847    149436.77946  25043027.4314   25043027.1714   25043029.3704
     -3695.4434
 -17965561.50948 -13958244.00847  22244260.2904   22244260.5264   22244261.4974
     -2156.1424
 -17161856.63048 -13280815.30447  22033384.1584   22033383.7844   22033386.6324
      2807.1914
 -17844727.80348 -13864861.27247  21961779.8784   21961779.9834   21961782.9784
      1531.2004
 -25539007.43249 -19887390.23348  20374740.9074   20374741.2154   20374742.5224
       391.6894
  -8621476.19948  -6681372.95847  23515305.4854   23515306.1934   23515308.2474
      2484.2784
 10  1  3  0  1 30.0000000  0 10G12G18G05G08G10G28G09G27G15G17
   -987605.76146   -751144.38345  25240819.1104   25240817.9544   25240821.2314
      3809.3954
  -9749904.09247  -7364302.45446  23515349.0654   23515347.8284   23515350.3664
      1971.5524
  -4294705.68547  -3334316.14646  23817780.4204   23817781.0404   23817782.4404
     -3594.5654
 -10773791.55347  -8382353.20746  24040654.3094   24040653.0824   24040658.7744
     -2932.9134
    244351.26647    235809.68046  25064120.2484   25064119.2374   25064124.0654
     -3694.2274
 -17900702.35648 -13907704.41147  22256602.7564   22256602.1974   22256604.1804
     -2167.9974
 -17245963.21548 -13346352.88747  22017378.7124   22017378.7064   22017380.8904
      2799.7904
 -17890574.26848 -13900585.78347  21953055.6284   21953055.8364   21953058.2564
      1525.0384
 -25550521.09849 -19896361.92748  20372549.9344   20372550.0994   20372551.6364
       375.8064
  -8695852.74348  -6739328.70547  23501152.5444   23501152.2644   23501155.0824
      2474.2854
 10  1  3  0  2  0.0000000  0 10G12G18G05G08G10G28G09G27G15G17
  -1101862.31446   -840175.44446  25219077.0604   25219076.5124   25219079.1444
      3808.0494
  -9808826.02247  -7410215.64346  23504136.2514   23504135.6674   23504138.1644
      1956.7074
  -4186831.75547  -3250258.54446  23838308.2494   23838308.2144   23838310.4094
     -3597.0224
 -10685773.97547  -8313768.10446  24057404.3044   24057403.1854   24057407.6884
     -2934.2794
    355140.97647    322139.29746  25085202.8454   25085201.1914   25085206.7854
     -3691.8404
 -17835500.81548 -13856898.02347  22269010.2204   22269009.8484   22269011.3544
     -2178.6554
 -17329854.54948 -13411722.74947  22001415.2834   22001414.0164   22001417.4534
      2793.1404
 -17936246.84348 -13936174.79247  21944364.4034   21944363.8414   21944366.9344
      1519.9724
 -25561570.49449 -19904971.85048  20370447.1344   20370447.6844   20370448.9804
       360.9754
  -8769940.71548  -6797059.58847  23487053.7424   23487054.5684   23487055.7194
      2465.1104
 10  1  3  0  2 30.0000000  0 10G12G18G05G08G10G28G09G27G15G17
  -1216063.04647   -929162.98546  25197345.2844   25197345.9714   25197347.6634
      3806.2294
  -9867281.64747  -7455765.46746  23493012.1374   23493012.3334   23493013.1894
      1941.0014
  -4078869.59547  -3166132.19746  23858852.8874   23858852.8244   23858854.9924
     -3600.0754
 -10597696.19447  -8245136.08046  24074164.1454   24074164.7444   24074168.3774
     -2937.0364
    465871.27947    408422.67246  25106274.7184   25106272.3194   25106277.6674
     -3689.8024
 -17769960.07848 -13805827.32247  22281482.1374   22281482.4114   22281483.7654
     -2190.2144
 -17413530.85648 -13476925.05947  21985491.8384   21985491.7824   21985494.2184
      2785.8184
 -17981746.85948 -13971629.34047  21935705.9874   21935706.0924   21935708.6314
      1513.9694
 -25572155.67549 -19913220.04248  20368433.0214   20368433.2454   20368434.5854
       345.2044
  -8843738.37748  -6854564.25847  23473010.4574   23473010.8684   23473012.8734
      2455.2254
 10  1  3  0  3  0.0000000  0 10G12G18G05G08G10G28G09G27G15G17
  -1330209.14647  -1018108.02846  25175624.6284   25175623.9674   25175622.3264
      3804.2374
  -9925271.98947  -7500952.75646  23481977.8414   23481977.5454   23481977.6594
      1925.5464
  -3970825.14947  -3081941.73146  23879412.8274   23879413.0264   23879415.5154
     -3603.1194
 -10509561.71047  -8176459.87546  24090935.8404   24090935.5334   24090938.2064
     -2938.8094
    576537.03447    494655.71546  25127333.7764   25127332.8364   25127335.8064
     -3687.7824
 -17704085.12648 -13754496.19447  22294017.7744   22294017.3354   22294018.8104
     -2201.2174
 -17496993.95748 -13541961.22547  21969609.3824   21969609.5474   21969611.4744
      2778.6864
 -18027077.14048 -14006951.62747  21927079.9044   21927079.6544   21927082.6614
      1508.2984
 -25582278.22049 -19921107.74248  20366506.6804   20366507.0584   20366508.3264
       329.8814
  -8917245.82248  -6911842.77947  23459022.2324   23459022.7654   23459024.1714
      2445.6184
 10  1  3  0  3 30.0000000  0 10G12G18G05G08G10G28G09G27G15G17
  -1444294.43247  -1107005.66745  25153914.0354   25153914.4194   25153917.4864
      3801.2524
  -9982790.93947  -7545772.70146  23471032.0004   23471032.1784   23471032.0094
      1909.2104
  -3862696.15347  -2997685.36746  23899988.9184   23899989.0804   23899990.4414
     -3605.7224
 -10421367.08647  -8107736.80746  24107718.6634   24107718.6684   24107722.2764
     -2941.0954
    687139.96447    580839.82446  25148380.2824   25148379.7534   25148385.0464
     -3686.5494
 -17637873.75648 -13702902.92047  22306617.1164   22306617.2804   22306619.0544
     -2212.8914
 -17580238.70948 -13606827.25747  21953768.7614   21953768.5994   21953770.6984
      2770.7244
 -18072233.65348 -14042138.51747  21918486.9364   21918486.6514   21918489.5204
      1502.0224
 -25591932.91249 -19928630.88248  20364669.4844   20364669.9194   20364671.1324
       313.7744
  -8990455.58148  -6968889.35047  23445091.1304   23445091.4044   23445093.3184
      2435.0944
 10  1  3  0  4  0.0000000  0 10G12G18G05G08G10G28G09G27G15G17
  -1558320.84947  -1195857.52145  25132215.7254   25132217.8724   25132220.4684
      3799.2764
 -10039840.27447  -7590226.72046  23460175.5764   23460176.8064   23460176.8754
      1893.2014
  -3754489.72247  -2913368.66446  23920580.2794   23920580.6704   23920582.6594
     -3608.4894
 -10333116.36147  -8038970.02546  24124512.0344   24124512.3274   24124516.1694
     -2943.3344
    797674.15047    666970.36346  25169414.2254   25169414.1224   25169417.6144
     -3683.5514
 -17571331.67848 -13651051.94847  22319280.1164   22319279.6194   22319280.9684
     -2224.1454
 -17663268.15448 -13671525.50247  21937968.4924   21937968.5224   21937970.8124
      2763.5574
 -18117220.29648 -14077193.03647  21909926.2254   21909925.7914   21909928.6694
      1496.0554
 -25601122.74149 -19935791.79048  20362920.7264   20362921.0194   20362922.4534
       297.9734
  -9063368.77548  -7025704.81547  23431216.0884   23431216.6484   23431218.4634
      2424.9454
 10  1  3  0  4 30.0000000  0 10G12G18G05G08G10G28G09G27G15G17
  -1672284.28047  -1284660.21046  25110529.2344   25110528.5054   25110530.1034
      3797.9854
 -10096416.49947  -7634312.08846  23449409.5644   23449407.7574   23449410.9564
      1878.2304
  -3646206.88447  -2828992.42846  23941186.0104   23941186.0714   23941187.6534
     -3610.4524
 -10244808.41347  -7970158.65446  24141316.8124   24141316.0494   24141320.1164
     -2943.9984
    908139.24947    753047.00546  25190435.6224   25190434.5064   25190439.2954
     -3680.7064
 -17504459.09748 -13598943.45147  22332005.0394   22332004.9744   22332006.1554
     -2234.1444
 -17746079.39748 -13736053.71747  21922209.9324   21922209.3414   21922212.9714
      2756.9074
 -18162035.24648 -14112113.77147  21901398.4144   21901398.2144   21901401.0644
      1491.1904
 -25609844.33249 -19942587.83948  20361261.0754   20361261.4664   20361262.6984
       283.1744
  -9135980.49948  -7082285.37647  23417398.7134   23417398.2834   23417400.7074
      2415.5744
 10  1  3  0  5  0.0000000  0 10G12G18G05G08G10G28G09G27G15G17
  -1786181.21047  -1373411.06046  25088855.7014   25088855.6634   25088857.1914
      3795.3424
 -10152516.01147  -7678025.99446  23438734.7604   23438734.4344   23438735.2134
      1861.9544
  -3537849.12147  -2744557.79546  23961805.5184   23961804.6494   23961806.7064
     -3613.3494
 -10156441.78247  -7901301.54546  24158132.9194   24158131.6184   24158135.6874
     -2946.6364
   1018533.94647    839068.89546  25211443.2344   25211440.7794   25211446.5154
     -3678.4794
 -17437256.58148 -13546577.85247  22344793.6954   22344793.1294   22344794.8554
     -2245.7314
 -17828670.07948 -13800410.06347  21906493.2674   21906492.7794   21906496.4684
      2749.3784
 -18206676.82548 -14146899.40647  21892903.2354   21892902.7114   21892906.1364
      1484.9484
 -25618095.24549 -19949017.12448  20359690.9744   20359691.3234   20359692.6624
       267.0394
  -9208286.54748  -7138627.73947  23403639.0324   23403639.5644   23403640.9694
      2404.8074
 10  1  3  0  5 30.0000000  0 10G12G18G05G08G10G28G09G27G15G17
  -1900011.33447  -1462109.86846  25067194.2134   25067194.6514   25067195.8334
      3793.2654
 -10208139.44947  -7721368.93046  23428149.7064   23428149.5974   23428153.0404
      1846.3124
  -3429421.08447  -2660068.42446  23982438.7534   23982438.8774   23982441.3324
     -3615.0934
 -10068019.81447  -7832401.33446  24174958.8634   24174957.1804   24174961.7834
     -2948.1874
   1128854.39547    925032.87746  25232435.8384   25232434.8424   25232438.7814
     -3676.0054
 -17369728.66148 -13493958.69647  22357643.7744   22357642.9184   22357644.8574
     -2256.3344
 -17911041.43448 -13864595.52547  21890819.1084   21890818.5604   21890821.2174
      2742.3534
 -18251147.38048 -14181551.78147  21884440.5304   21884440.6234   21884443.1404
      1479.6744
 -25625876.72049 -19955080.61348  20358210.2204   20358210.6084   20358211.8874
       251.6584
  -9280285.83748  -7194731.07647  23389937.8784   23389938.7014   23389940.0074
      2395.0754
 10  1  3  0  6  0.0000000  0 10G12G18G05G08G10G28G09G27G15G17
  -2013773.25547  -1550755.52146  25045546.1864   25045545.9834   25045548.1784
      3790.9894
 -10263285.23847  -7764339.66446  23417655.7654   23417655.6594   23417657.5034
      1830.0474
  -3320926.06747  -2575526.86346  24003084.9384   24003085.0054   24003087.2874
     -3617.5044
  -9979543.23647  -7763458.57046  24191795.3454   24191794.9704   24191797.9544
     -2950.1764
   1239097.51447   1010936.58745  25253414.5674   25253414.3484   25253416.0674
     -3673.6024
 -17301877.78148 -13441087.88447  22370555.1874   22370555.0594   22370556.4214
     -2267.1674
 -17993192.96848 -13928609.68647  21875185.7544   21875185.9364   21875187.7464
      2734.7604
 -18295447.51748 -14216071.37347  21876010.8844   21876010.4304   21876013.6514
      1473.8854
 -25633187.94249 -19960777.66648  20356818.9594   20356819.0694   20356820.6324
       235.8554
  -9351976.23048  -7250593.72247  23376295.4754   23376295.7804   23376298.2804
      2384.3374
 10  1  3  0  6 30.0000000  0 10G12G18G05G08G10G28G09G27G15G17
  -2127463.39447  -1639345.23546  25023911.7774   25023911.8254   25023913.5514
      3788.4184
 -10317949.52347  -7806935.20946  23407253.4244   23407252.1954   23407254.5624
      1814.3254
  -3212364.86347  -2490933.71946  24023743.0994   24023743.1894   24023746.3614
     -3619.7694
  -9891010.49747  -7694472.03046  24208642.8524   24208642.8014   24208646.2874
     -2951.9534
   1349262.90447   1096779.78245  25274377.6134   25274376.1514   25274378.0054
     -3670.7344
 -17233703.62548 -13387965.17147  22383528.3304   22383527.7314   22383529.9064
     -2277.7314
 -18075121.49448 -13992450.08947  21859595.2854   21859595.0684   21859597.3564
      2727.5014
 -18339574.94248 -14250456.38247  21867613.6514   21867613.3954   21867616.0874
      1468.1794
 -25640026.05649 -19966106.06948  20355517.5664   20355517.8434   20355519.4444
       220.1934
  -9423352.64148  -7306211.70447  23362713.4674   23362712.9964   23362714.9084
      2374.0734
 10  1  3  0  7  0.0000000  0 10G12G18G05G08G10G28G09G27G15G17
  -2241082.13347  -1727879.31146  25002290.6854   25002290.3834   25002293.3984
      3785.7744
 -10372133.16347  -7849156.24446  23396942.4874   23396941.8964   23396943.8404
      1797.9264
  -3103742.78447  -2406293.13647  24044412.9364   24044413.5024   24044416.4824
     -3621.8704
  -9802425.08247  -7625444.44046  24225499.8294   24225498.9344   24225502.7664
     -2953.6004
   1459345.52847   1182558.44545  25295326.6294   25295326.1874   25295329.0474
     -3668.0224
 -17165210.95648 -13334594.25947  22396562.4254   22396562.2994   22396563.3124
     -2288.4364
 -18156828.74848 -14056118.06147  21844046.6774   21844046.5344   21844048.7284
      2719.5924
 -18383532.41748 -14284708.95347  21859248.5424   21859248.4934   21859251.6974
      1462.1494
 -25646392.45949 -19971066.90548  20354306.1194   20354306.3724   20354307.9524
       204.1114
  -9494414.88748  -7361584.87847  23349190.4324   23349190.0184   23349193.1244
      2363.2494
 10  1  3  0  7 30.0000000  0 10G12G18G05G08G10G28G09G27G15G17
  -2354625.85247  -1816354.90146  24980683.4684   24980685.5014   24980686.8394
      3783.6314
 -10425833.31147  -7891000.51546  23386723.8084   23386722.4764   23386724.4304
      1781.7844
  -2995061.41047  -2321606.37047  24065094.7874   24065094.7734   24065096.8554
     -3623.4134
  -9713786.12047  -7556375.14146  24242367.0924   24242366.5544   24242371.5614
     -2955.6214
   1569344.11146   1268271.66245  25316258.6104   25316256.1934   25316262.6084
     -3665.3024
 -17096400.86948 -13280976.00947  22409656.5094   22409655.2444   22409657.6044
     -2298.9764
 -18238312.77248 -14119612.09147  21828540.4114   21828540.4404   21828543.1494
      2712.2294
 -18427318.87048 -14318828.27047  21850916.2884   21850916.0974   21850919.1674
      1456.7194
 -25652285.08149 -19975658.55848  20353184.8074   20353185.1004   20353186.4284
       188.4414
  -9565158.61648  -7416709.86247  23335728.5594   23335729.5454   23335729.9454
      2352.7554
 10  1  3  0  8  0.0000000  0 10G12G18G05G08G10G28G09G27G15G17
  -2468092.21747  -1904770.18046  24959091.8114   24959090.5634   24959094.7914
      3780.7814
 -10479046.95347  -7932465.68546  23376597.7504   23376598.0574   23376598.9104
      1765.4254
  -2886322.56647  -2236874.81047  24085786.8824   24085787.6804   24085789.9534
     -3625.6164
  -9625093.12147  -7487263.73146  24259245.0884   24259244.5904   24259248.3004
     -2957.6244
   1679257.872 6   1353918.73545  25337174.495                    25337180.5274
     -3662.536
 -17027274.04048 -13227110.95147  22422810.9074   22422809.8664   22422812.5174
     -2309.6564
 -18319571.40348 -14182930.49547  21813077.9914   21813077.7224   21813080.2164
      2704.6244
 -18470933.04348 -14352813.33747  21842616.8704   21842616.9354   21842619.4024
      1450.7414
 -25657701.80949 -19979879.38448  20352154.0404   20352154.4274   20352155.7584
       172.4414
  -9635579.84248  -7471583.54347  23322327.8044   23322327.1384   23322329.9524
      2341.8724
 10  1  3  0  8 30.0000000  0 10G12G18G05G08G10G28G09G27G15G17
  -2581479.40347  -1993123.78646  24937515.1284   24937515.1874   24937518.2244
      3778.1114
 -10531772.68047  -7973550.66346  23366564.0374   23366563.2224   23366565.2344
      1748.8184
  -2777529.47447  -2152100.98547  24106489.3994   24106488.8434   24106491.9034
     -3627.5864
  -9536347.12947  -7418111.02246  24276132.5864   24276133.6904   24276137.3154
     -2959.2124
   1789083.72046   1439497.33345  25358072.5694   25358071.9014   25358076.6464
     -3659.4664
 -16957833.22048 -13173001.22647  22436024.8604   22436024.3324   22436026.3534
     -2320.0784
 -18400604.46348 -14246073.13047  21797657.7634   21797658.0674   21797660.2754
      2697.2084
 -18514375.82448 -14386664.84847  21834350.1934   21834350.1484   21834352.4284
      1444.9864
 -25662642.29849 -19983729.11948  20351213.8714   20351214.2564   20351215.5764
       156.5014
  -9705676.64248  -7526204.42647  23308989.1364   23308988.5444   23308990.7584
      2330.9334
 10  1  3  0  9  0.0000000  0 10G12G18G05G08G10G28G09G27G15G17
  -2694786.02346  -2081414.64346  24915953.3224   24915953.3704   24915955.7094
      3775.4324
 -10584009.71347  -8014254.83546  23356623.5914   23356622.6594   23356625.3634
      1732.7614
  -2668685.46647  -2067287.47847  24127201.4974   24127202.0244   24127203.8414
     -3629.0864
  -9447548.84547  -7348917.55446  24293030.8174   24293029.7034   24293034.0464
     -2961.0374
   1898818.78246   1525005.12745  25378955.4714   25378953.6954   25378958.3714
     -3656.3554
 -16888081.04748 -13118648.88547  22449298.0954   22449297.3774   22449300.0974
     -2330.5424
 -18481411.46848 -14309039.60847  21782281.0364   21782281.0104   21782283.7334
      2689.4584
 -18557647.75948 -14420383.24248  21826115.7104   21826115.2704   21826118.4804
      1439.3714
 -25667106.04449 -19987207.37148  20350364.5584   20350364.8334   20350366.2364
       140.5684
  -9775446.33148  -7580570.41847  23295712.0984   23295711.3494   23295713.8014
      2320.0414
 10  1  3  0  9 30.0000000  0 10G12G18G05G08G10G28G09G27G15G17
  -2808011.74446  -2169642.39446  24894407.1584   24894407.8594   24894410.3734
      3772.7014
 -10635758.00747  -8054578.20046  23346776.8034   23346776.2394   23346776.0594
      1716.9964
  -2559795.35147  -1982438.05046  24147923.2444   24147922.9274   24147924.3794
     -3630.2254
  -9358701.36847  -7279685.75246  24309937.5594   24309937.0824   24309941.5114
     -2962.3284
   5159299.07146   4065639.08545  25399819.6704   25399817.2474   25399822.0144
     -3652.7494
 -16818021.42448 -13064056.97247  22462630.1544   22462630.0584   22462630.8404
     -2340.2884
 -18561993.12348 -14371830.49647  21766946.9524   21766946.3534   21766949.0064
      2682.3794
 -18600750.67948 -14453969.93548  21817913.4624   21817913.1844   21817916.1994
      1434.1034
 -25671094.13149 -19990314.97748  20349605.6564   20349605.9364   20349607.2934
       125.0984
  -9844888.07748  -7634680.87147  23282497.8024   23282497.4654   23282499.7094
      2309.4164
 10  1  3  0 10  0.0000000  0 10G12G18G05G08G10G28G09G27G15G17
  -2921151.31646  -2257802.98046  24872876.9444   24872877.2264   24872879.1014
      3769.8344
 -10687012.76547  -8094516.98046  23337022.2484   23337023.2924   23337024.4624
      1700.2964
  -2450858.40447  -1897552.14246  24168653.0954   24168653.4214   24168654.9424
     -3632.1754
  -9269801.76447  -7210413.33546  24326854.1744   24326853.9524   24326857.0324
     -2964.5484
   5268845.39046   4150999.88345  25420665.7004   25420665.9304   25420665.1364
     -3650.0484
 -16747653.34348 -13009224.71147  22476020.2434   22476021.0474   22476021.8724
     -2350.9934
 -18642345.42948 -14434442.66347  21751656.0524   21751655.6854   21751658.4334
      2674.2414
 -18643681.24848 -14487422.32848  21809743.9734   21809743.6344   21809746.4524
      1427.8894
 -25674602.13349 -19993048.49248  20348938.1694   20348938.2854   20348939.7544
       108.6774
  -9913995.88448  -7688531.10947  23269347.1074   23269346.9884   23269348.6834
      2297.7274
 10  1  3  0 10 30.0000000  0 10G12G18G05G08G10G28G09G27G15G17
  -3034205.70746  -2345897.28946  24851364.5524   24851364.4404   24851365.7694
      3766.9134
 -10737774.80647  -8134071.81646  23327364.0474   23327362.6354   23327364.4244
      1683.3734
  -2341880.51347  -1812634.32746  24189390.9334   24189390.8664   24189392.7814
     -3633.1414
  -9180853.74947  -7141103.20146  24343780.7664   24343779.7534   24343785.1344
     -2965.9224
   5378292.40045   4236283.22245  25441489.9074   25441490.3034   25441494.5704
     -3646.7544
 -16676981.53348 -12954155.77247  22489468.9974   22489469.1004   22489470.4524
     -2361.1384
 -18722470.02548 -14496877.39447  21736408.8394   21736408.9584   21736411.6434
      2666.6584
 -18686442.36148 -14520742.66948  21801606.8324   21801606.5854   21801609.3214
      1422.3124
 -25677631.91249 -19995409.35748  20348361.8334   20348361.7894   20348363.2964
        92.7284
  -9982769.60848  -7742121.01447  23256259.9874   23256260.2274   23256262.2344
      2286.6094
 10  1  3  0 11  0.0000000  0 10G12G18G05G08G10G28G09G27G15G17
  -3147169.83846  -2433921.24046  24829866.7034   24829866.7974   24829868.8644
      3763.8244
 -10788039.82647  -8173239.38546  23317797.5864   23317797.3914   23317798.8154
      1667.2194
  -2232861.01247  -1727684.07846  24210136.4664   24210136.4444   24210139.3154
     -3634.9764
  -9091854.10847  -7071752.82346  24360716.9884   24360716.9224   24360720.3054
     -2967.3044
   5487641.13046   4321489.95745  25462301.3384   25462300.3774   25462303.1674
     -3643.3924
 -16606004.91948 -12898849.32547  22502975.5214   22502975.1174   22502976.5124
     -2371.0234
 -18802363.14748 -14559131.74947  21721205.8644   21721205.3684   21721208.4034
      2659.2704
 -18729030.90448 -14553928.54348  21793502.6254   21793502.1574   21793505.3744
      1416.6994
 -25680179.86649 -19997394.77848  20347876.8224   20347877.0584   20347878.4014
        76.6924
 -10051203.48548  -7795446.11347  23243237.5094   23243238.3394   23243239.9024
      2275.3114
 10  1  3  0 11 30.0000000  0 10G12G18G05G08G10G28G09G27G15G17
  -3260044.72946  -2521875.61846  24808388.6304   24808388.7324   24808390.8704
      3760.5424
 -10837808.87047  -8212020.45346  23308327.4024   23308327.0304   23308329.2384
      1650.4944
  -2123806.21147  -1642706.33046  24230888.3284   24230888.3374   24230891.2314
     -3636.1214
  -9002805.84347  -7002364.53946  24377661.6404   24377661.7894   24377663.9184
     -2969.5064
   5596886.45646   4406616.13145  25483089.0244   25483089.2034   25483094.5804
     -3639.8254
 -16534728.82748 -12843309.52447  22516538.7684   22516538.6524   22516539.8434
     -2381.1084
 -18882026.85648 -14621207.34947  21706046.1604   21706046.4134   21706049.0074
      2651.2104
 -18771449.83848 -14586982.25548  21785430.5104   21785430.2514   21785433.0814
      1410.7654
 -25682247.71549 -19999006.09848  20347483.1754   20347483.4934   20347484.9204
        60.5454
 -10119297.68748  -7848506.52847  23230279.5144   23230280.4484   23230282.0594
      2263.8174
 10  1  3  0 12  0.0000000  0 10G12G18G05G08G10G28G09G27G15G17
  -3372824.86846  -2609756.22446  24786926.4834   24786926.5334   24786928.9204
      3757.3014
 -10887077.34247  -8250411.48146  23298952.5374   23298952.3004   23298953.1894
      1633.3384
  -2014714.70347  -1557699.98946  24251648.2754   24251648.4224   24251651.2874
     -3636.9744
  -8913707.16747  -6932936.98646  24394617.0284   24394617.1814   24394619.8424
     -2971.1264
   5706029.11546   4491662.38545  25503858.1434   25503855.0854   25503858.1314
     -3636.7614
 -16463151.96348 -12787535.34847  22530159.4784   22530159.2654   22530160.8394
     -2391.1734
 -18961456.76848 -14683100.77347  21690931.1614   21690930.4474   21690933.4494
      2643.5254
 -18813695.99348 -14619901.32748  21777391.4914   21777390.7974   21777393.8664
      1405.0934
 -25683831.35549 -20000240.11148  20347181.8604   20347182.1474   20347183.4634
        44.3904
 -10187045.74948  -7901297.21647  23217387.3004   23217387.2044   23217389.0144
      2252.3124
 10  1  3  0 12 30.0000000  0 10G12G18G05G08G10G28G09G27G15G17
  -3485513.59647  -2697565.57946  24765481.8904   24765483.0274   24765485.5814
      3754.2324
 -10935848.44447  -8288414.94046  23289671.1464   23289670.6364   23289670.8984
      1617.1604
  -1905595.06047  -1472671.72046  24272413.1054   24272413.0044   24272415.8374
     -3637.7384
  -8824564.08847  -6863474.83246  24411580.8154   24411580.5044   24411583.5794
     -2972.3924
   5815062.21746   4576623.21745  25524606.4674   25524604.9174   25524609.3184
     -3632.1664
 -16391281.61048 -12731532.48547  22543835.9874   22543835.1374   22543838.2124
     -2400.8714
 -19040657.31848 -14744815.47047  21675859.6244   21675859.4324   21675862.1204
      2635.9454
 -18855774.81549 -14652690.01348  21769383.9814   21769383.6654   21769386.9894
      1399.6624
 -25684935.24649 -20001100.29248  20346971.6804   20346971.9094   20346973.4374
        28.6234
 -10254450.20948  -7953820.17647  23204560.5984   23204560.8914   23204562.7804
      2240.8404
 10  1  3  0 13  0.0000000  0 10G12G18G05G08G10G28G09G27G15G17
  -3598105.42947  -2785299.47746  24744057.5864   24744057.5634   24744059.7184
      3751.0634
 -10984117.29847  -8326027.04146  23280485.6684   23280484.9814   23280486.8524
      1600.1234
  -1796446.50547  -1387620.91046  24293183.6314   24293184.1334   24293185.6584
     -3638.9484
  -8735373.12247  -6793975.36746  24428553.3884   24428551.2554   24428555.1234
     -2974.1914
   5923986.54746   4661499.20946  25545334.1654   25545332.5164   25545338.2174
     -3629.1634
 -16319116.18948 -12675299.68747  22557568.7434   22557567.9414   22557570.1954
     -2410.7214
 -19119623.81248 -14806347.79547  21660832.7314   21660832.7084   21660835.6214
      2627.9264
 -18897682.50448 -14685345.35248  21761408.8314   21761408.7504   21761411.5434
      1393.6934
 -25685554.84049 -20001583.09948  20346853.8724   20346854.0454   20346855.5044
        12.1894
 -10321504.80048  -8006070.48847  23191800.9504   23191800.9804   23191802.9374
      2228.8814
 10  1  3  0 13 30.0000000  0 10G12G18G05G08G10G28G09G27G15G17
  -3710590.85947  -2872950.47746  24722652.8384   24722652.8544   24722654.5134
      3748.1234
 -11031874.82447  -8363240.71146  23271398.4664   23271396.8794   23271399.0164
      1583.6034
  -1687264.01147  -1302543.65046  24313960.0464   24313961.0064   24313962.5634
     -3639.2314
  -8646126.80147  -6724432.74646  24445536.0634   24445535.1844   24445539.6684
     -2975.5444
   6032807.16946   4746294.57945  25566042.2644   25566042.7164   25566047.5994
     -3625.6754
 -16246650.46048 -12618832.89547  22571358.3034   22571358.2084   22571360.1994
     -2420.0534
 -19198347.94948 -14867691.26047  21645852.3614   21645851.9844   21645854.8734
      2620.3924
 -18939411.73049 -14717861.63048  21753468.6044   21753468.2624   21753470.6624
      1388.3504
 -25685682.19149 -20001682.33948  20346829.6624   20346829.8734   20346831.2784
        -3.6244
 -10388199.48748  -8058040.37447  23179108.7954   23179109.4024   23179110.9464
      2217.5774
 10  1  3  0 14  0.0000000  0 11G12G18G22G05G08G10G28G09G27G15G17
  -3822983.38347  -2960529.04246  24701264.7514   24701265.0684   24701266.4924
      3744.2674
 -11079135.06347  -8400066.86446  23262405.0514   23262405.4464   23262405.4244
      1566.3564
  -1074231.18647   -826365.85846  25527037.4134   25527037.8064   25527036.0044
      2796.8514
  -1578066.17047  -1217454.42346  24334739.8874   24334739.9284   24334742.2264
     -3640.4654
  -8556841.87547  -6654860.02646  24462526.3044   24462525.4324   24462527.9834
     -2977.0224
   6141506.57946   4830995.32746  25586727.6734   25586727.4344   25586730.2254
     -3622.7124
 -16173902.02248 -12562145.81047  22585202.2374   22585201.6104   22585203.1014
     -2429.9964
 -19276844.42348 -14928857.32747  21630914.7494   21630915.2584   21630917.3454
      2612.2124
 -18980978.18848 -14750251.07448  21745558.5634   21745558.2154   21745560.8314
      1382.3854
 -25685331.90349 -20001409.39748  20346896.3954   20346896.5294   20346898.0334
       -20.1004
 -10454547.08448  -8109739.79447  23166483.6004   23166483.7874   23166485.8054
      2205.1824
 10  1  3  0 14 30.0000000  0 11G12G18G22G05G08G10G28G09G27G15G17
  -3935273.52647  -3048027.88946  24679896.9434   24679897.2874   24679897.6144
      3741.3344
 -11125888.52747  -8436498.13846  23253508.1254   23253507.1104   23253509.1904
      1550.0984
  -1157995.63846   -891636.85046  25511097.0124   25511097.1184   25511097.5144
      2787.4974
  -1468847.84147  -1132349.23946  24355523.5214   24355524.0844   24355525.7224
     -3640.6874
  -8467511.19847  -6585251.68546  24479525.1024   24479524.3114   24479528.1604
     -2978.5484
   6250089.97346   4915605.78346  25607389.7454   25607391.5024   25607392.7584
     -3617.5504
 -16100865.32048 -12505234.10047  22599100.4694   22599099.9174   22599101.6954
     -2439.1994
 -19355104.38248 -14989839.09247  21616022.1414   21616022.5014   21616024.5894
      2604.8104
 -19022374.27949 -14782507.77148  21737681.1964   21737680.9724   21737683.5944
      1377.2294
 -25684495.52849 -20000757.68248  20347055.5214   20347055.6684   20347057.1484
       -35.8854
 -10520537.14048  -8161160.61247  23153926.1894   23153925.6074   23153927.5494
      2193.6454
 10  1  3  0 15  0.0000000  0 11G12G18G22G05G08G10G28G09G27G15G17
  -4047465.35347  -3135450.14046  24658547.7004   24658547.6764   24658549.3044
      3737.9414
 -11172140.10448  -8472538.33246  23244707.2814   23244705.3564   23244707.7664
      1533.0264
  -1241469.89147   -956681.67246  25495212.5034   25495213.3354   25495214.1954
      2777.2264
  -1359618.64847  -1047235.58746  24376308.7364   24376308.6734   24376311.8344
     -3641.1614
  -8378141.11347  -6515612.61546  24496531.9094   24496531.2184   24496534.7434
     -2980.3624
   6358549.03447   5000119.30446  25628029.2674   25628029.4294   25628031.4214
     -3613.8764
 -16027548.57848 -12448104.18347  22613052.2524   22613051.3124   22613054.7194
     -2448.8324
 -19433133.08648 -15050640.65747  21601173.8224   21601174.1864   21601176.4444
      2596.7994
 -19063605.97049 -14814636.35248  21729834.8764   21729834.6464   21729837.8014
      1371.4244
 -25683178.07449 -19999731.09948  20347306.1224   20347306.4924   20347307.7644
       -52.1564
 -10586172.79048  -8212305.27747  23141436.1614   23141436.2394   23141438.0804
      2181.6614
 10  1  3  0 15 30.0000000  0 11G12G18G22G05G08G10G28G09G27G15G17
  -4159544.64947  -3222784.61046  24637219.1484   24637219.3694   24637221.9404
      3734.0034
 -11217876.32347  -8508176.95446  23236002.3944   23236001.5144   23236004.4304
      1515.9214
  -1324639.63547  -1021489.25046  25479386.5644   25479386.7504   25479386.2714
      2767.3244
  -1250368.17447   -962105.36146  24397098.6194   24397099.3224   24397100.8734
     -3642.0274
  -8288719.92747  -6445933.75146  24513548.0814   24513547.4254   24513552.3074
     -2981.6004
   6466894.04347   5084543.97746  25648646.4104   25648645.7714   25648649.6364
     -3609.2684
 -15953941.64248 -12390748.13747  22627058.8874   22627058.4384   22627060.1564
     -2458.3844
 -19510917.57948 -15111251.93247  21586372.3284   21586372.2834   21586374.8394
      2588.7644
 -19104661.00049 -14846627.28148  21722022.7144   21722022.2474   21722025.1514
      1365.4634
 -25681366.75049 -19998319.67948  20347650.9814   20347651.0014   20347652.5154
       -68.7114
 -10651439.28248  -8263162.27947  23129016.4394   23129016.2314   23129018.9074
      2169.4514
 10  1  3  0 16  0.0000000  0 11G12G18G22G05G08G10G28G09G27G15G17
  -4271515.24447  -3310034.45246  24615912.1974   24615913.1164   24615914.4224
      3730.6554
 -11263101.15547  -8543417.09946  23227397.1264   23227397.5714   23227398.6584
      1499.1224
  -1407507.93646  -1086061.88145  25463616.6174   25463616.4784   25463615.6094
      2757.2464
  -1141105.07647   -876965.26346  24417890.7914   24417891.4484   24417892.7294
     -3642.1074
  -8199254.04747  -6376220.07146  24530572.7884   24530572.7334   24530575.9254
     -2982.8324
   6575116.80347   5168873.38746  25669239.9234   25669240.7164   25669244.1474
     -3605.2334
 -15880052.66148 -12333172.31647  22641119.5344   22641119.9764   22641121.1374
     -2467.6044
 -19588462.68248 -15171676.67047  21571615.7304   21571616.0134   21571618.2604
      2580.9544
 -19145545.18649 -14878485.08048  21714242.6404   21714242.2934   21714245.0364
      1360.0654
 -25679066.59049 -19996527.34948  20348088.5914   20348088.8544   20348090.2164
       -84.7234
 -10716339.47548  -8313733.85447  23116665.9634   23116666.5174   23116668.0424
      2157.1924
 10  1  3  0 16 30.0000000  0 11G12G18G22G05G08G10G28G09G27G15G17
  -4383376.55047  -3397199.15246  24594625.0214   24594626.5684   24594627.6054
      3726.7554
 -11307814.57347  -8578258.72846  23218888.3734   23218887.7534   23218889.4684
      1481.7284
  -1490073.71047  -1150398.87146  25447905.7614   25447907.3814   25447904.6744
      2747.0954
  -1031833.47747   -791818.55646  24438684.5254   24438684.4414   24438686.6254
     -3642.5324
  -8109745.62347  -6306473.23146  24547605.3394   24547604.9644   24547607.5074
     -2984.5514
   6683213.56147   5253104.61146  25689810.9794   25689810.5474   25689814.9734
     -3601.1974
 -15805884.80048 -12275379.18447  22655233.4624   22655232.7314   22655235.4564
     -2476.9904
 -19665768.65248 -15231915.07147  21556904.9644   21556904.3444   21556907.7794
      2572.7794
 -19186259.89849 -14910210.83148  21706494.6944   21706494.2494   21706497.2454
      1354.2414
 -25676278.62949 -19994354.91648  20348619.1844   20348619.4224   20348620.7294
      -101.1594
 -10780872.27448  -8364019.14547  23104386.1674   23104386.4874   23104387.3274
      2144.9534
 10  1  3  0 17  0.0000000  0 10G12G18G22G05G08G28G09G27G15G17
  -4495126.08547  -3484276.64146  24573359.9494   24573359.8224   24573362.1074
      3722.8914
 -11352014.32648  -8612700.10246  23210477.7484   23210476.7944   23210478.1574
      1464.5394
  -1572333.98946  -1214497.76946  25432251.4434   25432250.6784   25432251.8164
      2736.7574
   -922555.58547   -706666.94646  24459479.1134   24459479.2434   24459481.6784
     -3643.0364
  -8020194.02147  -6236692.78746  24564646.4044   24564645.8294   24564650.7304
     -2985.9214
 -15731439.44748 -12217369.82447  22669399.9804   22669399.0334   22669401.8374
     -2486.2854
 -19742834.12248 -15291966.07147  21542239.5814   21542239.9284   21542242.2494
      2564.7504
 -19226804.36749 -14941803.91548  21698779.4354   21698779.2814   21698782.2334
      1348.5094
 -25673000.73449 -19991800.71748  20349242.9854   20349243.1564   20349244.4464
      -117.5494
 -10845034.13848  -8414015.39447  23092176.1644   23092176.3204   23092178.3524
      2132.3814
 10  1  3  0 17 30.0000000  0 10G12G18G22G05G08G28G09G27G15G17
  -4606763.06147  -3571266.50446  24552116.9764   24552116.4254   24552117.0254
      3719.3454
 -11395700.67948  -8646741.43246  23202164.4794   23202163.5484   23202164.6454
      1447.5054
  -1654287.90947  -1278357.95446  25416656.7054   25416655.9044   25416656.4174
      2726.5354
   -813275.93847   -621513.97946  24480274.3444   24480273.9104   24480276.4984
     -3643.0004
  -7930600.98546  -6166880.04246  24581695.2814   24581693.4814   24581699.5974
     -2986.9634
 -15656720.42548 -12159147.21247  22683618.5984   22683618.9894   22683620.1864
     -2495.2444
 -19819659.52348 -15351830.00647  21527620.4994   21527620.0374   21527623.0254
      2556.6984
 -19267180.29649 -14973265.67148  21691096.0134   21691095.5844   21691098.7994
      1342.9294
 -25669234.14749 -19988865.72048  20349959.7124   20349959.9464   20349961.3884
      -133.8344
 -10908823.83948  -8463721.65247  23080037.4134   23080037.6684   23080039.9644
      2120.1304
 10  1  3  0 18  0.0000000  0 10G12G18G22G05G08G28G09G27G15G17
  -4718280.86247  -3658163.46146  24530894.4754   24530896.3864   24530897.7574
      3715.2234
 -11438867.43747  -8680377.87646  23193949.4804   23193949.8124   23193952.0884
      1430.1404
  -1735928.47347  -1341974.00646  25401120.6054   25401120.9524   25401120.6244
      2716.2054
   -703991.84847   -536357.53746  24501070.3214   24501071.9194   24501073.2094
     -3643.0444
  -7840962.42146  -6097031.85446  24598753.1874   24598752.6184   24598755.6784
     -2988.7584
 -15581724.62148 -12100708.93047  22697889.6554   22697889.4204   22697890.6374
     -2504.4244
 -19896238.86748 -15411502.20847  21513047.7454   21513048.0524   21513050.4864
      2548.4614
 -19307382.74649 -15004592.25048  21683445.7524   21683445.6304   21683447.8064
      1337.1864
 -25664973.17949 -19985545.48848  20350770.5134   20350770.5454   20350772.2994
      -150.3234
 -10972233.72548  -8513131.95847  23067970.9224   23067971.3344   23067973.3504
      2107.2984
 10  1  3  0 18 30.0000000  0 10G12G18G22G05G08G28G09G27G15G17
  -4829684.32547  -3744971.30546  24509696.0844   24509695.8074   24509698.7074
      3711.6384
 -11481520.08547  -8713613.71146  23185833.8834   23185833.8704   23185834.7624
      1413.2744
  -1817260.35247  -1405349.51446  25385643.9084   25385642.4804   25385642.5664
      2705.7884
   -594713.08947   -451205.27746  24521865.4924   24521866.7104   24521868.8764
     -3642.5004
  -7751285.85546  -6027154.02346  24615818.8194   24615818.9634   24615822.6814
     -2989.6184
 -15506461.38348 -12042062.25547  22712211.8424   22712211.4854   22712212.8234
     -2513.0094
 -19972578.34748 -15470987.50447  21498520.9714   21498520.6314   21498522.9484
      2540.8154
 -19347418.70549 -15035789.10148  21675827.5974   21675827.1674   21675829.7984
      1331.9934
 -25660224.41949 -19981845.16348  20351674.0614   20351674.4214   20351675.7354
      -166.3244
 -11035268.46048  -8562249.93247  23055976.0294   23055976.3954   23055978.5034
      2095.2994
 10  1  3  0 19  0.0000000  0 10G12G18G22G05G08G28G09G27G15G17
  -4940966.55647  -3831684.69146  24488519.1674   24488518.9634   24488520.8284
      3707.3004
 -11523651.87548  -8746443.69646  23177816.6664   23177816.1004   23177816.0944
      1395.6044
  -1898275.65547  -1468478.34546  25370226.2414   25370226.6014   25370229.2734
      2695.3084
   -485437.65747   -366055.59446  24542659.5254   24542661.0044   24542662.0974
     -3641.8834
  -7661566.57846  -5957242.93846  24632891.3244   24632890.7224   24632894.6104
     -2991.5164
 -15430927.52248 -11983204.70547  22726585.3574   22726585.6384   22726586.2574
     -2522.2734
 -20048671.58848 -15530280.92747  21484040.7014   21484040.4584   21484043.2004
      2532.5104
 -19387282.97049 -15066852.16348  21668241.2444   21668241.2124   21668243.7774
      1326.0204
 -25654981.65549 -19977759.89848  20352671.7684   20352672.1154   20352673.5334
      -182.8584
 -11097919.97748  -8611069.29547  23044053.6034   23044054.6274   23044056.6464
      2082.0914
 10  1  3  0 19 30.0000000  0 10G12G18G22G05G08G28G09G27G15G17
  -5052125.71947  -3918302.18146  24467366.4374   24467367.1764   24467368.5604
      3703.4994
 -11565261.85048  -8778867.05246  23169897.7054   23169897.3194   23169898.2114
      1378.3284
  -1978972.50347  -1531359.01646  25354871.6444   25354871.6154   25354870.2294
      2684.5104
   -376167.95247   -280910.37346  24563453.3494   24563452.7534   24563455.2024
     -3642.3294
  -7571805.04146  -5887298.90046  24649973.0134   24649972.3334   24649976.9504
     -2992.8714
 -15355125.59248 -11924138.27447  22741009.7514   22741009.5004   22741010.9164
     -2531.2094
 -20124518.00848 -15589382.02947  21469607.6754   21469607.2544   21469610.2024
      2524.1334
 -19426975.86649 -15097781.69048  21660687.9804   21660687.9144   21660690.7314
      1320.3594
 -25649244.47749 -19973289.37448  20353763.5914   20353763.8214   20353765.2774
      -199.4184
 -11160185.90548  -8659588.19447  23032204.8704   23032205.0674   23032207.0734
      2069.0564
 10  1  3  0 20  0.0000000  0 10G12G18G22G05G08G28G09G27G15G17
  -5163164.22647  -4004825.67446  24446236.9484   24446236.8054   24446238.6924
      3698.0234
 -11606353.01348  -8810886.15946  23162079.3104   23162078.5894   23162078.7294
      1360.1604
  -2059352.81047  -1593993.07846  25339576.0144   25339575.1004   25339575.0414
      2673.4584
   -266911.12747   -195775.18246  24584243.9064   24584244.7274   24584247.0864
     -3642.3104
  -7482006.44946  -5817326.02746  24667060.6684   24667061.6724   24667065.0634
     -2995.1154
 -15279061.72248 -11864867.72347  22755484.4354   22755483.7264   22755485.6974
     -2540.5914
 -20200121.34948 -15648293.71447  21455220.5924   21455220.5654   21455223.4644
      2515.4554
 -19466501.55349 -15128580.92448  21653166.4954   21653166.5654   21653169.0964
      1314.0904
 -25643016.37149 -19968436.30848  20354948.7114   20354949.0004   20354950.3474
      -216.4044
 -11222067.67548  -8707807.74847  23020428.9344   23020429.2264   23020431.7364
      2055.5894
 10  1  3  0 20 30.0000000  0 10G12G18G22G05G08G28G09G27G15G17
  -5274074.39547  -4091249.11746  24425131.1514   24425131.0504   24425132.1014
      3694.6594
 -11646918.37548  -8842495.53846  23154357.9624   23154357.9474   23154360.3534
      1343.0674
  -2139408.44946  -1656374.11745  25324340.0794   25324340.2614   25324339.6964
      2662.3034
   -157663.81047   -110647.40646  24605033.1614   24605033.0284   24605035.5014
     -3641.1754
  -7392165.65646  -5747320.25946  24684156.8084   24684156.9404   24684159.1044
     -2995.6294
 -15202732.23648 -11805390.20947  22770009.4374   22770008.8494   22770010.5554
     -2548.9814
 -20275474.49648 -15707010.43847  21440881.7064   21440881.4004   21440884.1764
      2507.3804
 -19505854.18349 -15159245.31548  21645677.8494   21645677.9374   21645680.8444
      1308.4754
 -25636291.27949 -19963195.98048  20356228.4624   20356228.8484   20356230.0964
      -232.8114
 -11283557.05848  -8755721.54347  23008728.1944   23008727.6664   23008730.5594
      2042.8094
 10  1  3  0 21  0.0000000  0 10G12G18G22G05G08G28G09G27G15G17
  -5384858.78547  -4177574.64646  24404049.4624   24404049.3094   24404052.0904
      3690.6804
 -11686961.23448  -8873697.77746  23146739.0324   23146738.1734   23146740.7564
      1326.1474
  -2219141.63346  -1718503.83045  25309168.0684   25309167.5994   25309169.2984
      2652.4284
    -48433.74847    -25533.09146  24625819.0724   24625818.6724   24625821.9414
     -3640.9404
  -7302287.68647  -5677285.50546  24701259.6414   24701260.4864   24701263.0094
     -2996.2374
 -15126144.28948 -11745711.29647  22784583.6034   22784583.0924   22784584.9384
     -2557.2724
 -20350581.22848 -15765535.16147  21426589.6944   21426588.9904   21426591.2734
      2499.5804
 -19545038.62649 -15189778.64548  21638221.2934   21638221.3994   21638224.0774
      1303.4804
 -25629073.24849 -19957571.55048  20357602.0204   20357602.4064   20357603.7254
      -248.6954
 -11344656.27748  -8803331.32647  22997101.3704   22997102.0974   22997103.2054
      2030.1284
 10  1  3  0 21 30.0000000  0  9G12G18G05G08G28G09G27G15G17
  -5495512.14847  -4263797.96946  24382993.0724   24382993.0364   24382994.6704
      3686.4234
 -11726476.81748  -8904489.17346  23139219.9534   23139219.9634   23139221.2404
      1308.5384
     60779.69747     59568.29646  24646600.8974   24646602.4284   24646604.0284
     -3640.0014
  -7212368.91847  -5607218.95446  24718371.2064   24718370.0224   24718373.7684
     -2997.7604
 -15049296.18548 -11685829.65947  22799207.5154   22799206.9424   22799208.8304
     -2565.6384
 -20425437.28548 -15823864.54347  21412344.8214   21412344.6944   21412346.6594
      2491.3164
 -19584051.26749 -15220178.10248  21630797.5534   21630797.2434   21630799.9874
      1297.7344
 -25621358.13249 -19951559.77448  20359070.1654   20359070.3924   20359071.8674
      -265.2314
 -11405359.10348  -8850632.22447  22985550.2914   22985550.5194   22985552.0274
      2017.0324
 10  1  3  0 22  0.0000000  0  9G12G18G05G08G28G09G27G15G17
  -5606036.09647  -4349920.54146  24361961.0534   24361960.3774   24361961.5684
      3682.1624
 -11765467.58548  -8934871.57547  23131799.5184   23131800.4074   23131801.3734
      1290.9734
    169970.57847    144652.08346  24667379.9824   24667380.1474   24667382.8164
     -3638.9244
  -7122413.87047  -5537124.13646  24735489.3404   24735488.2654   24735493.5284
     -2998.3114
 -14972193.62748 -11625749.74347  22813879.6824   22813878.8854   22813881.3534
     -2574.1454
 -20500045.25048 -15882000.61247  21398147.2714   21398147.0304   21398149.7734
      2482.8584
 -19622895.99349 -15250446.72048  21623405.6364   21623405.6594   21623408.2314
      1292.1464
 -25613149.25049 -19945163.24448  20360632.3484   20360632.5864   20360633.9364
      -281.6804
 -11465666.44748  -8897624.95547  22974074.1624   22974074.6984   22974076.6054
      2003.8584
 10  1  3  0 22 30.0000000  0  9G12G18G05G08G28G09G27G15G17
  -5716426.04947  -4435938.66246  24340953.9104   24340953.1354   24340957.1564
      3676.8374
 -11803929.62948  -8964842.02846  23124480.8944   23124480.6004   23124482.4444
      1273.1294
    279138.84247    229718.25846  24688154.3024   24688154.2034   24688157.2384
     -3638.7234
  -7032420.19547  -5466999.18846  24752614.3214   24752613.3334   24752616.7224
     -3000.6374
 -14894835.87548 -11565470.97747  22828600.2374   22828599.7004   22828601.2504
     -2582.9564
 -20574401.44548 -15939940.49447  21383997.7634   21383997.7074   21384000.1974
      2474.1824
 -19661569.86449 -15280582.19948  21616046.2034   21616046.0644   21616048.6404
      1286.0884
 -25604443.16349 -19938379.28148  20362288.9754   20362289.1734   20362290.6874
      -298.6364
 -11525573.32248  -8944305.61847  22962674.2114   22962674.6064   22962675.8754
      1989.9804
 10  1  3  0 23  0.0000000  0  9G12G18G05G08G28G09G27G15G17
  -5826682.86247  -4521853.06046  24319973.2494   24319973.8044   24319975.1664
      3672.8354
 -11841864.36748  -8994401.59046  23117262.6844   23117262.1534   23117263.7144
      1255.7074
    388279.02647    314762.53346  24708922.9654   24708923.1484   24708925.1304
     -3637.4474
  -6942391.10647  -5396846.65846  24769746.6104   24769746.3864   24769749.3694
     -3001.4934
 -14817228.33948 -11504997.58247  22843368.2224   22843367.7094   22843369.1474
     -2591.0334
 -20648507.57348 -15997685.50947  21369895.5824   21369895.2914   21369898.1464
      2465.8474
 -19700075.61249 -15310586.67748  21608718.9074   21608718.6814   21608721.3284
      1280.6154
 -25595241.92249 -19931209.49048  20364039.9254   20364040.1014   20364041.5454
      -315.0074
 -11585080.22648  -8990674.62947  22951350.0194   22951350.2644   22951352.2934
      1976.9034
 10  1  3  0 23 30.0000000  0  9G12G18G05G08G28G09G27G15G17
  -5936800.72447  -4607659.18646  24299017.9714   24299019.5374   24299020.0604
      3667.7514
 -11879266.98848  -9023546.50046  23110145.4544   23110143.9124   23110145.1414
      1237.4084
    497392.37547    399785.92046  24729686.2144   24729686.8544   24729688.6344
     -3637.0184
  -6852323.40347  -5326664.02446  24786885.4044   24786884.3344   24786888.2574
     -3003.9424
 -14739368.78448 -11444327.80747  22858184.3464   22858183.6414   22858186.5204
     -2599.9694
 -20722358.59048 -16055231.74747  21355842.3384   21355842.2554   21355844.5344
      2456.9224
 -19738409.14949 -15340456.95848  21601424.2594   21601423.8484   21601426.7924
      1274.4044
 -25585541.24549 -19923650.52448  20365885.8334   20365886.2354   20365887.4714
      -332.2054
 -11644179.87848  -9036726.29847  22940103.7324   22940104.1234   22940105.4944
      1962.6524
 10  1  3  0 24  0.0000000  0 10G12G18G22G05G08G28G09G27G15G17
  -6046778.99647  -4693356.54346  24278090.2944   24278090.2164   24278093.0994
      3663.9104
 -11916137.48848  -9052276.76246  23103128.8404   23103128.2264   23103129.9224
      1220.0464
   -872089.850 7                  25219452.100
      2585.273
    606474.65147    484785.08946  24750443.3644   24750443.4714   24750446.2734
     -3636.0164
  -6762218.74547  -5256452.61246  24804031.7434   24804030.9294   24804034.8744
     -3004.0614
 -14661260.37848 -11383464.12047  22873047.9424   22873046.7214   22873050.0044
     -2607.7664
 -20795955.31048 -16112579.83747  21341837.1674   21341837.6984   21341839.5954
      2448.8384
 -19776571.92949 -15370194.18148  21594162.0434   21594161.9914   21594164.6784
      1269.2364
 -25575341.98949 -19915703.05748  20367826.7414   20367827.0394   20367828.2864
      -348.3744
 -11702871.47448  -9082460.00447  22928935.4624   22928935.4284   22928937.1084
      1949.4494
 10  1  3  0 24 30.0000000  0 10G12G18G22G05G08G28G09G27G15G17
  -6156614.38547  -4778942.54146  24257188.7394   24257190.1614   24257191.1934
      3658.8454
 -11952473.37848  -9080590.44746  23096213.9784   23096213.7904   23096215.0294
      1202.0164
   -949486.920 7                  25204722.279
      2575.749
    715524.85847    569759.25746  24771195.1004   24771195.8254   24771196.9994
     -3634.5414
  -6672076.23847  -5186211.70746  24821185.5044   24821185.1654   24821188.1554
     -3005.4514
 -14582904.40248 -11322407.52147  22887958.8404   22887958.1364   22887960.5824
     -2615.9524
 -20869295.52148 -16169728.04447  21327881.4064   21327880.8044   21327883.9184
      2440.2684
 -19814562.62049 -15399797.31648  21586932.5094   21586932.6114   21586935.0904
      1263.5174
 -25564642.24349 -19907365.60048  20369862.9324   20369863.2454   20369864.5314
      -365.1114
 -11761151.27248  -9127872.83747  22917845.0024   22917845.5594   22917847.3234
      1935.7134
 10  1  3  0 25  0.0000000  0 10G12G18G22G05G08G28G09G27G15G17
  -6266309.27147  -4864419.08746  24236314.7324   24236315.3344   24236317.2604
      3654.6384
 -11988278.03148  -9108490.18746  23089400.9574   23089398.3614   23089401.6124
      1184.8004
  -1026543.87747   -640662.89146  25190060.6664   25190058.8854   25190060.3434
      2562.9024
    824535.88247    654702.89746  24791939.7114   24791940.6154   24791943.2954
     -3632.8454
  -6581900.95147  -5115945.26146  24838345.3864   24838344.9554   24838348.0004
     -3006.2614
 -14504307.67048 -11261163.32247  22902915.2904   22902914.7094   22902916.3154
     -2623.6354
 -20942382.34948 -16226678.81347  21313973.5624   21313973.5044   21313975.7654
      2432.1774
 -19852385.71649 -15429269.85248  21579735.2894   21579734.8464   21579737.8904
      1258.3104
 -25553446.00749 -19898641.26648  20371993.5494   20371993.8384   20371995.1594
      -381.2194
 -11819021.08048  -9172966.19547  22906832.9104   22906832.9974   22906835.0724
      1922.3564
 10  1  3  0 25 30.0000000  0 10G12G18G22G05G08G28G09G27G15G17
  -6375859.61347  -4949782.95446  24215467.8984   24215467.9714   24215470.2214
      3649.2824
 -12023547.46148  -9135972.85346  23082689.4164   23082688.1564   23082690.9934
      1166.9364
  -1103255.82547   -700438.38046  25175463.2494   25175462.9214   25175461.0544
      2551.3404
    933507.80646    739616.07346  24812675.3314   24812675.5634   24812679.0284
     -3631.4864
  -6491690.15447  -5045651.13546  24855511.9934   24855511.4384   24855515.5144
     -3007.4284
 -14425468.83248 -11199730.46747  22917917.8394   22917917.8794   22917919.2254
     -2631.7004
 -21015212.07048 -16283429.24547  21300114.1764   21300113.7964   21300116.2994
      2423.5924
 -19890038.22949 -15458609.46148  21572570.2164   21572569.6104   21572573.0454
      1252.4634
 -25541750.00949 -19889527.51148  20374219.0914   20374219.2304   20374220.7994
      -398.0264
 -11876475.49448  -9217735.85847  22895899.5764   22895899.8764   22895901.9664
      1908.4874
 10  1  3  0 26  0.0000000  0 10G12G18G22G05G08G28G09G27G15G17
  -6485264.26147  -5035033.35946  24194649.4194   24194649.6834   24194650.7964
      3644.5904
 -12058282.19348  -9163038.87847  23076079.3144   23076080.2344   23076080.0664
      1149.0024
  -1179621.66147   -759944.28146  25160929.9804   25160930.1214   25160932.1534
      2540.1054
   1042436.52447    824495.55546  24833404.4714   24833405.3044   24833408.7604
     -3630.1644
  -6401446.11147  -4975331.12446  24872684.6234   24872683.5844   24872687.2634
     -3008.5824
 -14346391.70848 -11138111.93247  22932965.8414   22932965.8354   22932967.7244
     -2639.7044
 -21087785.32948 -16339979.83347  21286304.2744   21286303.8124   21286305.9364
      2414.9524
 -19927521.75249 -15487817.39448  21565437.1464   21565436.9634   21565439.9884
      1246.7314
 -25529555.59249 -19880025.37448  20376539.5364   20376539.9314   20376541.4084
      -414.6634
 -11933513.63048  -9262181.14947  22885045.1644   22885045.8304   22885047.3934
      1894.3634
 10  1  3  0 26 30.0000000  0 10G12G18G22G05G08G28G09G27G15G17
  -6594519.86347  -5120167.56146  24173858.5904   24173858.2284   24173860.2674
      3638.7424
 -12092479.32248  -9189686.00647  23069572.8074   23069571.7974   23069572.6814
      1130.3774
  -1255637.83747   -819177.65246  25146466.4754   25146466.5404   25146463.7564
      2527.3794
   1151321.02346    909340.59846  24854125.1244   24854125.1764   24854127.6064
     -3628.9984
  -6311167.35847  -4904984.04046  24889864.2964   24889864.4754   24889865.9244
     -3010.3044
 -14267076.20048 -11076307.65547  22948058.5914   22948059.5934   22948060.8514
     -2648.3344
 -21160099.20048 -16396328.29547  21272543.2184   21272542.9284   21272545.1064
      2405.5024
 -19964834.19049 -15516892.01348  21558336.8634   21558336.6624   21558339.6264
      1240.2154
 -25516860.46549 -19870133.07748  20378955.5924   20378955.6544   20378957.2084
      -432.1304
 -11990131.21548  -9306298.74247  22874271.6334   22874271.4174   22874273.4864
      1879.5944
 10  1  3  0 27  0.0000000  0 10G12G18G22G05G08G28G09G27G15G17
  -6703625.58747  -5205185.03346  24153096.5374   24153096.4494   24153097.4124
      3633.9124
 -12126139.06648  -9215914.35747  23063166.3074   23063164.7144   23063167.4874
      1112.8464
  -1331303.15046   -878137.66745  25132064.0234   25132061.2694   25132063.6004
      2516.3554
   1260157.85947    994148.50146  24874836.4004   24874836.1884   24874838.6684
     -3627.2294
  -6220855.29047  -4834611.03246  24907050.1064   24907048.9554   24907052.4724
     -3010.7424
 -14187526.08948 -11014320.55747  22963196.9054   22963195.6904   22963199.4834
     -2655.6174
 -21232154.02048 -16452474.90447  21258831.6484   21258831.1854   21258833.5684
      2397.4274
 -20001976.97949 -15545834.43748  21551268.9994   21551268.6754   21551271.5604
      1235.2054
 -25503664.88149 -19859850.81348  20381466.6544   20381466.7694   20381468.1754
      -448.2934
 -12046327.14448  -9350087.76847  22863577.8444   22863578.3614   22863579.8524
      1865.9894
 10  1  3  0 27 30.0000000  0 10G12G18G22G05G08G28G09G27G15G17
  -6812578.78347  -5290083.60846  24132363.4014   24132363.8694   24132365.0774
      3629.5784
 -12159259.72348  -9241722.65446  23056864.1334   23056864.0124   23056865.2734
      1095.3074
  -1406614.82547   -936822.08946  25117736.1154   25117736.3084   25117736.2854
      2504.6954
   1368944.65147   1078917.41446  24895537.4074   24895537.7564   24895541.0864
     -3624.9224
  -6130509.86447  -4764212.00946  24924241.6984   24924239.7954   24924245.3844
     -3012.1604
 -14107742.71348 -10952151.70847  22978378.8704   22978379.1394   22978381.3544
     -2663.1524
 -21303948.21348 -16508418.42147  21245169.4994   21245169.6724   21245172.0904
      2389.0954
 -20038949.60849 -15574644.26948  21544232.9024   21544233.0404   21544235.9484
      1229.9054
 -25489968.22749 -19849178.10248  20384072.7704   20384073.1754   20384074.5264
      -464.6404
 -12102098.24748  -9393545.76647  22852965.0044   22852965.3114   22852966.9624
      1852.2874
 10  1  3  0 28  0.0000000  0 10G12G18G22G05G08G28G09G27G15G17
  -6921379.46347  -5374863.34646  24111659.2324   24111659.6434   24111662.1264
      3624.0994
 -12191842.12748  -9267111.53046  23050663.7704   23050663.1814   23050665.0184
      1077.0354
  -1481572.14547   -995230.41145  25103469.7804   25103469.3904   25103468.1954
      2492.7924
   1477677.37247   1163644.16846  24916228.1864   24916229.4194   24916230.4204
     -3623.6944
  -6040133.10347  -4693788.56046  24941440.6124   24941439.6994   24941441.0384
     -3013.2524
 -14027729.90948 -10889804.06647  22993605.2194   22993603.6924   22993606.2904
     -2671.1594
 -21375482.64048 -16564159.52747  21231557.1264   21231557.0984   21231559.3144
      2380.1594
 -20075753.31149 -15603322.46948  21537229.9524   21537229.4144   21537232.5664
      1224.0154
 -25475771.76849 -19838115.93348  20386774.3884   20386774.6024   20386776.0834
      -481.6014
 -12157443.50248  -9436671.94447  22842433.4084   22842433.3484   22842435.4374
      1837.6814
 10  1  3  0 28 30.0000000  0 10G12G18G22G05G08G28G09G27G15G17
  -7030022.34647  -5459520.12446  24090985.1794   24090985.9044   24090987.4854
      3617.9254
 -12223881.66548  -9292077.41247  23044567.0684   23044564.6614   23044566.9044
      1058.2464
  -1556169.30347  -1053358.08246  25089277.4814   25089279.8074   25089278.9854
      2480.3004
   1586356.86847   1248329.47946  24936908.8294   24936909.4574   24936912.1274
     -3622.4864
  -5949722.36447  -4623338.62545  24958644.8444   24958645.7784   24958649.2194
     -3014.9284
 -13947486.17448 -10827276.47947  23008874.8784   23008874.7024   23008876.1674
     -2679.2624
 -21446752.84548 -16619694.74047  21217994.5884   21217994.3544   21217996.8904
      2370.6334
 -20112384.64049 -15631866.35348  21530258.9614   21530258.6684   21530261.1844
      1217.5574
 -25461071.56849 -19826661.23648  20389571.7344   20389572.0034   20389573.4414
      -499.0814
 -12212357.36848  -9479461.96247  22831983.2584   22831984.2614   22831985.6234
      1822.6144
 10  1  3  0 29  0.0000000  0 10G12G18G22G05G08G28G09G27G15G17
  -7138508.27147  -5544054.58046  24070340.8924   24070341.7914   24070343.2024
      3613.4574
 -12255380.10548  -9316621.64947  23038572.9944   23038572.9684   23038574.1364
      1040.8054
  -1630407.25647  -1111205.84245  25075149.0594   25075146.3054   25075145.6784
      2468.3404
   1694977.76247   1332969.12146  24957579.0194   24957580.1234   24957581.6394
     -3620.1334
  -5859280.27846  -4552864.27245  24975855.0264   24975855.3034   24975858.4354
     -3015.6164
 -13867016.17848 -10764572.60147  23024187.8764   23024187.6204   23024189.2024
     -2686.2544
 -21517760.38048 -16675025.28247  21204482.5614   21204481.9854   21204484.9364
      2362.2854
 -20148846.23049 -15660277.97148  21523320.8414   21523320.4694   21523323.3744
      1212.3064
 -25445870.19849 -19814816.02148  20392464.3634   20392464.6824   20392466.1824
      -515.2974
 -12266839.97048  -9521915.92747  22821615.4414   22821615.6484   22821618.2464
      1808.7824
 10  1  3  0 29 30.0000000  0 10G12G18G22G05G08G28G09G27G15G17
  -7246833.63447  -5628463.94746  24049726.9044   24049726.9584   24049730.7214
      3607.9884
 -12286334.92248  -9340742.28647  23032682.3334   23032681.4664   23032683.8164
      1022.5404
  -1704281.83047  -1168770.47446  25061093.0264   25061094.6484   25061095.6824
      2456.6584
   1803538.86747   1417562.17246  24978238.0004   24978238.5764   24978241.3924
     -3617.7604
  -5768805.63646  -4482364.58245  24993072.5854   24993070.8444   24993075.5434
     -3016.7774
 -13786320.77448 -10701693.07447  23039543.9054   23039544.5104   23039545.2924
     -2693.7784
 -21588502.88149 -16730149.29547  21191020.4494   21191020.5564   21191023.2724
      2353.4244
 -20185136.38549 -15688556.00348  21516414.6654   21516414.4964   21516417.5724
      1206.6564
 -25430165.91049 -19802578.92248  20395452.9094   20395453.1194   20395454.5834
      -532.1104
 -12320887.44848  -9564030.83947  22811330.6934   22811330.9914   22811332.6264
      1793.9304
 10  1  3  0 30  0.0000000  0 10G12G18G22G05G08G28G09G27G15G17
  -7354999.04547  -5712748.64746  24029144.0294   24029144.3604   24029145.8304
      3602.3444
 -12316747.25148  -9364440.19047  23026895.1724   23026894.9444   23026896.3964
      1004.4374
  -1777792.80247  -1226051.75846  25047102.4464   25047104.5244   25047109.8064
      2443.6874
   1912035.76547   1502105.16946  24998884.5064   24998885.0694   24998885.2484
     -3615.9334
  -5678301.63446  -4411841.99045  25010294.3084   25010294.1834   25010296.9064
     -3017.2754
 -13705403.89148 -10638640.97447  23054941.4764   23054940.9094   23054942.3604
     -2701.1144
 -21658981.77249 -16785067.91147  21177608.8634   21177608.4794   21177610.8754
      2344.5654
 -20221257.33449 -15716702.19248  21509541.1244   21509540.6484   21509544.0184
      1200.9804
 -25413960.27449 -19789951.15948  20398536.7944   20398536.9684   20398538.4924
      -548.7414
 -12374499.50948  -9605806.46047  22801128.6324   22801128.8344   22801130.7354
      1779.5444
 10  1  3  0 30 30.0000000  0 10G12G18G22G05G08G28G09G27G15G17
  -7463000.46747  -5796905.59746  24008592.2174   24008592.7474   24008594.0614
      3597.0884
 -12346615.19648  -9387713.90247  23021211.6714   23021210.1954   23021212.6364
       986.0584
  -1850936.66947  -1283047.05746  25033185.7404   25033186.6394   25033185.5914
      2431.8584
   2020466.95547   1586597.02646  25019518.5194   25019519.1864   25019519.9124
     -3613.4154
  -5587767.25246  -4341295.73445  25027522.8534   25027520.5194   25027524.4304
     -3018.0614
 -13624266.00148 -10575416.65447  23070381.9324   23070381.6544   23070383.5514
     -2708.3994
 -21729194.57148 -16839779.17347  21164247.6654   21164247.7564   21164250.4544
      2335.6814
 -20257207.70849 -15744715.46448  21502699.8334   21502699.7314   21502702.5144
      1195.2574
 -25397251.42949 -19776931.29048  20401716.4254   20401716.6514   20401717.9774
      -565.6144
 -12427672.59348  -9647240.02847  22791010.0784   22791010.3414   22791011.7854
      1764.8064
 10  1  3  0 31  0.0000000  0 10G12G18G22G05G08G28G09G27G15G17
  -7570836.81147  -5880933.88746  23988071.2754   23988071.0794   23988073.3034
      3591.6954
 -12375937.99048  -9410562.81847  23015631.7894   23015630.7644   23015632.7294
       968.2804
  -1923711.87347  -1339754.98346  25019335.6924   25019335.1054   25019333.9194
      2419.6034
   2128829.76247   1671035.53246  25040138.7914   25040139.5974   25040141.8124
     -3610.8374
  -5497202.40546  -4270725.72645  25044755.5614   25044757.1884   25044757.4404
     -3018.7114
 -13542909.61948 -10512022.07747  23085863.2084   23085863.2374   23085864.3244
     -2715.4404
 -21799140.15349 -16894282.21548  21150937.5804   21150937.4254   21150940.3264
      2327.1044
 -20292987.37449 -15772595.71048  21495891.3284   21495890.9864   21495893.8104
      1189.8244
 -25380039.33249 -19763519.27248  20404991.5474   20404991.9284   20404993.3934
      -582.1094
 -12480404.12848  -9688329.53747  22780975.5024   22780975.9214   22780978.2014
      1750.2804
 10  1  3  0 31 30.0000000  0 10G12G18G22G05G08G28G09G27G15G17
  -7678505.21847  -5964831.33046  23967582.6734   23967581.8194   23967585.0614
      3586.7054
 -12404713.40148  -9432985.20147  23010156.5624   23010156.9084   23010157.6784
       950.2394
  -1996114.91447  -1396173.00946  25005554.8964   25005554.9364   25005555.5564
      2407.6294
   2237122.91047   1755419.78746  25060746.2254   25060746.8004   25060750.0774
     -3608.2544
  -5406606.69146  -4200131.64445  25061996.2194   25061996.0414   25062001.5024
     -3019.8474
 -13461335.57648 -10448457.89847  23101386.5074   23101385.5604   23101388.9474
     -2722.3454
 -21868816.49749 -16948575.46748  21137678.6864   21137678.3854   21137680.6754
      2318.4054
 -20328595.44449 -15800342.24448  21489115.3394   21489115.0804   21489118.0064
      1184.4484
 -25362322.76449 -19749714.16148  20408362.9624   20408363.2874   20408364.6904
      -598.6084
 -12532690.94148  -9729072.50247  22771025.8724   22771025.9794   22771027.1354
      1735.8884
 10  1  3  0 32  0.0000000  0 10G12G18G22G05G08G28G09G27G15G17
  -7786005.11147  -6048597.44546  23947126.2384   23947126.8684   23947128.8724
      3580.7634
 -12432942.26348  -9454981.71747  23004783.4514   23004783.7914   23004783.8984
       932.0904
  -2068145.08247  -1452300.39746  24991850.0664   24991850.0084   24991851.2584
      2394.8214
   2345342.19647   1839746.45246  25081340.0614   25081340.6054   25081342.1714
     -3605.6254
  -5315982.09946  -4129515.05445  25079241.3014   25079238.1004   25079247.6144
     -3020.3924
 -13379547.81148 -10384727.18047  23116950.3834   23116950.1594   23116952.4134
     -2729.4964
 -21938223.97949 -17002659.20748  21124470.6954   21124470.7144   21124473.1334
      2309.3214
 -20364033.23349 -15827956.09248  21482371.7064   21482371.8324   21482374.0034
      1178.5834
 -25344103.06549 -19735517.00348  20411830.0804   20411830.5434   20411831.8584
      -615.5524
 -12584532.26748  -9769468.34847  22761160.8184   22761160.6994   22761162.7474
      1720.8794
 10  1  3  0 32 30.0000000  0 10G12G18G22G05G08G28G09G27G15G17
  -7893335.12147  -6132231.20746  23926701.6754   23926702.1294   23926703.2264
      3574.9414
 -12460624.49048  -9476552.27846  22999516.2124   22999516.0964   22999516.1984
       913.8224
  -2139800.75447  -1508136.02146  24978214.4954   24978215.6494   24978216.5234
      2382.7754
   2453484.67947   1924013.38346  25101918.1974   25101918.2074   25101922.2694
     -3603.6204
  -2074489.31746  -1603676.52145  25096492.3584   25096492.6074   25096495.5854
     -3021.7094
 -13297548.64648 -10320831.74147  23132554.0684   23132554.0174   23132555.0424
     -2736.5384
 -22007362.34549 -17056533.24448  21111314.2154   21111314.0274   21111316.8514
      2300.2754
 -20399301.07849 -15855437.51948  21475660.5274   21475660.4504   21475663.1534
      1173.0034
 -25325380.34749 -19720927.87748  20415392.9424   20415393.2554   20415394.6884
      -632.2194
 -12635926.12948  -9809515.51247  22751380.8434   22751380.9544   22751382.2414
      1705.7214
 10  1  3  0 33  0.0000000  0 10G12G18G22G05G08G28G09G27G15G17
  -8000490.73447  -6215729.04946  23906310.1194   23906311.1964   23906313.3154
      3569.2104
 -12487756.22448  -9497693.89147  22994353.6414   22994353.5764   22994353.7684
       895.5714
  -2211077.10947  -1563676.03246  24964651.4594   24964652.7114   24964654.1494
      2370.0444
   2561550.58647   2008220.56046  25122482.8304   25122481.7624   25122486.8974
     -3600.8294
  -1983806.191 6  -1533014.31245  25113747.852                    25113751.8194
     -3022.705
 -13215337.34748 -10256771.00047  23148198.1124   23148198.1604   23148200.3374
     -2743.3884
 -22076228.02749 -17110194.80448  21098209.4424   21098209.3144   21098211.6904
      2291.2294
 -20434396.23449 -15882784.38548  21468982.1904   21468981.8864   21468984.3714
      1167.3044
 -25306151.93749 -19705944.70548  20419051.9764   20419052.1924   20419053.7754
      -649.0714
 -12686867.71548  -9849210.25247  22741687.2124   22741687.2634   22741688.8194
      1690.9104
 10  1  3  0 33 30.0000000  0 10G12G18G22G05G08G28G09G27G15G17
  -8107473.31747  -6299092.09846  23885952.8434   23885952.9294   23885954.2204
      3563.0474
 -12514340.01748  -9518408.53747  22989295.5264   22989295.2234   22989296.3174
       876.8574
  -2281975.27947  -1618921.36446  24951160.8554   24951160.2944   24951160.7824
      2356.6694
   2669533.82547   2092363.29546  25143031.6664   25143032.1834   25143034.7024
     -3597.8114
  -1893096.720 6  -1462331.61245  25131009.926                    25131013.4164
     -3024.724
 -13132919.36448 -10192549.19747  23163881.6924   23163881.5604   23163883.7274
     -2750.6184
 -22144823.44449 -17163645.77748  21085156.3214   21085156.2124   21085158.2294
      2281.8794
 -20469321.87649 -15909999.16648  21462336.0014   21462335.3834   21462338.7594
      1161.2744
 -25286420.78349 -19690569.78548  20422806.6754   20422806.9064   20422808.4514
      -666.1264
 -12737358.26448  -9888553.53547  22732078.9664   22732078.7884   22732081.0324
      1675.3474
 10  1  3  0 34  0.0000000  0  9G12G18G22G05G28G09G27G15G17
  -8214280.28147  -6382318.26346  23865628.0844   23865628.5564   23865630.2504
      3556.8304
 -12540374.33348  -9538695.01447  22984340.3244   22984339.8054   22984341.7374
       858.2064
  -2352492.12547  -1673869.54546  24937740.6304   24937740.9664   24937741.3494
      2344.0594
   2777432.93247   2176440.56245  25163563.9364   25163563.4504   25163568.7304
     -3595.6584
 -13050295.94448 -10128167.31947  23179604.4924   23179604.0094   23179605.6564
     -2757.9754
 -22213146.30149 -17216884.36048  21072154.8594   21072154.4184   21072156.9194
      2272.5314
 -20504076.91749 -15937081.00448  21455722.3064   21455722.3124   21455724.4774
      1155.1794
 -25266185.76349 -19674802.24548  20426657.3194   20426657.5914   20426659.0704
      -683.3194
 -12787394.08448  -9927542.48147  22722557.4074   22722557.7924   22722559.2914
      1659.8614
 10  1  3  0 34 30.0000000  0  9G12G18G22G05G28G09G27G15G17
  -8320907.74147  -6465404.59846  23845337.2024   23845337.4564   23845339.9004
      3551.4024
 -12565856.52348  -9558551.26547  22979491.4084   22979488.3494   22979492.9714
       840.1834
  -2422623.39247  -1728517.33146  24924396.1084   24924394.8684   24924396.9504
      2331.7104
   2885247.30047   2260451.74846  25184080.8604   25184081.5844   25184081.8284
     -3592.0714
 -12967466.78148 -10063625.11647  23195366.2814   23195366.4734   23195368.3214
     -2764.1634
 -22281193.76049 -17269908.34348  21059205.4304   21059205.2684   21059207.9374
      2263.7824
 -20538659.36049 -15964028.35448  21449141.5804   21449141.3224   21449144.1434
      1149.9204
 -25245445.00949 -19658640.62548  20430604.0404   20430604.3464   20430605.8284
      -699.7154
 -12836971.09748  -9966173.91647  22713123.2014   22713123.3834   22713125.3444
      1644.8994
 10  1  3  0 35  0.0000000  0  9G12G18G22G05G28G09G27G15G17
  -8427356.76947  -6548351.86946  23825081.1254   23825080.9704   23825082.8744
      3545.4774
 -12590788.45248  -9577978.73847  22974746.1884   22974745.7184   22974748.0104
       822.0934
  -2492370.29647  -1782865.54546  24911122.6114   24911121.0984   24911123.5784
      2318.2914
   2992971.78846   2344392.86945  25204579.8244   25204578.8904   25204584.8924
     -3589.0874
 -12884436.93048  -9998926.54047  23211166.8424   23211166.4644   23211168.2154
     -2770.6734
 -22348967.98049 -17322719.41948  21046308.7364   21046308.5104   21046311.3624
      2254.7044
 -20573071.97849 -15990843.37548  21442593.0434   21442592.8244   21442595.7284
      1144.3554
 -25224200.70849 -19642086.63448  20434646.7674   20434647.2194   20434648.6214
      -716.3614
 -12886090.14748 -10004448.49147  22703776.2124   22703776.4894   22703778.1124
      1629.8574
 10  1  3  0 35 30.0000000  0  9G12G18G22G05G28G09G27G15G17
  -8533624.20947  -6631157.64246  23804858.6844   23804859.0674   23804860.8614
      3538.2294
 -12615168.66548  -9596976.31947  22970106.1974   22970107.2594   22970107.5194
       802.3064
  -2561728.80847  -1836911.17446  24897925.1564   24897924.4574   24897923.6264
      2304.1394
   3100604.82946   2428262.72445  25225062.3724   25225062.4344   25225064.5784
     -3587.0924
 -12801207.51548  -9934072.45547  23227004.7294   23227004.3344   23227005.6844
     -2778.5624
 -22416466.71149 -17375315.82248  21033464.1414   21033464.3344   21033466.2414
      2244.4554
 -20607313.32849 -16017524.94048  21436077.0714   21436076.9794   21436079.7624
      1137.5774
 -25202451.49049 -19625139.19448  20438785.4754   20438785.7834   20438787.2624
      -734.3794
 -12934747.43448 -10042363.26147  22694517.1824   22694517.2504   22694519.4994
      1613.1914
 10  1  3  0 36  0.0000000  0  9G12G18G22G05G28G09G27G15G17
  -8639706.02547  -6713818.76746  23784672.3214   23784672.1214   23784674.6604
      3532.9344
 -12638994.48748  -9615541.90347  22965573.0924   22965574.7374   22965574.3654
       784.8834
  -2630695.53547  -1890651.46946  24884798.3084   24884795.7674   24884798.9814
      2292.3584
   3208146.02746   2512061.06245  25245526.5684   25245525.6194   25245529.7984
     -3583.0324
 -12717778.18648  -9869062.60047  23242880.6124   23242880.7374   23242883.4994
     -2784.5604
 -22483686.73649 -17427695.05548  21020672.6344   21020672.3654   21020674.9984
      2235.8694
 -20641381.35749 -16044071.45448  21429594.1864   21429593.7084   21429597.0064
      1132.6394
 -25180195.53649 -19607796.89848  20443020.7684   20443020.9724   20443022.5614
      -750.4334
 -12982939.04848 -10079915.16947  22685346.3904   22685346.7854   22685348.4404
      1598.3564
 10  1  3  0 36 30.0000000  0  9G12G18G22G05G28G09G27G15G17
  -8745603.20047  -6796336.03146  23764520.8074   23764521.7064   23764522.3734
      3526.8714
 -12662267.43248  -9633676.68147  22961144.9754   22961144.9274   22961145.7444
       766.5094
  -2699270.55747  -1944086.54046  24871750.1564   24871750.0394   24871752.3614
      2279.3034
   3315590.39946   2595783.87945  25265971.9414   25265974.2654   25265975.0004
     -3579.4004
 -12634153.43448  -9803900.46847  23258794.0784   23258792.6764   23258795.1294
     -2790.8754
 -22550629.51949 -17479858.25748  21007933.8224   21007933.5664   21007936.4414
      2226.8404
 -20675278.48349 -16070484.80048  21423143.7804   21423143.7264   21423146.0154
      1127.1834
 -25157435.04749 -19590061.46148  20447351.8544   20447352.1944   20447353.7444
      -766.9384
 -13030665.16248 -10117104.35247  22676264.3474   22676264.8294   22676266.9704
      1583.1794
 10  1  3  0 37  0.0000000  0  9G12G18G22G05G28G09G27G15G17
  -8851315.17247  -6878708.96346  23744404.1904   23744404.1774   23744407.6584
      3520.3804
 -12684988.45848  -9651381.37947  22956821.0874   22956821.3264   22956823.7664
       748.0934
  -2767453.19247  -1997215.86246  24858776.5374   24858777.8724   24858778.9554
      2266.0814
   3422934.13546   2679428.34146  25286398.6064   25286399.4864   25286401.9724
     -3576.5784
 -12550336.64548  -9738588.68647  23274743.8224   23274742.9664   23274744.3604
     -2797.0584
 -22617295.39449 -17531805.69148  20995247.9964   20995247.5294   20995250.0144
      2217.4854
 -20709005.78949 -16096765.81448  21416725.5744   21416725.3794   21416728.4524
      1121.3124
 -25134171.42549 -19571933.96748  20451778.7754   20451779.1424   20451780.5314
      -783.9244
 -13077924.96748 -10153930.16947  22667271.3424   22667271.4504   22667273.1064
      1567.3784
 10  1  3  0 37 30.0000000  0  9G12G18G22G05G28G09G27G15G17
  -8956836.01247  -6960932.99746  23724324.3014   23724323.2374   23724326.4284
      3514.6294
 -12707152.90448  -9668652.39547  22952603.0854   22952603.1904   22952604.2904
       729.7454
  -2835237.19646  -2050034.59846  24845878.4444   24845876.8534   24845875.7264
      2252.9084
   5105598.81446   3990595.51545  25306806.2014   25306808.5344   25306809.7774
     -3572.6864
 -12466325.88648  -9673125.75847  23290730.3884   23290729.8654   23290730.9114
     -2803.2854
 -22683679.56449 -17583533.61848  20982615.2494   20982615.2804   20982617.5884
      2208.4074
 -20742559.18949 -16122911.31848  21410340.7944   21410340.5924   21410343.4494
      1115.7574
 -25110400.95649 -19553411.53248  20456302.1174   20456302.5444   20456304.0534
      -800.5204
 -13124712.43948 -10190387.93547  22658367.9434   22658368.2114   22658370.0254
      1551.9554
 10  1  3  0 38  0.0000000  0  9G12G18G22G05G28G09G27G15G17
  -9062167.29747  -7043009.29246  23704280.9714   23704281.9834   23704282.6534
      3507.5184
 -12728763.55948  -9685491.86647  22948489.8164   22948489.8624   22948493.5544
       710.7934
  -2902624.00547  -2102543.78346  24833051.1624   24833048.2614   24833051.0494
      2239.4654
   5212738.49746   4074080.92946  25327195.1744   25327194.6444   25327197.0844
     -3569.8094
 -12382126.69148  -9607516.00247  23306753.1764   23306753.4704   23306755.3014
     -2810.0504
 -22749784.12549 -17635043.65648  20970035.8444   20970035.8754   20970038.6914
      2198.3824
 -20775941.89249 -16148923.80848  21403988.3104   21403987.9904   21403990.5664
      1109.5654
 -25086126.44149 -19534496.33248  20460921.4444   20460921.6634   20460923.2964
      -817.8594
 -13171028.45348 -10226478.33247  22649554.3354   22649554.1544   22649556.9294
      1535.6684
 10  1  3  0 38 30.0000000  0  9G12G18G22G05G28G09G27G15G17
  -9167305.95347  -7124935.50946  23684273.2404   23684272.0744   23684273.5104
      3501.7234
 -12749818.51348  -9701898.34047  22944484.0554   22944484.2644   22944486.2044
       692.9634
  -2969610.25647  -2154740.90846  24820307.4374   24820308.5574   24820307.2704
      2226.2924
   5319772.40746   4157483.97345  25347562.5724   25347563.8544   25347565.0604
     -3566.0094
 -12297739.38848  -9541759.66747  23322811.5174   23322811.2944   23322812.9664
     -2815.8644
 -22815606.91449 -17686334.13648  20957510.0974   20957510.2954   20957512.8624
      2189.7374
 -20809152.49349 -16174802.19048  21397668.0534   21397668.0374   21397670.9414
      1104.5294
 -25061346.40349 -19515187.22148  20465637.0354   20465637.3244   20465638.6294
      -834.1494
 -13216869.82848 -10262198.87747  22640830.7014   22640831.2224   22640832.7194
      1520.3384
 10  1  3  0 39  0.0000000  0  9G12G18G22G05G28G09G27G15G17
  -9272249.45547  -7206709.64346  23664302.3504   23664302.5534   23664304.6394
      3495.1594
 -12770316.92048  -9717871.13147  22940583.4294   22940582.8764   22940585.0864
       674.2654
  -3036193.38747  -2206623.85946  24807637.8914   24807638.5704   24807639.5344
      2213.3804
   5426698.21346   4240802.71246  25367909.3544   25367910.1544   25367912.0834
     -3561.6964
 -12213165.63748  -9475858.04447  23338905.3344   23338904.8134   23338906.1224
     -2821.8564
 -22881146.48349 -17737403.91648  20945038.5234   20945038.3924   20945041.2044
      2180.3574
 -20842190.29649 -16200545.92948  21391381.4244   21391381.4054   21391383.9874
      1098.7784
 -25036060.61349 -19495484.01548  20470448.7884   20470448.8094   20470450.3794
      -851.0204
 -13262233.91848 -10297547.50747  22632198.0324   22632198.2174   22632200.9954
      1504.4614
 10  1  3  0 39 30.0000000  0  9G12G18G22G05G28G09G27G15G17
  -9376997.47847  -7288331.47646  23644370.0854   23644369.8014   23644371.6014
      3488.3564
 -12790259.00748  -9733410.44147  22936788.0914   22936788.0014   22936789.6464
       655.3524
  -3102372.34246  -2258191.87846  24795044.1764   24795043.6654   24795045.6694
      2198.8104
   5533512.71646   4324034.74346  25388237.1654   25388237.6114   25388240.2704
     -3558.7094
 -12128408.51848  -9409813.52847  23355033.7234   23355033.7704   23355035.1744
     -2828.1424
 -22946402.69549 -17788252.90548  20932620.9414   20932620.8754   20932623.3244
      2170.3884
 -20875056.07649 -16226155.63048  21385127.0934   21385126.9574   21385129.6284
      1092.4844
 -25010270.10149 -19475387.52148  20475356.3744   20475356.5504   20475358.3264
      -868.3034
 -13307119.68348 -10332523.42947  22623657.1564   22623657.4264   22623659.4484
      1487.9864
 10  1  3  0 40  0.0000000  0  9G12G18G22G05G28G09G27G15G17
  -9481546.87047  -7369798.51146  23624475.2274   23624474.7704   23624476.9564
      3481.8054
 -12809643.32048  -9748515.11047  22933100.0904   22933100.1314   22933101.0624
       636.9744
  -3168144.19846  -2309442.66346  24782527.5654   24782527.2364   24782527.4834
      2185.7004
   5640214.40146   4407178.86546  25408541.2534   25408540.8454   25408542.5034
     -3554.9214
 -12043468.90348  -9343626.83647  23371197.4104   23371196.5604   23371199.4664
     -2834.0804
 -23011373.61249 -17838879.57848  20920257.0094   20920256.7714   20920259.4244
      2161.0734
 -20907748.80949 -16251630.48648  21378905.9874   21378905.9504   21378908.5154
      1086.8814
 -24983973.59649 -19454896.74548  20480360.3424   20480360.6464   20480362.4074
      -884.8424
 -13351523.92948 -10367124.13747  22615206.8274   22615207.2924   22615209.4994
      1472.2804
 10  1  3  0 40 30.0000000  0  9G12G18G22G05G28G09G27G15G17
  -9585903.92747  -7451115.70047  23604616.5054   23604616.7924   23604618.7334
      3475.5974
 -12828477.53848  -9763191.14747  22929516.2414   22929516.4754   22929516.7254
       618.8034
  -3233514.53247  -2360380.62246  24770088.7574   24770087.4554   24770088.6764
      2172.2004
   5746792.95346   4490226.99746  25428821.9124   25428822.2574   25428825.7634
     -3550.5444
 -11958356.87448  -9277305.79247  23387393.8344   23387393.6754   23387394.9724
     -2839.8544
 -23076066.36649 -17889289.50748  20907946.6254   20907946.4494   20907948.9714
      2152.0134
 -20940276.27349 -16276976.56648  21372716.1684   21372716.3024   21372718.9614
      1081.5774
 -24957179.40149 -19434018.15948  20485459.3534   20485459.4984   20485461.1244
      -901.2174
 -13395452.64048 -10401354.30447  22606847.5894   22606848.0734   22606850.1214
      1456.5984
 10  1  3  0 41  0.0000000  0  9G12G18G22G05G28G09G27G15G17
  -9690052.30248  -7532270.27547  23584798.1464   23584797.8864   23584799.3504
      3468.1354
 -12846746.74448  -9777426.89947  22926039.3924   22926039.4914   22926041.6254
       599.6654
  -3298467.28947  -2410993.11646  24757728.1954   24757728.6304   24757727.7234
      2157.2784
   5853260.17447   4573188.41946  25449083.2764   25449082.8454   25449085.1744
     -3546.7584
 -11873059.89948  -9210840.61147  23403625.2314   23403624.7454   23403627.9434
     -2846.5284
 -23140465.29149 -17939470.47548  20895691.7294   20895691.6014   20895694.5374
      2141.6624
 -20972623.64349 -16302182.31648  21366560.6394   21366560.5364   21366563.6774
      1075.1534
 -24929873.00849 -19412740.45848  20490655.4004   20490655.6834   20490657.3914
      -918.5954
 -13438889.33048 -10435201.07847  22598581.7104   22598581.8644   22598584.0624
      1439.6704
 10  1  3  0 41 30.0000000  0 10G12G18G22G05G26G28G09G27G15G17
  -9793998.96748  -7613267.65647  23565017.3814   23565018.0704   23565019.8004
      3461.0724
 -12864459.09748  -9791228.75347  22922669.7194   22922668.3354   22922671.0854
       580.6754
  -3363008.92647  -2461285.29846  24745446.7164   24745448.3474   24745448.2154
      2144.3274
   5959605.77046   4656055.03446  25469319.5404   25469320.5734   25469323.0624
     -3543.7904
  -1356242.98947  -1010010.59646  24902923.5334   24902924.1724   24902924.8694
      3822.3044
 -11787588.58948  -9144239.59046  23419889.8594   23419888.8054   23419891.4384
     -2852.3764
 -23204578.11749 -17989428.50948  20883491.5694   20883491.4634   20883493.5584
      2131.7684
 -21004799.44949 -16327254.37248  21360437.9304   21360437.5944   21360440.4254
      1069.1284
 -24902062.91349 -19391070.25948  20495947.4444   20495947.7104   20495949.5764
      -935.7914
 -13481840.52548 -10468669.53747  22590408.3804   22590408.5174   22590410.4734
      1423.0654
 10  1  3  0 42  0.0000000  0 10G12G18G22G05G26G28G09G27G15G17
  -9897740.08547  -7694104.89047  23545275.7874   23545276.0294   23545277.8764
      3454.1704
 -12881612.50048  -9804595.04647  22919405.4814   22919404.4144   22919404.3944
       561.8534
  -3427135.90347  -2511254.36646  24733243.4914   24733242.7364   24733241.7714
      2130.3834
   6065828.62447   4738825.98946  25489533.0134   25489533.6644   25489535.5344
     -3539.2344
  -1470906.62847  -1099358.93645  24881103.8314   24881103.7184   24881106.1194
      3820.6294
 -11701942.76848  -9077502.59347  23436187.7794   23436187.6494   23436188.6614
     -2858.3674
 -23268401.65749 -18039161.13048  20871346.2754   20871346.2014   20871348.5124
      2122.1594
 -21036801.59349 -16352191.09648  21354347.8974   21354347.9774   21354350.6964
      1063.1424
 -24873747.41749 -19369006.24548  20501335.7614   20501336.1074   20501337.7824
      -952.8264
 -13524302.41248 -10501756.72347  22582328.2854   22582328.5764   22582330.5794
      1406.7304
 10  1  3  0 42 30.0000000  0  9G12G18G22G26G28G09G27G15G17
 -10001275.27147  -7774781.65747  23525573.7924   23525573.1154   23525575.3134
      3447.6384
 -12898207.93148  -9817526.55446  22916246.9754   22916246.6674   22916247.3294
       543.6354
  -3490847.45247  -2560899.71446  24721119.7174   24721121.4474   24721122.6214
      2116.6614
  -1585524.65747  -1188671.68046  24859292.4984   24859293.4854   24859294.9274
      3819.6984
 -11616126.08148  -9010632.46147  23452518.0324   23452516.6094   23452519.9874
     -2863.6684
 -23331936.54049 -18088668.82048  20859256.0474   20859255.8504   20859258.0614
      2112.9874
 -21068631.37649 -16376993.52048  21348291.1434   21348290.8034   21348293.6994
      1057.9994
 -24844928.05549 -19346549.60648  20506820.0724   20506820.3574   20506821.9854
      -969.1844
 -13566274.25748 -10534462.05147  22574341.4014   22574341.7214   22574343.6224
      1390.7204
 10  1  3  0 43  0.0000000  0  9G12G18G22G26G28G09G27G15G17
 -10104599.51448  -7855294.04647  23505912.3674   23505912.6794   23505913.8274
      3439.9204
 -12914241.34348  -9830020.14446  22913195.3964   22913195.6894   22913196.8244
       524.4664
  -3554137.93947  -2610216.94846  24709076.5304   24709074.3134   24709075.8504
      2102.1194
  -1700091.47646  -1277944.49446  24837490.5614   24837490.3014   24837493.0994
      3817.4314
 -11530136.69947  -8943627.75947  23468881.4454   23468880.5184   23468883.0694
     -2869.7804
 -23395178.21249 -18137948.03948  20847221.8064   20847221.6124   20847223.9334
      2102.6684
 -21100285.19149 -16401658.83448  21342267.6894   21342267.4594   21342270.2084
      1051.5824
 -24815601.38649 -19323697.66148  20512400.7534   20512400.9014   20512402.5734
      -986.5684
 -13607751.00148 -10566781.59047  22566448.6754   22566448.6464   22566450.3334
      1373.6924
 10  1  3  0 43 30.0000000  0  9G12G18G22G26G28G09G27G15G17
 -10207717.28448  -7935645.54547  23486289.6054   23486290.6884   23486291.2804
      3433.9124
 -12929718.66448  -9842080.40747  22910250.1604   22910249.8334   22910252.2734
       506.7184
  -3617012.16047  -2659209.85346  24697110.2254   24697109.7354   24697110.9044
      2089.2044
  -1814611.58346  -1367180.95946  24815698.4704   24815698.4204   24815702.1364
      3816.8484
 -11443983.32748  -8876495.27447  23485275.9714   23485274.1374   23485277.9964
     -2874.4814
 -23458132.13049 -18187003.02948  20835241.7274   20835241.5524   20835244.1014
      2093.8014
 -21131769.33849 -16426191.93548  21336276.3424   21336276.2904   21336278.9204
      1046.7624
 -24785774.19449 -19300455.70648  20518076.7784   20518076.9104   20518078.4474
     -1002.3784
 -13648736.79548 -10598718.57147  22558649.1794   22558649.0114   22558651.3214
      1358.1954
 10  1  3  0 44  0.0000000  0  9G12G18G22G26G28G09G27G15G17
 -10310621.86648  -8015830.92947  23466706.9474   23466706.9324   23466709.3364
      3426.4804
 -12944635.28548  -9853703.77247  22907412.6974   22907410.4014   22907413.4704
       487.8964
  -3679463.03647  -2707872.88046  24685226.9964   24685225.8584   24685225.8964
      2074.5334
  -1929077.78647  -1456375.38646  24793914.8924   24793915.1604   24793919.1694
      3814.1814
 -11357662.68748  -8809232.43946  23501702.3564   23501702.0724   23501704.7584
     -2880.0244
 -23520792.09549 -18235828.96748  20823317.9244   20823317.7504   20823320.4674
      2083.7884
 -21163078.46649 -16450588.65948  21330318.4634   21330318.4274   21330321.1194
      1040.7544
 -24755441.38249 -19276819.75448  20523848.7284   20523849.1074   20523850.6864
     -1019.5434
 -13689224.99648 -10630267.81747  22550944.6044   22550944.9884   22550946.7354
      1341.3094
 10  1  3  0 44 30.0000000  0  9G12G18G22G26G28G09G27G15G17
 -10413311.27548  -8095848.64047  23447166.2114   23447166.7194   23447167.6434
      3419.4264
 -12958990.21248  -9864889.43547  22904679.5324   22904681.5784   22904681.9814
       469.2494
  -3741488.19947  -2756204.15446  24673423.6094   24673423.9884   24673424.5324
      2060.1414
  -2043487.50447  -1545525.77246  24772144.5464   24772145.2804   24772145.2574
      3812.7674
 -11271176.66447  -8741840.74046  23518159.9074   23518158.7624   23518162.0394
     -2885.6194
 -23583156.83349 -18284424.85748  20811450.1944   20811450.1084   20811452.5024
      2073.8244
 -21194212.14549 -16474848.67048  21324394.0164   21324393.8744   21324396.1834
      1034.7914
 -24724602.86349 -19252789.74448  20529717.0704   20529717.4484   20529719.0804
     -1036.3884
 -13729212.85748 -10661427.19047  22543335.3164   22543335.5274   22543337.3344
      1324.4784
 10  1  3  0 45  0.0000000  0  9G12G18G22G26G28G09G27G15G17
 -10515788.46048  -8175701.00247  23427665.8474   23427665.5424   23427668.1734
      3412.4324
 -12972787.90148  -9875640.90647  22902054.7894   22902054.0344   22902056.1384
       450.6164
  -3803090.92647  -2804206.29046  24661701.6844   24661700.7144   24661700.7444
      2046.5364
  -2157843.45846  -1634634.34746  24750384.1054   24750383.6684   24750386.2554
      3810.3354
 -11184531.92147  -8674325.36446  23534647.5404   23534646.7564   23534650.3274
     -2890.6064
 -23645230.14049 -18332793.65348  20799638.2884   20799637.7684   20799640.5874
      2064.1104
 -21225174.85449 -16498975.46048  21318501.9694   21318501.9094   21318504.4484
      1029.1784
 -24693263.94249 -19228369.80648  20535680.8124   20535680.9854   20535682.5534
     -1053.0544
 -13768703.61248 -10692199.20347  22535820.4224   22535820.7744   22535822.4544
      1308.0714
 10  1  3  0 45 30.0000000  0  9G12G18G22G26G28G09G27G15G17
 -10618046.09348  -8255382.27547  23408206.5374   23408207.0724   23408207.3284
      3404.6294
 -12986022.46448  -9885953.56447  22899536.3654   22899535.7834   22899537.0544
       431.4574
  -3864263.16547  -2851872.94746  24650061.0724   24650061.6994   24650062.3624
      2031.4854
  -2272137.78147  -1723694.78846  24728634.4234   24728635.1004   24728635.7064
      3808.2944
 -11097724.51747  -8606683.24646  23551166.7484   23551166.4844   23551168.2864
     -2896.6394
 -23707005.32249 -18380930.14448  20787882.7544   20787882.5994   20787885.2264
      2053.9744
 -21255960.69049 -16522964.43348  21312643.7054   21312643.4134   21312645.6684
      1022.9554
 -24661418.68049 -19203555.32448  20541740.8234   20541741.0044   20541742.6664
     -1070.2584
 -13807689.81948 -10722578.05847  22528401.5464   22528402.1634   22528403.5124
      1290.7384
 10  1  3  0 46  0.0000000  0  8G12G18G22G28G09G27G15G17
 -10720085.79348  -8334893.73047  23388789.0494   23388788.8464   23388791.5444
      3397.6654
 -12998697.69748  -9895830.39047  22897124.5174   22897123.7194   22897125.5604
       413.1644
  -3925007.04347  -2899205.85946  24638501.7414   24638501.4204   24638501.7654
      2018.4544
 -11010760.33647  -8538918.96546  23567715.3564   23567714.5374   23567717.1004
     -2901.0674
 -23768485.05749 -18428836.42248  20776183.4534   20776183.4094   20776185.7024
      2044.3714
 -21286573.13049 -16546818.29048  21306818.3364   21306818.0764   21306820.8544
      1017.4934
 -24629071.00749 -19178349.35048  20547896.3724   20547896.5604   20547898.1394
     -1086.5934
 -13846172.93248 -10752564.89347  22521078.4614   22521078.7384   22521080.5264
      1274.2714
 10  1  3  0 46 30.0000000  0  9G12G18G22G26G28G09G27G15G17
 -10821903.90347  -8414232.53547  23369413.4474   23369413.4954   23369415.6194
      3390.2714
 -13010810.98848  -9905269.32547  22894818.8794   22894818.6294   22894820.3414
       394.3354
  -3985318.57947  -2946201.84646  24627024.7174   24627025.5044   24627025.0544
      2003.3064
  -2500540.83156  -1901671.17456  24685170.6514   24685172.5924   24685172.6174
      3804.3564
 -10923638.79347  -8471032.05746  23584294.4014   23584294.4084   23584295.3544
     -2907.0874
 -23829665.93949 -18476509.83248  20764541.2594   20764541.0084   20764543.4924
      2034.2264
 -21317009.85849 -16570535.22348  21301026.3924   21301026.2504   21301029.0764
      1011.6644
 -24596219.03049 -19152750.41448  20554147.6854   20554147.9644   20554149.5844
     -1103.4464
 -13884149.12348 -10782156.73347  22513851.8504   22513852.1184   22513853.8824
      1257.3864
 10  1  3  0 47  0.0000000  0  8G12G18G22G28G09G27G15G17
 -10923501.55148  -8493399.53947  23350079.5824   23350080.6344   23350082.5344
      3382.6824
 -13022364.64548  -9914272.18447  22892619.6964   22892618.8894   22892623.0594
       375.4244
  -4045198.20547  -2992861.33146  24615631.9634   24615631.6254   24615631.1504
      1988.4244
 -10836364.02147  -8403025.74946  23600902.1334   23600901.5164   23600904.2564
     -2911.8854
 -23890549.86149 -18523951.84348  20752955.3554   20752955.3754   20752957.9644
      2024.2854
 -21347273.33949 -16594117.16148  21295267.5324   21295267.4754   21295270.1064
      1005.8684
 -24562865.79049 -19126760.88148  20560494.5944   20560494.8934   20560496.5224
     -1120.2944
 -13921619.42048 -10811354.36647  22506721.4134   22506721.5234   22506723.4674
      1240.3434
 10  1  3  0 47 30.0000000  0  8G12G18G22G28G09G27G15G17
 -11024875.51047  -8572392.24147  23330789.2264   23330789.8454   23330790.9074
      3375.3244
 -13033357.93248  -9922838.39547  22890528.5134   22890528.1014   22890530.6714
       356.9434
  -4104642.99347  -3039181.92946  24604318.2474   24604317.7104   24604317.3614
      1973.8764
 -10748937.78447  -8334901.42346  23617538.9754   23617537.9144   23617540.1524
     -2916.8444
 -23951134.75149 -18571160.83848  20741426.4634   20741426.2784   20741428.6504
      2014.3824
 -21377362.43649 -16617563.21548  21289541.6364   21289541.3274   21289543.9454
      1000.0424
 -24529010.08649 -19100379.81848  20566937.1794   20566937.6324   20566939.1444
     -1137.0004
 -13958580.51248 -10840155.21347  22499688.0504   22499687.9654   22499690.3054
      1223.4814
 10  1  3  0 48  0.0000000  0  8G12G18G22G28G09G27G15G17
 -11126023.30647  -8651208.70147  23311541.3944   23311540.9894   23311543.4634
      3367.5094
 -13043789.52348  -9930966.93847  22888543.9964   22888543.5084   22888547.0984
       338.0054
  -4163650.61447  -3085161.90646  24593089.8224   24593090.8214   24593090.5704
      1959.5594
 -10661360.96347  -8266659.75146  23634203.9764   23634203.5184   23634205.3634
     -2921.9994
 -24011418.72249 -18618135.34848  20729954.6334   20729954.4814   20729957.2514
      2004.1574
 -21407275.62249 -16640872.19448  21283849.5154   21283849.1474   21283851.9604
       993.8764
 -24494651.51149 -19073606.90748  20573475.4984   20573475.4784   20573477.3204
     -1153.8404
 -13995030.13148 -10868557.51247  22492752.0624   22492751.7784   22492753.5544
      1206.0314
 10  1  3  0 48 30.0000000  0  8G12G18G22G28G09G27G15G17
 -11226943.73848  -8729848.01147  23292337.4704   23292337.4554   23292338.8404
      3359.8254
 -13053659.56848  -9938657.89047  22886664.9434   22886664.7384   22886668.0684
       319.3474
  -4222219.14747  -3130799.71346  24581943.6044   24581943.6424   24581942.9794
      1944.4104
 -10573635.38547  -8198302.17446  23650897.8134   23650896.8724   23650899.3154
     -2927.1094
 -24071400.65549 -18664874.50948  20718540.4694   20718540.3574   20718542.9414
      1993.8704
 -21437012.86249 -16664044.07248  21278190.5584   21278190.1654   21278193.3054
       988.0354
 -24459790.92549 -19046442.81848  20580109.1234   20580109.4264   20580111.2654
     -1170.7384
 -14030966.26148 -10896559.68747  22485913.7654   22485913.7494   22485915.3224
      1188.9914
 10  1  3  0 49  0.0000000  0  9G12G18G22G26G28G09G27G15G17
 -11327636.31548  -8808309.76147  23273175.7684   23273176.5884   23273177.2404
      3352.3774
 -13062969.63348  -9945912.49947  22884893.1844   22884894.2124   22884894.5704
       300.8724
  -4280348.43347  -3176095.29846  24570882.6054   24570882.1864   24570883.0614
      1930.2294
   -975952.92247   -740901.58346  24576738.6594   24576741.3964   24576737.6464
      3792.5674
 -10485764.39047  -8129831.28746  23667619.0594   23667618.2614   23667620.4634
     -2931.6964
 -24131081.27049 -18711378.87448  20707183.8634   20707183.7334   20707186.0654
      1984.1774
 -21466575.62549 -16687079.99348  21272564.9954   21272564.7964   21272567.6464
       982.2994
 -24424429.78349 -19018888.68448  20586838.0364   20586838.4824   20586840.0234
     -1187.2014
 -14066389.39248 -10924162.12647  22479172.6064   22479172.4784   22479174.4654
      1171.8634
 10  1  3  0 49 30.0000000  0  9G12G18G22G26G28G09G27G15G17
 -11428097.52848  -8886591.23847  23254058.9924   23254059.1284   23254060.1054
      3344.5264
 -13071717.56948  -9952729.08847  22883228.9314   22883229.8564   22883231.4504
       281.9994
  -4338034.68147  -3221045.62646  24559904.7204   24559904.9904   24559906.3434
      1915.1904
  -1089696.01747   -829532.69446  24555092.1064   24555090.7874   24555092.7494
      3790.3874
 -10397748.15447  -8061247.22546  23684367.9024   23684367.7204   23684369.8374
     -2936.5434
 -24190457.41749 -18757645.99448  20695884.7964   20695884.7854   20695887.3054
      1973.8094
 -21495961.53049 -16709978.10648  21266973.0224   21266972.5984   21266975.8294
       976.3954
 -24388566.41949 -18990943.20948  20593662.6714   20593662.9274   20593664.6804
     -1203.9764
 -14101294.88948 -10951361.21347  22472530.0794   22472530.2834   22472533.0684
      1154.5174
 10  1  3  0 50  0.0000000  0  9G12G18G22G26G28G09G27G15G17
 -11528328.38248  -8964693.20447  23234985.8174   23234985.1334   23234986.9464
      3337.4694
 -13079906.09748  -9959109.77347  22881670.7424   22881670.5694   22881671.7864
       263.8224
  -4395278.93847  -3265651.56246  24549010.9914   24549011.5004   24549014.8704
      1901.2444
  -1203361.72046   -918103.39446  24533462.7994   24533463.3744   24533466.7104
      3788.2194
 -10309591.23247  -7992553.53746  23701143.8634   23701142.4594   23701145.5924
     -2940.5694
 -24249531.00449 -18803677.35348  20684643.5164   20684643.3104   20684645.8484
      1964.4654
 -21525173.32449 -16732740.54348  21261414.2094   21261414.2554   21261416.6784
       970.8984
 -24352204.37149 -18962609.14748  20600582.1484   20600582.5174   20600584.1134
     -1220.0724
 -14135684.76848 -10978158.51547  22465985.8264   22465986.4324   22465988.3764
      1137.8514
 10  1  3  0 50 30.0000000  0  9G12G18G22G26G28G09G27G15G17
 -11628323.16748  -9042611.22547  23215957.2434   23215957.5344   23215958.6574
      3329.5544
 -13087531.58948  -9965051.73647  22880221.3104   22880221.1854   22880220.0014
       245.1494
  -4452075.59447  -3309908.65546  24538203.4414   24538204.1764   24538201.8994
      1886.0734
  -1316944.02547  -1006609.19146  24511847.7094   24511847.5104   24511853.1114
      3784.6394
 -10221291.28247  -7923748.39346  23717946.6874   23717945.5744   23717947.5154
     -2945.5104
 -24308297.01049 -18849469.04948  20673460.6224   20673460.3354   20673463.2014
      1954.0144
 -21554206.81749 -16755364.04248  21255889.1254   21255889.1334   21255891.8314
       965.2974
 -24315339.82549 -18933883.53148  20607597.1964   20607597.4014   20607599.2494
     -1236.8894
 -14169552.94948 -11004549.30647  22459541.0144   22459541.3424   22459543.2474
      1120.5164
 10  1  3  0 51  0.0000000  0  9G12G18G22G26G28G09G27G15G17
 -11728083.61748  -9120346.64547  23196973.7434   23196974.7334   23196976.8014
      3321.1434
 -13094597.21448  -9970557.43547  22878876.0884   22878875.3864   22878875.8554
       226.0054
  -4508425.76847  -3353817.94646  24527479.4904   24527479.5314   24527482.5364
      1870.9394
  -1430444.03046  -1095050.81645  24490248.7134   24490245.9624   24490249.8444
      3781.8564
 -10132853.82347  -7854836.09446  23734775.5274   23734774.8874   23734778.1434
     -2950.2764
 -24366757.36449 -18895022.56848  20662335.9374   20662335.9584   20662338.1554
      1943.2924
 -21583065.06949 -16777850.99448  21250397.5744   21250397.5124   21250400.1524
       958.8204
 -24277976.43049 -18904769.20148  20614707.2904   20614707.4684   20614709.3194
     -1253.9324
 -14202900.87448 -11030534.70647  22453195.1004   22453195.5664   22453197.3154
      1102.6754
 10  1  3  0 51 30.0000000  0  9G12G18G22G26G28G09G27G15G17
 -11827606.74848  -9197897.15747  23178034.8824   23178034.0864   23178036.1034
      3313.5934
 -13101101.53348  -9975625.75147  22877638.2024   22877637.8274   22877639.0884
       207.6284
  -4564326.98347  -3397377.27846  24516844.8544   24516843.7084   24516843.7424
      1855.8724
  -1543857.45447  -1183424.89245  24468668.5054   24468670.7254   24468670.8274
      3778.9554
 -10044279.33247  -7785817.03646  23751630.9714   23751630.3514   23751632.8034
     -2954.5184
 -24424909.93649 -18940336.25748  20651270.0634   20651269.8544   20651272.1884
      1933.4204
 -21611746.48449 -16800200.14748  21244939.6564   21244939.6734   21244942.4904
       953.3604
 -24240113.22449 -18875265.41048  20621912.4384   20621912.5744   20621914.4544
     -1270.2354
 -14235726.02348 -11056112.73747  22446948.8564   22446949.1414   22446950.8964
      1085.6694
 10  1  3  0 52  0.0000000  0  9G12G18G22G26G28G09G27G15G17
 -11926891.90048  -9275262.20647  23159141.6544   23159140.9794   23159144.2084
      3304.7834
 -13107045.90148  -9980257.75947  22876506.4324   22876505.3844   22876506.9704
       188.0734
  -4619778.43847  -3440586.23446  24506290.8164   24506290.3194   24506291.7294
      1839.8594
  -1657183.72147  -1271731.15746  24447100.9924   24447100.9214   24447106.2104
      3775.4744
  -9955570.69247  -7716693.42946  23768511.4284   23768512.1444   23768513.6964
     -2960.0144
 -24482754.99549 -18985410.32848  20640262.4404   20640262.2594   20640264.8104
      1922.2264
 -21640251.73249 -16822412.02148  21239515.4454   21239515.3324   21239518.1144
       946.5944
 -24201751.83849 -18845373.42348  20629212.4034   20629212.5524   20629214.3204
     -1287.7384
 -14268027.66448 -11081282.84447  22440802.2674   22440802.5154   22440803.8414
      1067.2854
 10  1  3  0 52 30.0000000  0  9G12G18G22G26G28G09G27G15G17
 -12025934.74748  -9352438.45347  23140293.9994   23140294.3764   23140296.7854
      3296.7724
 -13112427.88048  -9984451.52247  22875480.6414   22875480.6744   22875482.8954
       169.3194
  -4674775.77447  -3483441.28746  24495825.8754   24495826.2754   24495826.3824
      1825.0784
  -1770417.40946  -1359965.25145  24425554.9094   24425554.5024   24425557.2444
      3772.5944
  -9866727.34847  -7647464.86446  23785417.6694   23785416.7164   23785418.8394
     -2964.3744
 -24540288.65249 -19030241.74848  20629314.1074   20629314.1444   20629316.4884
      1911.9754
 -21668577.78149 -16844484.26448  21234124.9734   21234124.7854   21234127.9324
       940.7344
 -24162889.85849 -18815091.36348  20636607.5854   20636607.8294   20636609.3994
     -1304.2794
 -14299801.59348 -11106041.74647  22434755.7784   22434755.5714   22434757.9394
      1049.7464
 10  1  3  0 53  0.0000000  0  9G12G18G22G26G28G09G27G15G17
 -12124735.78148  -9429426.26447  23121492.9574   23121492.5354   23121494.9334
      3289.0344
 -13117249.47348  -9988208.62947  22874565.7194   22874564.7894   22874566.6874
       151.2704
  -4729319.24747  -3525942.71746  24485447.4354   24485446.1564   24485445.0134
      1810.2294
  -1883558.35747  -1448126.98946  24404025.9214   24404027.7304   24404030.0694
      3769.8504
  -9777752.81947  -7578134.07246  23802349.3354   23802347.9624   23802349.6194
     -2967.9094
 -24597511.99649 -19074831.36148  20618424.8144   20618424.9714   20618427.3194
      1902.2174
 -21696726.41949 -16866418.26648  21228768.7504   21228768.4964   21228771.1924
       935.1694
 -24123529.91549 -18784421.27848  20644097.4184   20644097.6144   20644099.5484
     -1320.3924
 -14331047.94248 -11130389.54847  22428810.0374   22428810.3134   22428811.7444
      1032.6494
 10  1  3  0 53 30.0000000  0  9G12G18G22G26G28G09G27G15G17
 -12223293.80848  -9506224.73047  23102738.1644   23102737.6844   23102739.5034
      3280.8724
 -13121511.72248  -9991529.87847  22873754.4384   22873753.1854   22873755.4124
       132.5434
  -4783407.88147  -3568089.70546  24475154.6024   24475154.9644   24475153.2714
      1795.0224
  -1996604.94647  -1536215.26746  24382511.0824   24382510.4124   24382513.3134
      3766.1974
  -9688649.49747  -7508702.91246  23819305.1384   23819304.4964   23819307.0374
     -2972.5494
 -24654424.61249 -19119178.85548  20607594.7954   20607594.6804   20607597.2014
      1891.5854
 -21724698.20749 -16888214.46648  21223445.9134   21223445.7474   21223448.4284
       929.3114
 -24083673.20449 -18753364.10648  20651682.0364   20651682.2384   20651683.9974
     -1337.0864
 -14361766.36348 -11154325.97447  22422964.1554   22422964.5704   22422966.3824
      1014.8974
 10  1  3  0 54  0.0000000  0  9G12G18G22G26G28G09G27G15G17
 -12321607.28248  -9582832.63347  23084029.7444   23084029.6924   23084031.7574
      3272.1654
 -13125214.34048  -9994415.04747  22873049.1504   22873049.3274   22873050.5074
       113.2894
  -4837040.05447  -3609881.01946  24464948.0424   24464947.2264   24464947.4584
      1779.2844
  -2109554.54147  -1624227.95546  24361017.8064   24361020.2844   24361020.9964
      3762.3754
  -9599419.63947  -7439173.17546  23836285.1054   23836284.4204   23836286.3934
     -2977.3134
 -24711025.62149 -19163283.53448  20596823.9274   20596823.7514   20596826.0214
      1880.5244
 -21752492.77249 -16909872.57048  21218156.5294   21218156.6594   21218159.2034
       922.5854
 -24043320.14049 -18721920.16148  20659360.8554   20659361.2184   20659362.9984
     -1354.2434
 -14391955.01948 -11177849.60347  22417219.4174   22417219.4514   22417221.5304
       996.5814
 10  1  3  0 54 30.0000000  0  9G12G18G22G26G28G09G27G15G17
 -12419672.40348  -9659247.01247  23065368.5454   23065368.6034   23065370.6654
      3264.5694
 -13128355.56148  -9996862.77547  22872451.2724   22872451.6684   22872452.5884
        95.3604
  -4890211.88047  -3651313.57446  24454829.5304   24454828.3444   24454828.4374
      1764.7614
  -2222402.63747  -1712161.48346  24339545.1674   24339545.8734   24339546.4074
      3760.2424
  -9510062.76947  -7369544.46946  23853288.6524   23853287.6684   23853290.3634
     -2980.7664
 -24767311.23949 -19207142.45248  20586113.2684   20586113.2334   20586115.5154
      1870.8464
 -21780107.42349 -16931390.47948  21212901.8174   21212901.9154   21212904.4524
       917.4564
 -24002468.86349 -18690088.00448  20667134.7074   20667135.0714   20667136.5524
     -1370.0284
 -14421609.85148 -11200957.26747  22411576.2934   22411576.5924   22411578.3964
       979.4934
 10  1  3  0 55  0.0000000  0  9G12G18G22G26G28G09G27G15G17
 -12517491.59148  -9735469.75047  23046753.7444   23046754.1644   23046755.2914
      3255.9414
 -13130939.63048  -9998876.33747  22871958.9804   22871958.9914   22871961.2374
        76.5064
  -4942925.67647  -3692389.31746  24444798.9954   24444797.8564   24444797.4564
      1748.5474
  -2335150.97247  -1800017.30046  24318091.6114   24318090.4594   24318090.6084
      3756.4614
  -9420584.51647  -7299821.17946  23870316.4474   23870315.3834   23870318.3094
     -2985.1564
 -24823284.65949 -19250758.10348  20575461.7494   20575461.7194   20575464.2044
      1860.0084
 -21807545.94349 -16952771.14148  21207680.5164   21207680.3614   21207682.6994
       911.1354
 -23961124.03949 -18657871.26248  20675002.3184   20675002.5364   20675004.1304
     -1386.9144
 -14450733.69248 -11223651.16647  22406034.1874   22406034.4934   22406036.2564
       961.4264
 10  1  3  0 55 30.0000000  0  9G12G18G22G26G28G09G27G15G17
 -12615059.29148  -9811496.52647  23028187.4084   23028188.2024   23028189.1124
      3248.2974
 -13132963.00948 -10000453.01547  22871575.1154   22871573.9184   22871576.7444
        58.5594
  -4995175.94747  -3733103.78946  24434853.4214   24434854.2664   24434856.7064
      1734.0714
  -2447793.36247  -1887790.63346  24296655.3574   24296654.2934   24296657.8504
      3752.7234
  -9330982.89847  -7230001.74646  23887366.7334   23887367.2964   23887368.1164
     -2988.8144
 -24878941.32149 -19294126.93648  20564870.4884   20564870.3834   20564872.9624
      1849.9834
 -21834804.50449 -16974011.57448  21202493.4574   21202493.0904   21202495.9034
       905.7254
 -23919282.40049 -18625267.38948  20682964.4004   20682964.7334   20682966.4304
     -1402.9794
 -14479321.38248 -11245927.28547  22400594.4674   22400594.4414   22400596.2334
       943.9074
 10  1  3  0 56  0.0000000  0  9G12G18G22G26G28G09G27G15G17
 -12712375.55748  -9887327.38647  23009668.5974   23009669.1804   23009671.1364
      3239.3494
 -13134427.41448 -10001594.10647  22871295.5944   22871295.6084   22871298.2004
        39.2884
  -5046962.81847  -3773457.21746  24425001.7294   24425001.0244   24424997.9854
      1717.9914
  -2560328.79447  -1975480.59846  24275240.7304   24275239.6984   24275244.1114
      3748.6894
  -9241261.29147  -7160088.81146  23904440.4834   23904439.2824   23904441.8924
     -2992.9574
 -24934281.35349 -19337249.02948  20554339.8414   20554339.6054   20554342.1454
      1839.0634
 -21861884.31149 -16995112.72248  21197340.0344   21197339.9994   21197342.8244
       899.3464
 -23876946.03549 -18592278.02048  20691020.9294   20691021.2234   20691022.8154
     -1419.7524
 -14507372.89348 -11267785.60747  22395256.2114   22395256.4194   22395257.9824
       925.6514
 10  1  3  0 56 30.0000000  0  9G12G18G22G26G28G09G27G15G17
 -12809438.94648  -9962961.19347  22991198.1984   22991198.3354   22991199.9024
      3231.0474
 -13135333.58448 -10002300.22047  22871124.1734   22871124.1354   22871125.5154
        21.0324
  -5098284.72147  -3813448.31946  24415235.1514   24415234.5534   24415234.2944
      1703.1224
  -2672755.23247  -2063085.57545  24253845.4884   24253846.4004   24253845.6304
      3745.2414
  -9151421.75347  -7090083.97646  23921536.0564   23921535.3174   23921537.7964
     -2996.7954
 -24989304.13949 -19380123.93048  20543869.3954   20543869.4024   20543871.6664
      1828.7554
 -21888785.18549 -17016074.43848  21192221.1244   21192220.5264   21192223.8244
       893.7944
 -23834115.76049 -18558903.78148  20699171.1794   20699171.4994   20699173.2394
     -1435.9154
 -14534886.95048 -11289225.13747  22390020.3694   22390020.7624   22390022.4924
       908.1084
 10  1  3  0 57  0.0000000  0  9G12G18G22G26G28G09G27G15G17
 -12906245.82548 -10038395.12347  22972776.3134   22972776.5574   22972778.2224
      3222.8724
 -13135679.53248 -10002569.79647  22871057.6094   22871058.2814   22871059.9004
         2.3874
  -5149138.26647  -3853074.42946  24405559.4504   24405557.6124   24405558.4484
      1687.4014
  -2785068.08346  -2150602.04346  24232474.8024   24232473.8064   24232475.7564
      3741.8304
  -9061464.05747  -7019987.08746  23938654.4314   23938655.5074   23938656.3574
     -3000.4044
 -25044006.72649 -19422749.31148  20533459.5294   20533459.5594   20533461.8614
      1818.2084
 -21915504.63349 -17036894.78348  21187136.4494   21187136.4564   21187139.0704
       887.7904
 -23790790.14749 -18525143.56648  20707415.7814   20707415.8574   20707417.7824
     -1452.2764
 -14561860.24948 -11310243.28047  22384887.5054   22384887.6684   22384890.3744
       890.2594
 10  1  3  0 57 30.0000000  0  9G12G18G22G26G28G09G27G15G17
 -13002797.66548 -10113630.31447  22954403.1294   22954403.6314   22954405.1794
      3214.2364
 -13135468.74348 -10002405.54247  22871097.1714   22871097.0484   22871099.1254
       -16.4914
  -5199525.10347  -3892336.89346  24395968.4134   24395968.6404   24395970.2284
      1671.7574
  -2897267.88546  -2238030.47546  24211125.1294   24211125.4554   24211125.9644
      3738.2624
  -8971393.12847  -6949801.96946  23955794.6954   23955794.3854   23955795.6154
     -3004.3134
 -25098390.84949 -19465126.55148  20523110.8594   20523110.6094   20523113.1244
      1807.5754
 -21942045.42549 -17057575.91848  21182085.9474   21182085.5654   21182088.5814
       881.7354
 -23746972.65349 -18491000.06548  20715753.8454   20715754.3134   20715755.9644
     -1468.7854
 -14588294.44248 -11330841.35747  22379857.6624   22379857.7384   22379859.9854
       872.1104
 10  1  3  0 58  0.0000000  0  9G12G18G22G26G28G09G27G15G17
 -13099092.54448 -10188665.27947  22936078.9524   22936078.7524   22936081.0614
      3205.6414
 -13134701.63648 -10001807.80247  22871243.9574   22871243.3764   22871245.2034
       -34.6994
  -5249443.14347  -3931234.07046  24386467.1224   24386467.5714   24386471.0114
      1656.1734
  -3009352.36047  -2325369.05746  24189792.5094   24189793.2634   24189795.6884
      3734.0044
  -8881210.57947  -6879529.88046  23972955.3834   23972955.9894   23972957.3784
     -3007.8544
 -25152455.68049 -19507254.99248  20512822.7134   20512822.4934   20512824.8704
      1797.0074
 -21968407.29449 -17078117.63448  21177069.6204   21177069.2474   21177072.0944
       875.7984
 -23702664.06849 -18456473.89948  20724185.5254   20724185.8074   20724187.5934
     -1485.0334
 -14614187.92648 -11351018.09547  22374930.0814   22374930.5394   22374932.2304
       854.1394
 10  1  3  0 58 30.0000000  0  9G12G18G22G26G28G09G27G15G17
 -13195126.40448 -10263496.85647  22917804.6204   22917804.8524   22917806.4934
      3196.6084
 -13133375.86248 -10000774.71347  22871496.9004   22871496.6754   22871498.2114
       -53.4704
  -5298888.42147  -3969762.85046  24377061.7294   24377060.2904   24377059.1994
      1640.3724
  -3121315.93146  -2412613.38246  24168486.4004   24168487.2714   24168490.5764
      3730.1634
  -8790915.28447  -6809169.92746  23990138.2264   23990136.5234   23990139.5774
     -3011.7684
 -25206196.99049 -19549131.32748  20502595.9634   20502596.0324   20502598.4534
      1785.9814
 -21994586.79449 -17098517.24448  21172087.7624   21172087.6224   21172090.6844
       869.6274
 -23657862.47049 -18421563.56548  20732711.0074   20732711.4004   20732713.1384
     -1501.6454
 -14639536.61548 -11370770.31847  22370106.4694   22370106.9304   22370108.4714
       835.8764
 10  1  3  0 59  0.0000000  0  9G12G18G22G26G28G09G27G15G17
 -13290902.26248 -10338127.38947  22899579.2304   22899579.3224   22899581.5844
      3188.3284
 -13131495.97548  -9999309.87347  22871854.0394   22871853.3824   22871855.8894
       -71.7984
  -5347863.68247  -4007925.37846  24367741.7884   24367742.4544   24367742.2304
      1624.7994
  -3233160.82646  -2499765.19256  24147199.6374   24147198.6874   24147204.2854
      3725.9344
  -8700513.44647  -6738726.94246  24007341.0664   24007341.0124   24007343.1134
     -3015.1414
 -25259618.17149 -19590758.21348  20492430.3804   20492429.9934   20492432.7874
      1775.4244
 -22020588.28249 -17118778.14148  21167139.8434   21167139.4684   21167142.5984
       863.8084
 -23612572.39949 -18386272.60148  20741329.4784   20741329.7434   20741331.6134
     -1517.8034
 -14664343.58048 -11390100.41947  22365385.6684   22365385.8774   22365387.9844
       818.0744
 10  1  3  0 59 30.0000000  0  9G12G18G22G26G28G09G27G15G17
 -13386412.63748 -10412551.05047  22881404.0934   22881404.5704   22881405.7264
      3179.7864
 -13129056.98848  -9997409.36147  22872318.2174   22872318.3254   22872319.0784
       -90.1744
  -5396361.89547  -4045716.15946  24358513.0654   24358510.7774   24358510.3194
      1609.3264
  -3344878.85946  -2586818.16046  24125943.1574   24125942.9474   24125947.3924
      3722.6334
  -8610001.75747  -6668198.35446  24024565.0954   24024564.4604   24024566.5034
     -3018.3164
 -25312712.71549 -19632130.57248  20482326.6524   20482326.4614   20482328.9864
      1764.9384
 -22046405.81949 -17138895.70448  21162226.9624   21162226.7804   21162229.6284
       858.0464
 -23566789.22849 -18350597.40948  20750041.7914   20750041.8584   20750043.8014
     -1533.7524
 -14688602.08348 -11409003.14747  22360769.5174   22360769.7884   22360771.7204
       800.0694
                            4  1
RINEX FILE SPLICE; other post-header comments skipped       COMMENT
 10  1  3  1  0  0.0000000  0  9G12G18G22G26G28G09G27G15G17
 -13481661.02548 -10486770.56147  22863278.7854   22863279.3374   22863280.4594
      3170.6754
 -13126064.38048  -9995077.48247  22872887.4464   22872886.8054   22872888.9584
      -109.1284
  -5444386.85947  -4083138.23046  24349372.2444   24349371.1154   24349372.8174
      1593.1684
  -3456472.46447  -2673774.19346  24104708.6404   24104709.3494   24104711.3444
      3717.2754
  -8519386.64147  -6597589.18746  24041808.4374   24041808.4054   24041809.8674
     -3022.0754
 -25365484.68449 -19673251.58248  20472284.5954   20472284.4064   20472286.7554
      1753.8234
 -22072044.10149 -17158873.58448  21157348.0334   21157347.8574   21157350.6404
       851.8194
 -23520518.57349 -18314542.35448  20758846.7394   20758847.0814   20758848.9234
     -1550.2704
 -14712315.68048 -11427481.26747  22356257.2864   22356257.1894   22356258.7574
       781.4514
 10  1  3  1  0 30.0000000  0  9G12G18G22G26G28G09G27G15G17
 -13576641.23448 -10560781.10647  22845204.7744   22845204.9584   22845206.9074
      3161.4694
 -13122514.20348  -9992311.10047  22873562.3264   22873562.6994   22873564.5704
      -127.3914
  -5491932.01347  -4120186.38246  24340328.2724   24340326.0064   24340325.4924
      1577.1104
  -3567934.53847  -2760627.77546  24083498.2784   24083499.5094   24083502.2644
      3713.1194
  -8428665.24347  -6526897.21046  24059072.2014   24059070.4854   24059073.3784
     -3025.5104
 -25417928.36549 -19714116.77948  20462304.9034   20462304.7284   20462307.2824
      1742.7644
 -22097498.28749 -17178708.01348  21152504.3324   21152504.1824   21152506.8374
       845.3674
 -23473756.83149 -18278104.63648  20767745.2994   20767745.6544   20767747.2494
     -1566.8954
 -14735478.56548 -11445530.25447  22351849.3804   22351849.4344   22351851.5744
       762.8934
 10  1  3  1  1  0.0000000  0  9G12G18G22G26G28G09G27G15G17
 -13671357.02048 -10634585.60547  22827180.6624   22827180.6514   22827184.0484
      3152.2824
 -13118411.87048  -9989114.49847  22874344.1874   22874342.3604   22874345.2994
      -146.3584
  -5539001.30047  -4156863.70346  24331369.9174   24331369.2734   24331368.7684
      1560.4674
  -3679267.70547  -2847380.88446  24062313.6964   24062315.0024   24062317.8444
      3708.6954
  -8337844.20847  -6456127.58546  24076354.2124   24076354.7604   24076355.1024
     -3029.5844
 -25470047.86449 -19754729.37448  20452386.9464   20452386.9884   20452389.5434
      1731.4754
 -22122772.80449 -17198402.43748  21147694.7254   21147694.8334   21147697.2444
       839.0944
 -23426509.56549 -18241288.59048  20776735.9554   20776736.4554   20776738.1724
     -1583.4034
 -14758094.66948 -11463153.18947  22347545.4404   22347545.3344   22347547.7394
       744.5754
 10  1  3  1  1 30.0000000  0  9G12G18G22G26G28G09G27G15G17
 -13765802.65848 -10708179.60147  22809208.3134   22809207.7504   22809209.3204
      3143.1654
 -13113753.90447  -9985484.92947  22875229.2204   22875229.6404   22875231.6014
      -165.2534
  -5585589.09147  -4193165.87846  24322504.6304   24322504.1704   24322505.8994
      1544.2294
  -3790465.67646  -2934028.64346  24041154.2784   24041154.5644   24041156.3344
      3703.4244
  -8246921.51647  -6385278.75146  24093656.9214   24093655.5634   24093657.4134
     -3033.0904
 -25521838.07949 -19795085.38148  20442531.3804   20442531.3974   20442533.8104
      1720.3514
 -22147863.44149 -17217953.57848  21142920.0984   21142919.7294   21142922.5944
       832.8134
 -23378773.39849 -18204091.57948  20785819.7714   20785820.1264   20785821.9514
     -1599.8314
 -14780158.65048 -11480345.89247  22343346.8084   22343347.1454   22343348.9264
       725.8054
 10  1  3  1  2  0.0000000  0  9G12G18G22G26G28G09G27G15G17
 -13859977.32448 -10781562.44147  22791287.2554   22791287.0394   22791289.7434
      3135.0384
 -13108541.52148  -9981423.35547  22876222.1484   22876222.0504   22876223.8464
      -182.6184
  -5631695.11347  -4229092.62746  24313729.1124   24313729.2054   24313729.4294
      1529.1074
  -3901526.22447  -3020569.31246  24020016.7384   24020016.6084   24020020.3124
      3700.0064
  -8155899.24547  -6314352.32246  24110978.1724   24110977.0964   24110979.0644
     -3035.4494
 -25573298.38349 -19835184.31948  20432738.7684   20432738.5774   20432741.0334
      1710.2564
 -22172770.39149 -17237361.58448  21138180.4214   21138180.4054   21138183.0604
       827.5444
 -23330549.64549 -18166514.63848  20794996.8624   20794997.0714   20794998.7174
     -1615.2004
 -14801669.89848 -11497107.90247  22339253.3904   22339253.6954   22339255.8754
       708.0334
 10  1  3  1  2 30.0000000  0  9G12G18G22G26G28G09G27G15G17
 -13953883.58848 -10854736.13847  22773417.2214   22773417.5734   22773419.6464
      3125.5004
 -13102779.44948  -9976933.46247  22877318.2024   22877317.3954   22877320.9294
      -201.4874
  -5677322.01347  -4264646.07046  24305045.6844   24305046.2204   24305045.5024
      1512.6964
  -4012451.07147  -3107004.22946  23998909.7024   23998911.4254   23998914.4704
      3694.4844
  -8064783.59947  -6243353.11846  24128316.7234   24128315.5054   24128317.6964
     -3039.0674
 -25624432.28149 -19875028.91648  20423008.5104   20423008.3114   20423010.8734
      1698.8954
 -22197497.37349 -17256629.36348  21133475.0914   21133474.8524   21133477.3124
       821.0734
 -23281843.63949 -18128561.91248  20804265.0814   20804265.4344   20804267.0814
     -1631.7614
 -14822631.73548 -11513441.79947  22335264.6574   22335265.0104   22335266.3174
       689.3274
 10  1  3  1  3  0.0000000  0  9G12G18G22G26G28G09G27G15G17
 -14047513.89648 -10927694.80747  22755600.4124   22755601.4334   22755603.0614
      3116.5144
 -13096462.37848  -9972011.07347  22878521.1664   22878520.5694   22878522.5704
      -219.7644
  -5722462.26647  -4299820.28446  24296456.6934   24296455.8944   24296455.7154
      1496.6674
  -4123232.01447  -3193327.01946  23977828.2234   23977828.6604   23977831.4254
      3690.3264
  -7973570.50147  -6172277.99046  24145673.6094   24145673.5144   24145674.4934
     -3042.1194
 -25675232.78949 -19914613.72648  20413341.3514   20413341.4464   20413343.8754
      1687.9184
 -22222038.30849 -17275752.17348  21128805.0364   21128805.0084   21128807.7584
       815.0534
 -23232650.30149 -18090229.44548  20813626.0224   20813626.4624   20813628.3034
     -1647.7904
 -14843036.96448 -11529341.97147  22331381.5864   22331381.5974   22331383.2784
       670.8324
 10  1  3  1  3 30.0000000  0  9G12G18G22G26G28G09G27G15G17
 -14140870.75748 -11000440.40647  22737835.1524   22737835.1584   22737837.2134
      3107.0094
 -13089594.56848  -9966659.55347  22879826.9844   22879826.3284   22879829.5374
      -238.2254
  -5767118.01247  -4334616.95246  24287959.1504   24287960.4324   24287959.2624
      1480.4054
  -4233869.82647  -3279538.29246  23956775.7984   23956775.8114   23956778.9834
      3685.5884
  -7882264.96547  -6101130.84846  24163048.5034   24163048.2774   24163049.1994
     -3045.0404
 -25725702.22349 -19953940.56048  20403737.4624   20403737.1744   20403739.7434
      1676.7484
 -22246396.39949 -17294732.50348  21124169.9544   21124169.4924   21124172.3134
       808.7374
 -23182973.82749 -18051520.50848  20823079.2504   20823079.4414   20823081.2914
     -1664.0884
 -14862887.98348 -11544810.29547  22327603.8904   22327603.8734   22327605.7944
       652.3094
 10  1  3  1  4  0.0000000  0  9G12G18G22G26G28G09G27G15G17
 -14233950.56448 -11072970.12447  22720122.7464   22720123.3384   22720124.6804
      3098.0524
 -13082175.10648  -9960878.18047  22881240.1864   22881240.0524   22881239.6674
      -256.6094
  -5811286.65147  -4369034.09146  24279553.7044   24279554.2024   24279554.5444
      1464.1364
  -4344360.30947  -3365634.76646  23935751.6654   23935752.4604   23935753.9384
      3680.7694
  -7790866.76247  -6029911.49446  24180441.3584   24180441.6064   24180443.7634
     -3048.0664
 -25775837.78849 -19993007.24048  20394196.9474   20394196.9224   20394199.3314
      1665.5784
 -22270569.55249 -17313568.72848  21119569.9264   21119569.6504   21119572.7384
       802.7134
 -23132813.15249 -18012434.27548  20832624.5194   20832624.9434   20832626.6984
     -1680.0974
 -14882181.89648 -11559844.50347  22323932.4204   22323932.7684   22323934.7304
       633.7654
 10  1  3  1  4 30.0000000  0  9G12G18G22G26G28G09G27G15G17
 -14326754.84048 -11145285.14047  22702462.5844   22702462.6234   22702464.2274
      3088.9394
 -13074207.41148  -9954669.61447  22882756.3204   22882754.5594   22882756.6774
      -274.6024
  -5854969.34547  -4403072.54846  24271239.3924   24271240.3784   24271243.0124
      1448.1404
  -4454703.77047  -3451616.69046  23914751.7604   23914752.6514   23914754.8304
      3675.5954
  -7699380.99947  -5958623.90246  24197850.5054   24197849.3864   24197851.7554
     -3050.9424
 -25825641.52749 -20031815.35748  20384719.5074   20384719.4314   20384721.7524
      1654.7264
 -22294560.25449 -17332262.78048  21115004.8234   21115004.4094   21115007.2224
       796.8084
 -23082172.13149 -17972973.74548  20842261.3384   20842261.5334   20842263.3414
     -1695.9434
 -14900920.54248 -11574446.04247  22320366.5724   22320367.0644   22320368.8484
       615.4314
 10  1  3  1  5  0.0000000  0  9G12G18G22G26G28G09G27G15G17
 -14419280.33848 -11217382.92847  22684856.0164   22684856.1374   22684857.2044
      3079.5244
 -13065690.17548  -9948032.82647  22884377.1374   22884375.4674   22884376.3424
      -293.2054
  -5898163.08147  -4436730.00846  24263022.5974   24263022.3034   24263020.9764
      1431.3824
  -4564895.73547  -3537480.56446  23893783.5424   23893783.4424   23893785.6774
      3670.6934
  -7607807.28347  -5887267.78046  24215275.5534   24215276.1834   24215278.0074
     -3054.2714
 -25875110.43349 -20070362.56148  20375305.7734   20375305.7634   20375308.2564
      1643.3074
 -22318366.18649 -17350812.86048  21110474.6794   21110474.2144   21110477.2094
       790.3324
 -23031049.81249 -17933138.17448  20851989.5724   20851989.5674   20851991.5974
     -1712.1994
 -14919101.38548 -11588612.92747  22316906.5864   22316907.0904   22316908.7694
       596.6784
 10  1  3  1  5 30.0000000  0  9G12G18G22G26G28G09G27G15G17
 -14511523.38048 -11289260.61847  22667302.7334   22667303.1004   22667303.1674
      3070.4334
 -13056622.11248  -9940966.82647  22886102.0544   22886101.2214   22886102.2504
      -311.0784
  -5940864.42547  -4470003.78146  24254897.3694   24254896.1414   24254897.1934
      1415.4244
  -4674931.55447  -3623222.74446  23872843.4444   23872843.8854   23872846.8124
      3665.7334
  -7516145.21247  -5815842.79646  24232719.0124   24232717.9064   24232719.8644
     -3056.7554
 -25924241.05449 -20108646.16448  20365956.8864   20365956.6904   20365959.1394
      1632.3484
 -22341984.81549 -17369216.98748  21105980.0164   21105979.8714   21105982.8604
       784.5274
 -22979445.03749 -17892926.66748  20861809.4794   20861809.9484   20861811.8364
     -1727.7814
 -14936720.90148 -11602342.41447  22313553.9124   22313554.0814   22313556.1904
       578.4024
 10  1  3  1  6  0.0000000  0  9G12G18G22G26G28G09G27G15G17
 -14603486.35148 -11360920.07547  22649802.3224   22649802.4544   22649804.2334
      3060.6354
 -13047008.03248  -9933475.35447  22887931.7864   22887930.3854   22887932.6024
      -329.6654
  -5983076.03747  -4502895.93446  24246865.9464   24246864.1824   24246863.3124
      1398.8844
  -4784812.43847  -3708844.18846  23851933.9984   23851933.9364   23851936.6424
      3660.1754
  -7424400.27147  -5744353.26046  24250176.9634   24250176.2364   24250179.7514
     -3059.6154
 -25973036.54849 -20146668.62548  20356671.2514   20356670.9494   20356673.7834
      1620.7974
 -22365419.50749 -17387477.78748  21101520.6264   21101520.3144   21101523.1184
       778.0374
 -22927362.60549 -17852342.95848  20871720.5124   20871720.7924   20871722.5994
     -1744.1444
 -14953781.93448 -11615636.72047  22310307.3924   22310307.3894   22310309.6994
       559.3264
 10  1  3  1  6 30.0000000  0  9G12G18G22G26G28G09G27G15G17
 -14695163.88448 -11432357.11147  22632356.6514   22632357.3114   22632358.2794
      3050.8534
 -13036844.46548  -9925555.73147  22889866.7834   22889866.1874   22889866.7104
      -348.0944
  -6024792.92847  -4535402.60646  24238922.0554   24238923.3994   24238924.4544
      1382.1574
  -4894531.94547  -3794339.89346  23831055.6534   23831055.3324   23831059.0034
      3654.1564
  -7332570.10447  -5672797.30846  24267651.7094   24267652.0214   24267654.2364
     -3062.7254
 -26021492.17049 -20184426.25148  20347450.5774   20347450.5334   20347452.7364
      1609.1774
 -22388666.05549 -17405591.98248  21097097.0374   21097096.5614   21097099.5454
       771.5094
 -22874799.28849 -17811384.53548  20881722.8374   20881723.2144   20881725.1504
     -1760.3814
 -14970279.76048 -11628492.16647  22307167.8954   22307167.9914   22307170.0454
       540.2834
 10  1  3  1  7  0.0000000  0  9G12G18G22G26G28G09G27G15G17
 -14786559.45748 -11503574.42947  22614964.5914   22614965.0044   22614966.8374
      3041.4974
 -13026137.57648  -9917212.72647  22891902.6244   22891903.0584   22891904.9104
      -366.1554
  -6066019.14547  -4567526.92246  24231080.4164   24231079.2604   24231078.6124
      1365.8554
  -5004092.77947  -3879711.95946  23810206.4574   23810206.3314   23810209.5564
      3648.9254
  -7240661.87447  -5601180.52546  24285142.3134   24285142.4104   24285141.5014
     -3065.2574
 -26069611.74849 -20221922.02248  20338293.6424   20338293.3254   20338296.0544
      1598.1584
 -22411729.35649 -17423563.38848  21092708.1344   21092707.9374   21092710.6424
       765.4224
 -22821761.45649 -17770056.35948  20891815.7624   20891816.1734   20891817.9704
     -1776.0244
 -14986218.55548 -11640912.01147  22304134.9424   22304134.9954   22304137.6134
       521.6564
 10  1  3  1  7 30.0000000  0  9G12G18G22G26G28G09G27G15G17
 -14877669.37648 -11574569.16947  22597626.8184   22597626.6134   22597629.1874
      3031.7774
 -13014885.52648  -9908444.91247  22894044.5124   22894043.2054   22894045.2774
      -384.6984
  -6106750.56447  -4599265.69546  24223329.0934   24223329.3264   24223329.3744
      1349.3174
  -5113489.31347  -3964955.99746  23789388.9214   23789389.0914   23789392.8994
      3643.5514
  -7148674.15447  -5529501.80846  24302645.9664   24302645.2154   24302647.2104
     -3068.0784
 -26117391.31249 -20259152.85348  20329201.4264   20329201.1194   20329203.9314
      1586.6624
 -22434606.23349 -17441389.53348  21088354.8824   21088354.7144   21088357.3024
       759.1654
 -22768247.06849 -17728356.84248  20901999.4194   20901999.4794   20902001.2584
     -1792.0634
 -15001594.65848 -11652893.38847  22301208.9474   22301208.6524   22301210.7754
       502.8904
 10  1  3  1  8  0.0000000  0  9G12G18G22G26G28G09G27G15G17
 -14968490.77848 -11645339.08647  22580344.4404   22580344.3034   22580346.5524
      3022.4594
 -13003088.02548  -9899252.07347  22896288.7004   22896287.8014   22896290.7984
      -402.3784
  -6146984.65847  -4630616.93246  24215673.7474   24215673.7744   24215674.5074
      1332.7944
  -5222717.91747  -4050069.16246  23768604.4684   23768605.5514   23768607.9954
      3637.6724
  -7056607.98947  -5457761.96746  24320166.3344   24320166.1034   24320168.4644
     -3070.4634
 -26164828.72849 -20296117.06748  20320174.5504   20320174.1364   20320176.6114
      1575.3164
 -22457295.26749 -17459069.30448  21084037.2534   21084036.9904   21084039.8104
       752.9594
 -22714256.16549 -17686286.01148  20912273.4784   20912273.8014   20912275.5724
     -1807.8344
 -15016405.84848 -11664434.57447  22298390.4234   22298389.8564   22298392.2594
       484.0944
 10  1  3  1  8 30.0000000  0  9G12G18G22G26G28G09G27G15G17
 -15059022.56548 -11715883.33647  22563116.7194   22563116.7554   22563118.4534
      3012.9464
 -12990746.30548  -9889635.16847  22898638.1514   22898639.0484   22898638.9594
      -420.4814
  -6186720.78847  -4661580.16346  24208115.2344   24208110.5314   24208111.3694
      1316.1364
  -5331776.33747  -4135049.72846  23747850.0574   23747849.5454   23747852.7634
      3632.4314
  -6964464.67847  -5385962.01146  24337700.4414   24337700.2284   24337702.2284
     -3072.7964
 -26211923.45649 -20332814.25548  20311212.8054   20311212.3794   20311214.9524
      1564.1934
 -22479796.06149 -17476602.39148  21079755.4364   21079755.4564   21079757.9494
       746.9674
 -22659789.58549 -17643844.52548  20922638.1724   20922638.1404   20922640.1914
     -1823.4114
 -15030651.68648 -11675535.21747  22295679.4214   22295680.0294   22295681.8694
       465.5234
 10  1  3  1  9  0.0000000  0  9G12G18G22G26G28G09G27G15G17
 -15149265.57148 -11786202.56147  22545944.2094   22545943.8114   22545945.9704
      3002.8304
 -12977863.21648  -9879596.41646  22901089.2454   22901088.9444   22901089.4904
      -438.9254
  -6225959.91747  -4692156.08746  24200641.7774   24200645.1964   24200646.2504
      1299.4324
  -5440663.85747  -4219897.11746  23727130.9494   23727131.3274   23727132.6494
      3626.2254
  -6872248.35447  -5314105.16746  24355249.0254   24355249.8404   24355250.1534
     -3075.5114
 -26258676.47549 -20369245.17048  20302315.6574   20302315.3624   20302317.9574
      1552.3674
 -22502110.37049 -17493990.16748  21075509.2384   21075509.2754   21075511.5694
       740.2894
 -22604851.03949 -17601035.27048  20933092.3614   20933092.6414   20933094.5704
     -1839.5584
 -15044333.36548 -11686196.25947  22293076.0094   22293076.1304   22293077.8804
       446.3234
 10  1  3  1  9 30.0000000  0  9G12G18G22G26G28G09G27G15G17
 -15239215.77248 -11856293.62347  22528827.1904   22528827.2164   22528828.6994
      2993.1954
 -12964437.13548  -9869134.53047  22903645.0894   22903643.9214   22903645.3944
      -456.8434
  -6264698.43047  -4722341.94546  24193272.8104   24193273.3774   24193273.0194
      1282.8574
  -5549375.63947  -4304607.59746  23706441.8734   23706441.3364   23706444.4034
      3620.3074
  -6779958.16847  -5242190.76746  24372811.5864   24372811.0814   24372812.4314
     -3077.3994
 -26305084.43049 -20405407.20748  20293484.6264   20293484.4854   20293486.9844
      1541.0014
 -22524235.30449 -17511230.37548  21071299.0584   21071298.5884   21071301.4314
       734.1424
 -22549438.64149 -17557856.78448  20943637.1844   20943637.4514   20943639.4104
     -1855.1124
 -15057447.66248 -11696415.18547  22290580.5804   22290580.7454   22290582.4314
       427.5254
 10  1  3  1 10  0.0000000  0  9G12G18G22G26G28G09G27G15G17
 -15328873.71948 -11926156.94747  22511764.9534   22511765.4724   22511767.5604
      2983.4364
 -12950470.95448  -9858251.81447  22906302.5544   22906302.2154   22906304.1744
      -474.5154
  -6302936.93947  -4752138.18846  24185997.6244   24185997.5844   24185998.1084
      1265.9674
  -5657910.57747  -4389180.27946  23685790.1234   23685791.5104   23685792.7884
      3614.8474
  -6687597.33647  -5170221.30546  24390387.0534   24390386.6004   24390388.9544
     -3080.2904
 -26351147.91549 -20441300.83248  20284719.0284   20284719.0094   20284721.3934
      1529.3654
 -22546172.09549 -17528323.98348  21067124.6904   21067124.3304   21067127.0654
       727.7944
 -22493555.38949 -17514311.39848  20954271.4684   20954271.6504   20954273.4694
     -1870.8674
 -15069995.57448 -11706192.76947  22288192.5454   22288192.6424   22288194.5754
       408.6084
 10  1  3  1 10 30.0000000  0  9G12G18G22G26G28G09G27G15G17
 -15418237.82648 -11995791.32047  22494759.9574   22494760.4234   22494761.8254
      2974.0444
 -12935965.59048  -9846948.94347  22909063.3054   22909062.6514   22909063.0134
      -492.4614
  -6340674.51447  -4781544.09846  24178815.7524   24178814.7844   24178815.6474
      1249.8244
  -5766266.17947  -4473613.21446  23665170.3134   23665170.5994   23665172.8724
      3608.8674
  -6595167.65747  -5098198.18046  24407975.6254   24407976.5404   24407977.9914
     -3082.0514
 -26396866.00349 -20476925.30948  20276019.2264   20276018.9504   20276021.7794
      1518.3484
 -22567920.48449 -17545270.78348  21062985.8804   21062985.7384   21062988.5464
       722.0124
 -22437202.29849 -17470399.90448  20964995.1314   20964995.3714   20964997.1214
     -1886.0754
 -15081976.31448 -11715528.41047  22285912.6584   22285912.8724   22285915.0854
       390.0174
 10  1  3  1 11  0.0000000  0  9G12G18G22G26G28G09G27G15G17
 -15507306.01748 -12065195.10047  22477811.2894   22477811.8334   22477812.4984
      2963.7084
 -12920921.16448  -9835226.01347  22911925.7344   22911924.6484   22911925.9194
      -510.6304
  -6377909.22547  -4810558.16246  24171729.3784   24171729.3254   24171730.9084
      1232.5254
  -5874439.13647  -4557903.82846  23644584.4404   23644584.7514   23644586.6324
      3602.4324
  -6502669.94447  -5026122.04346  24425576.8634   24425576.5674   24425580.0824
     -3084.6314
 -26442236.70149 -20512279.10048  20267385.4504   20267385.1294   20267387.5944
      1506.1584
 -22589479.34249 -17562069.89548  21058883.5164   21058883.1854   21058885.9894
       715.1554
 -22380380.03649 -17426122.82148  20975807.7764   20975808.1654   20975810.0304
     -1902.1884
 -15093388.19548 -11724420.78747  22283741.1174   22283741.3844   22283743.2504
       370.6074
 10  1  3  1 11 30.0000000  0  9G12G18G22G26G28G09G27G15G17
 -15596077.65048 -12134367.79747  22460918.3894   22460918.3314   22460920.2974
      2953.8114
 -12905339.57648  -9823084.53247  22914890.1284   22914890.4154   22914891.0284
      -528.2774
  -6414640.40547  -4839179.86546  24164742.2314   24164740.1384   24164739.2814
      1215.9274
  -5982427.37147  -4642050.49946  23624035.0974   23624034.9084   23624038.9224
      3596.4084
  -6410106.63847  -4953994.79646  24443191.6784   24443191.3124   24443192.8804
     -3086.7514
 -26487259.73949 -20547361.98648  20258817.8424   20258817.7134   20258820.1324
      1494.6954
 -22610848.91549 -17578721.51048  21054816.9444   21054816.6394   21054819.6774
       708.9454
 -22323089.82949 -17381481.11048  20986709.8674   20986710.2404   20986711.7614
     -1917.7394
 -15104231.41648 -11732870.04847  22281677.6164   22281678.5024   22281679.9544
       351.7474
 10  1  3  1 12  0.0000000  0  9G12G18G22G26G28G09G27G15G17
 -15684550.17848 -12203307.41847  22444082.7234   22444082.7324   22444084.5074
      2944.1214
 -12889220.72348  -9810524.39747  22917957.0304   22917956.2164   22917959.5594
      -546.1924
  -6450866.04647  -4867407.62646  24157846.7504   24157846.9174   24157846.4384
      1199.0644
  -6090226.84447  -4726050.08946  23603522.0974   23603521.8454   23603524.3394
      3590.2084
  -6317477.96947  -4881816.62346  24460818.6444   24460817.5094   24460818.2734
     -3088.6064
 -26531932.94049 -20582172.27048  20250316.6324   20250316.3774   20250318.8934
      1483.2954
 -22632027.40949 -17595224.23248  21050786.9254   21050786.6724   21050789.5114
       702.8554
 -22265331.87949 -17336474.92048  20997700.8234   20997701.0444   20997702.8724
     -1933.1054
 -15114504.13248 -11740874.74847  22279723.0664   22279723.1424   22279725.2174
       332.9944
 10  1  3  1 12 30.0000000  0  9G12G18G22G26G28G09G27G15G17
 -15772722.77848 -12272013.34347  22427303.5234   22427304.1764   22427305.9464
      2934.2014
 -12872565.73348  -9797546.52047  22921127.0634   22921125.8864   22921129.4594
      -563.7294
  -6486585.58147  -4895241.02746  24151049.9124   24151048.7284   24151049.1184
      1182.2424
  -6197835.28347  -4809900.82446  23583045.4014   23583045.9744   23583047.1634
      3583.9544
  -6224785.89547  -4809589.07046  24478456.7304   24478456.1984   24478458.7404
     -3090.2874
 -26576255.42449 -20616709.26848  20241882.4274   20241882.4764   20241884.7064
      1471.8374
 -22653014.66649 -17611577.94048  21046792.9754   21046792.8594   21046795.6654
       696.6394
 -22207107.61849 -17291105.37248  21008780.5464   21008780.8114   21008782.8914
     -1948.4434
 -15124205.64548 -11748434.35047  22277877.0214   22277876.8724   22277879.0084
       314.0204
 10  1  3  1 13  0.0000000  0  9G12G18G22G26G28G09G27G15G17
 -15860594.50748 -12340484.81947  22410582.7934   22410582.5484   22410584.8104
      2924.1904
 -12855376.58048  -9784152.37247  22924398.0434   22924397.4244   22924399.5194
      -581.7884
  -6521798.44247  -4922679.61246  24144348.2294   24144348.8934   24144348.8524
      1165.4384
  -6305250.81347  -4893601.24346  23562604.4134   23562604.8324   23562607.0734
      3577.8444
  -6132032.81547  -4737313.96446  24496107.0124   24496108.0794   24496109.5804
     -3092.6474
 -26620226.95449 -20650972.79748  20233514.9404   20233514.8114   20233517.2644
      1460.0684
 -22673811.03849 -17627782.90748  21042835.7924   21042835.5484   21042838.2684
       690.2094
 -22148418.60149 -17245373.67548  21019948.7904   21019948.9524   21019950.8284
     -1963.9104
 -15133336.15648 -11755549.02747  22276139.2524   22276139.6904   22276140.9824
       294.9394
 10  1  3  1 13 30.0000000  0  9G12G18G22G26G28G09G27G15G17
 -15948164.91548 -12408721.49447  22393918.6814   22393918.6654   22393920.1784
      2913.7944
 -12837655.19048  -9770343.49846  22927770.1084   22927769.7394   22927772.2184
      -599.6774
  -6556505.52347  -4949724.11446  24137745.1894   24137744.8004   24137744.3154
      1148.5084
  -6412471.85247  -4977150.08246  23542199.9964   23542199.7524   23542202.3364
      3570.5924
  -6039221.31847  -4664993.33546  24513768.6184   24513767.8564   24513769.0464
     -3094.9304
 -26663847.66549 -20684962.96148  20225214.1534   20225214.0574   20225216.5724
      1448.0854
 -22694417.14849 -17643839.61348  21038914.3584   21038914.1884   21038917.1424
       683.5594
 -22089267.47649 -17199281.89448  21031204.7274   21031204.8554   21031206.8994
     -1979.5474
 -15141895.92648 -11762218.97547  22274510.3384   22274510.3504   22274512.4964
       275.7414
 10  1  3  1 14  0.0000000  0  9G12G18G22G26G28G09G27G15G17
 -16035430.75948 -12476720.84847  22377312.0984   22377312.3034   22377314.2274
      2903.5494
 -12819400.42548  -9756119.02246  22931244.5684   22931244.2734   22931245.7244
      -617.5734
  -6590703.39447  -4976371.81546  24131235.9564   24131235.1214   24131235.6454
      1131.7094
  -6519493.15147  -5060543.29346  23521834.9154   23521835.5504   23521837.9114
      3563.6724
  -5946350.66447  -4592626.60146  24531441.1624   24531440.9334   24531442.1244
     -3096.9284
 -26707114.33749 -20718677.25248  20216980.8094   20216980.6234   20216983.1964
      1436.1684
 -22714830.31449 -17659745.97448  21035030.0354   21035029.7864   21035032.6404
       677.1004
 -22029652.70549 -17152828.83448  21042549.0984   21042549.4454   21042551.4354
     -1995.0594
 -15149882.37448 -11768442.18347  22272990.5434   22272990.4424   22272992.8744
       256.4244
 10  1  3  1 14 30.0000000  0  9G12G18G22G26G28G09G27G15G17
 -16122391.68748 -12544482.59947  22360763.9914   22360764.3044   22360766.5684
      2892.5774
 -12800614.81648  -9741480.87846  22934818.5484   22934818.0554   22934820.5864
      -636.1684
  -6624391.52947  -5002622.30846  24124826.0954   24124826.0844   24124825.5644
      1113.7574
  -6626313.15247  -5143779.67146  23501508.9774   23501508.8194   23501512.3974
      3556.2724
  -5853423.64747  -4520215.96446  24549124.6824   24549124.5324   24549125.5804
     -3099.3894
 -26750026.84949 -20752115.57348  20208814.8454   20208814.5244   20208817.1364
      1423.5254
 -22735051.05949 -17675502.39548  21031182.0344   21031181.9504   21031184.6854
       669.8724
 -21969576.58449 -17106016.27748  21053981.2164   21053981.5694   21053983.3134
     -2011.1364
 -15157295.66248 -11774218.76347  22271579.8794   22271580.1614   22271582.4134
       236.6794
 10  1  3  1 15  0.0000000  0  9G12G18G22G26G28G09G27G15G17
 -16209046.70748 -12612005.98347  22344274.1604   22344274.5294   22344276.6784
      2883.0624
 -12781299.70548  -9726430.15147  22938495.1284   22938493.4324   22938495.8274
      -653.0094
  -6657569.58347  -5028475.34946  24118512.9894   24118512.5584   24118511.7904
      1096.9414
  -6732929.39347  -5226857.26046  23481220.1924   23481220.5934   23481222.4144
      3550.0564
  -5760441.80947  -4447762.59546  24566818.6344   24566818.6844   24566821.2114
     -3100.4234
 -26792584.28449 -20785277.21048  20200716.4134   20200716.2144   20200718.8514
      1412.2784
 -22755079.03349 -17691108.60648  21027370.7234   21027370.5274   21027373.4794
       663.9914
 -21909040.71249 -17058845.47248  21065500.8124   21065501.0754   21065503.0704
     -2025.9284
 -15164135.61948 -11779548.59547  22270278.4754   22270278.4424   22270280.6004
       217.9724
 10  1  3  1 15 30.0000000  0  9G12G18G22G26G28G09G27G15G17
 -16295393.49148 -12679289.18047  22327843.3264   22327842.9324   22327844.8544
      2872.4154
 -12761455.47448  -9710967.13746  22942270.1224   22942269.7074   22942273.2554
      -670.9104
  -6690235.66647  -5053929.45046  24112295.9074   24112295.8064   24112295.8004
      1079.7224
  -6839338.45247  -5309773.39846  23460970.8134   23460970.2764   23460974.1944
      3542.7834
  -5667406.06147  -4375267.23946  24584522.6104   24584521.2264   24584524.8474
     -3102.5414
 -26834785.02749 -20818160.90748  20192685.9164   20192685.6944   20192688.2374
      1400.0524
 -22774913.19049 -17706563.79148  21023596.3644   21023596.2994   21023599.1454
       657.2324
 -21848045.56149 -17011316.79248  21077107.7384   21077107.9454   21077110.0564
     -2041.4034
 -15170401.19748 -11784430.85847  22269085.9704   22269086.3924   22269087.6014
       198.6464
 10  1  3  1 16  0.0000000  0  9G12G18G22G26G28G09G27G15G17
 -16381434.35048 -12746333.99347  22311469.9344   22311470.1694   22311472.0054
      2862.4574
 -12741086.59048  -9695095.28047  22946147.7734   22946146.4774   22946148.3344
      -688.1864
  -6722392.68147  -5078986.86346  24106175.0914   24106176.2844   24106176.3854
      1062.8994
  -6945540.91547  -5392528.56246  23440760.9624   23440760.9014   23440763.2824
      3536.1184
  -5574321.24647  -4302733.63946  24602236.2034   24602238.2744   24602238.1254
     -3104.1104
 -26876631.39149 -20850768.46748  20184722.9694   20184722.6894   20184725.2934
      1388.5804
 -22794556.32649 -17721870.13148  21019858.5744   21019858.3894   21019861.1804
       651.1824
 -21786595.67849 -16963433.77848  21088801.2584   21088801.6994   21088803.5294
     -2056.2884
 -15176094.74048 -11788867.38147  22268002.7414   22268002.9264   22268004.4884
       179.7284
 10  1  3  1 16 30.0000000  0  9G12G18G22G26G28G09G27G15G17
 -16467162.88948 -12813135.43747  22295156.4344   22295156.8704   22295158.0974
      2852.4984
 -12720189.16448  -9678811.59347  22950123.3074   22950123.1794   22950125.2184
      -705.3174
  -6754033.99547  -5103642.42146  24100153.6624   24100157.0164   24100156.5434
      1046.0164
  -7051528.79447  -5475116.52746  23420593.0074   23420593.9374   23420594.8994
      3529.3164
  -5481183.71147  -4230158.95946  24619960.2954   24619960.0714   24619962.4864
     -3105.9374
 -26918117.11949 -20883095.01248  20176828.3764   20176828.2164   20176830.5534
      1376.8504
 -22814002.69649 -17737023.14548  21016158.0134   21016158.0064   21016160.6054
       644.9354
 -21724686.93649 -16915193.20948  21100582.3154   21100582.4384   21100584.4604
     -2071.2094
 -15181210.73348 -11792853.86747  22267029.0224   22267029.0874   22267031.1764
       160.9294
 10  1  3  1 17  0.0000000  0  9G12G18G22G26G28G09G27G15G17
 -16552580.39848 -12879694.52147  22278901.9324   22278902.3204   22278903.9634
      2841.6924
 -12698767.34048  -9662119.26846  22954199.7114   22954199.7774   22954201.1924
      -723.4024
  -6785162.41647  -5127898.34146  24094231.2854   24094231.6604   24094232.4454
      1028.5464
  -7157302.33447  -5557537.48146  23400463.9714   23400463.7874   23400467.7604
      3521.5874
  -5387997.90847  -4157546.64846  24637693.0664   24637692.8254   24637692.4464
     -3107.2914
 -26959243.88849 -20915141.85248  20169002.1734   20169002.0544   20169004.3244
      1364.4904
 -22833254.63949 -17752024.65848  21012494.3484   21012494.2614   21012496.9934
       638.1564
 -21662323.51949 -16866598.34748  21112449.5084   21112449.8204   21112451.6724
     -2086.7584
 -15185751.61748 -11796392.21447  22266164.9504   22266165.6154   22266166.7154
       141.4264
 10  1  3  1 17 30.0000000  0  9G12G18G22G26G28G09G27G15G17
 -16637685.76148 -12946010.37647  22262707.0524   22262707.4794   22262709.1294
      2830.5404
 -12676822.08848  -9645019.08946  22958375.6244   22958374.3434   22958377.8914
      -741.2934
  -6815776.61547  -5151753.57646  24088406.5514   24088406.2954   24088405.0544
      1010.9354
  -7262858.74847  -5639789.22046  23380377.6384   23380377.0614   23380379.3114
      3514.1304
  -5294765.16247  -4084897.78146  24655434.5534   24655433.8194   24655434.0134
     -3110.1434
 -27000010.90849 -20946908.36248  20161244.5314   20161244.2674   20161246.9554
      1351.8944
 -22852311.81349 -17766874.40348  21008868.0884   21008868.1244   21008870.8854
       630.9614
 -21599506.55749 -16817650.07948  21124403.1604   21124403.4504   21124405.3114
     -2102.4454
 -15189716.97148 -11799482.09247  22265410.2124   22265410.7324   22265411.9484
       121.5884
 10  1  3  1 18  0.0000000  0  9G12G18G22G26G28G09G27G15G17
 -16722476.22048 -13012080.85447  22246572.0044   22246572.0164   22246574.0194
      2820.1834
 -12654353.36748  -9627511.00746  22962652.4244   22962651.2634   22962651.9654
      -758.5954
  -6845874.56447  -5175206.51446  24082677.4774   24082678.8004   24082679.7484
       993.6324
  -7368193.55847  -5721868.29246  23360333.2574   23360333.2274   23360335.5314
      3506.7674
  -5201485.89247  -4012212.64146  24673185.0294   24673184.7744   24673187.6994
     -3110.6424
 -27040415.40249 -20978392.38748  20153555.8544   20153555.5834   20153558.0974
      1339.8394
 -22871172.22649 -17781570.83148  21005278.9704   21005278.6394   21005281.5894
       624.5134
 -21536236.19449 -16768348.51048  21136443.1204   21136443.4514   21136445.3744
     -2117.4344
 -15193104.76748 -11802121.92747  22264765.3794   22264765.5664   22264767.8014
       102.3604
 10  1  3  1 18 30.0000000  0 10G12G18G22G30G26G28G09G27G15G17
 -16806953.01348 -13077906.90847  22230496.4374   22230496.6474   22230498.3164
      2810.4704
 -12631365.73348  -9609598.58046  22967025.6014   22967025.6814   22967026.5414
      -775.2864
  -6875458.06847  -5198258.59446  24077047.5724   24077048.4784   24077049.9214
       977.3844
  -1079638.547 7                  25241970.479
      3689.548
  -7473306.92747  -5803774.83246  23340331.4164   23340330.8634   23340332.6914
      3499.6914
  -5108163.95047  -3939494.26546  24690943.2504   24690943.7604   24690945.5024
     -3112.0854
 -27080459.34049 -21009595.45748  20145935.4624   20145935.2724   20145937.8984
      1328.5394
 -22889838.08149 -17796115.65048  21001726.9344   21001726.7734   21001729.4364
       618.6774
 -21472516.34449 -16718696.69048  21148568.7674   21148569.0644   21148571.0404
     -2131.7874
 -15195917.52248 -11804313.67547  22264230.6014   22264230.2154   22264232.7044
        83.9604
 10  1  3  1 19  0.0000000  0 10G12G18G22G30G26G28G09G27G15G17
 -16891113.61748 -13143486.58447  22214481.3024   22214480.9974   22214482.8114
      2799.4614
 -12607858.42548  -9591281.20846  22971500.1904   22971498.8884   22971501.0154
      -792.7714
  -6904524.82547  -5220908.00846  24071516.2534   24071518.2024   24071518.7394
       959.5224
  -1190299.85847   -920528.75645  25220912.8414   25220913.5624   25220913.1704
      3687.0214
  -7578194.70647  -5885505.56946  23320371.6924   23320370.6624   23320372.7844
      3491.9954
  -5014799.66647  -3866742.88946  24708710.2224   24708710.1114   24708711.7744
     -3113.3514
 -27120139.78549 -21040515.28748  20138384.8204   20138384.7184   20138387.0974
      1316.1094
 -22908307.24149 -17810507.20448  20998212.4144   20998212.0464   20998215.0504
       611.7634
 -21408346.99549 -16668694.61348  21160779.7544   21160780.0094   21160781.8874
     -2147.0254
 -15198153.37248 -11806055.89447  22263805.0194   22263804.9034   22263807.3644
        64.4594
 10  1  3  1 19 30.0000000  0 10G12G18G22G30G26G28G09G27G15G17
 -16974956.70448 -13208818.84047  22198526.2304   22198526.3304   22198528.1864
      2789.4554
 -12583832.80647  -9572559.95646  22976071.0634   22976070.7854   22976072.9104
      -809.6904
  -6933074.05847  -5243154.15046  24066084.9194   24066085.3154   24066086.5964
       942.6204
  -1300894.05247  -1006706.06045  25199866.6354   25199865.8434   25199867.8154
      3685.1994
  -7682853.60247  -5967057.96146  23300455.2644   23300455.8534   23300457.6574
      3484.5474
  -4921394.06547  -3793959.32246  24726484.3724   24726483.6604   24726485.4914
     -3114.4484
 -27159455.76849 -21071151.12048  20130903.3074   20130902.9744   20130905.4604
      1304.2904
 -22926579.00849 -17824744.94448  20994735.4374   20994735.0904   20994737.8164
       605.5224
 -21343728.64749 -16618342.66048  21173076.3134   21173076.7064   21173078.2864
     -2161.5794
 -15199811.24048 -11807347.73347  22263489.4624   22263489.2454   22263491.5454
        45.4364
 10  1  3  1 20  0.0000000  0 10G12G18G22G30G26G28G09G27G15G17
 -17058481.35148 -13273902.96147  22182632.0534   22182632.3894   22182633.5194
      2778.6894
 -12559290.89948  -9553436.39046  22980741.9744   22980740.2944   22980742.4474
      -826.9394
  -6961105.37047  -5264996.71546  24060750.2014   24060750.9534   24060752.5234
       925.7054
  -1411420.28947  -1092830.49445  25178833.5664   25178835.1854   25178834.6344
      3682.7924
  -7787281.42047  -6048430.29646  23280583.4294   23280583.0464   23280586.2684
      3476.8334
  -4827949.28647  -3721145.20346  24744266.0804   24744265.0494   24744268.0704
     -3115.6484
 -27198407.05549 -21101502.77648  20123491.1004   20123490.9214   20123493.4184
      1292.0384
 -22944653.39449 -17838828.88348  20991295.8514   20991295.5414   20991298.4624
       598.9344
 -21278663.63849 -16567642.66048  21185457.5724   21185457.9674   21185459.8204
     -2176.4754
 -15200891.45148 -11808189.44847  22263283.8904   22263283.6894   22263285.7214
        25.9964
 10  1  3  1 20 30.0000000  0 10G12G18G22G30G26G28G09G27G15G17
 -17141685.90748 -13338737.65747  22166799.0704   22166798.9494   22166800.7914
      2767.8994
 -12534233.74648  -9533911.34546  22985509.5514   22985508.1314   22985510.8594
      -843.9404
  -6988617.95647  -5286435.08046  24055512.3904   24055514.8504   24055516.6104
       908.4374
  -1521876.47747  -1178900.22545  25157815.8074   25157815.7984   25157817.9494
      3680.5914
  -7891475.11147  -6129620.17446  23260755.5524   23260754.7454   23260758.7164
      3468.8784
  -4734465.96447  -3648301.06146  24762055.7264   24762055.4614   24762058.0064
     -3116.8234
 -27236991.71649 -21131568.74648  20116148.5874   20116148.3624   20116150.6934
      1279.9684
 -22962529.43149 -17852758.26348  20987894.2684   20987894.1684   20987896.8184
       592.4274
 -21213152.15349 -16516594.76148  21197924.0994   21197924.3964   21197926.6304
     -2191.2534
 -15201393.56348 -11808580.69247  22263188.1244   22263188.6294   22263189.9434
         7.0494
 10  1  3  1 21  0.0000000  0 10G12G18G22G30G26G28G09G27G15G17
 -17224570.22748 -13403322.82147  22151026.4224   22151026.9084   22151028.0914
      2757.1584
 -12508663.47948  -9513986.48146  22990375.7504   22990375.4904   22990376.7964
      -861.2654
  -7015612.15847  -5307469.53746  24050380.0324   24050379.3324   24050380.1604
       891.0344
  -1632262.59147  -1264915.39745  25136809.7244   25136809.1144   25136810.6914
      3677.8944
  -7995432.91247  -6210626.25046  23240973.6464   23240973.5464   23240975.6294
      3460.9424
  -4640947.11447  -3575429.24546  24779851.2334   24779849.8544   24779853.8294
     -3118.3084
 -27275209.83849 -21161349.09648  20108876.0144   20108875.7584   20108878.2044
      1267.5064
 -22980207.87549 -17866533.67248  20984530.3134   20984530.1014   20984532.9834
       585.7194
 -21147197.53649 -16465201.56348  21210475.0974   21210475.2814   21210477.1564
     -2206.1414
 -15201318.65948 -11808522.31947  22263202.2234   22263202.7194   22263204.9764
       -12.4774
 10  1  3  1 21 30.0000000  0 10G12G18G22G30G26G28G09G27G15G17
 -17307130.87348 -13467655.78147  22135315.8394   22135315.8704   22135317.4874
      2747.0134
 -12482579.46048  -9493661.28246  22995338.7634   22995339.1044   22995339.8264
      -877.6234
  -7042085.01647  -5328097.74046  24045341.9204   24045342.0004   24045342.2084
       874.0874
  -1742575.35547  -1350873.35746  25115817.9024   25115818.2694   25115820.3304
      3676.4874
  -8099149.88647  -6291444.66746  23221236.4664   23221237.1264   23221240.1674
      3453.4104
  -4547392.07047  -3502529.23146  24797654.6644   24797653.5974   24797656.1404
     -3119.1044
 -27313058.54049 -21190841.59448  20101673.4334   20101673.3104   20101675.7224
      1255.9634
 -22997685.88049 -17880152.90048  20981204.3584   20981204.1374   20981206.6594
       579.7234
 -21080798.76049 -16413462.27048  21223110.0764   21223110.2454   21223112.1684
     -2220.2324
 -15200663.98848 -11808012.17947  22263327.3324   22263327.2844   22263329.0334
       -31.1164
 10  1  3  1 22  0.0000000  0 10G12G18G22G30G26G28G09G27G15G17
 -17389370.42148 -13531738.53047  22119665.8624   22119666.1514   22119667.7724
      2735.8894
 -12455986.71548  -9472939.68446  23000399.5664   23000399.6524   23000401.7564
      -895.1974
  -7068039.06447  -5348321.69546  24040405.1654   24040402.4264   24040401.8274
       856.2984
  -1852816.27447  -1436775.37646  25094838.7824   25094839.4684   25094841.2424
      3672.9884
  -8202626.51147  -6372075.78646  23201545.7534   23201546.1724   23201549.1254
      3445.1124
  -4453805.49247  -3429604.64846  24815463.5054   24815462.7164   24815464.9884
     -3120.2834
 -27350540.18549 -21220048.07548  20094540.9894   20094540.9684   20094543.3664
      1243.0844
 -23014966.00149 -17893617.92948  20977916.0064   20977915.7994   20977918.7294
       572.5214
 -21013960.44849 -16361380.47448  21235828.8754   21235829.3264   21235831.0824
     -2235.2844
 -15199432.48448 -11807052.57047  22263561.5464   22263561.7244   22263563.8584
       -50.8274
 10  1  3  1 22 30.0000000  0 10G12G18G22G30G26G28G09G27G15G17
 -17471286.85248 -13595569.49947  22104077.8094   22104077.9464   22104079.4544
      2724.4424
 -12428886.05947  -9451822.29746  23005556.6294   23005555.6994   23005558.5514
      -912.5584
  -7093473.36847  -5368140.62846  24035560.9364   24035561.8454   24035562.0014
       838.7584
  -1962983.11647  -1522619.62846  25073875.4374   25073876.1874   25073877.6584
      3670.4484
  -8305859.18947  -6452516.81746  23181900.7834   23181900.7534   23181902.6234
      3436.3724
  -4360187.81847  -3356655.84946  24833278.5584   24833277.7374   24833280.0454
     -3121.3914
 -27387652.70049 -21248966.91948  20087478.9834   20087478.5544   20087481.1894
      1230.2874
 -23032047.14149 -17906927.90948  20974665.6154   20974665.3994   20974668.2444
       565.4774
 -20946683.26549 -16308956.70648  21248631.5034   21248631.5414   21248633.5694
     -2250.4494
 -15197623.23248 -11805642.76047  22263905.9714   22263906.1834   22263907.6104
       -70.4904
 10  1  3  1 23  0.0000000  0 10G12G18G22G30G26G28G09G27G15G17
 -17552874.01548 -13659143.89147  22088552.1394   22088552.4164   22088554.0604
      2713.7834
 -12401274.04248  -9430306.46346  23010811.4094   23010810.6434   23010811.2884
      -929.1144
  -7118382.58647  -5387550.37746  24030821.1334   24030821.7774   24030822.7484
       821.3464
  -2073070.18447  -1608401.73346  25052926.2034   25052925.2244   25052927.6624
      3667.9124
  -8408840.43147  -6532761.96946  23162304.8554   23162304.4194   23162307.1224
      3428.0804
  -4266536.17846  -3283680.56546  24851098.7194   24851097.8654   24851101.1354
     -3122.4314
 -27424390.34749 -21277593.65748  20080487.8714   20080487.7914   20080490.1154
      1218.1644
 -23048924.23549 -17920078.88948  20971454.1784   20971453.6254   20971456.5954
       558.8744
 -20878964.23749 -16256188.63748  21261517.8654   21261518.2094   21261519.9844
     -2264.8634
 -15195231.42948 -11803779.01747  22264361.0044   22264361.1104   22264362.6024
       -89.7454
 10  1  3  1 23 30.0000000  0 10G12G18G22G30G26G28G09G27G15G17
 -17634136.41948 -13722465.23647  22073088.6374   22073088.6774   22073090.1744
      2703.2744
 -12373157.70048  -9408397.64746  23016161.9474   23016161.7884   23016162.7334
      -945.4544
  -7142771.41647  -5406554.68546  24026182.0094   24026182.1074   24026182.4724
       804.4104
  -2183081.32447  -1694124.71446  25031991.7544   25031992.0094   25031994.6884
      3666.3504
  -8511572.92347  -6612813.24546  23142755.0374   23142755.2444   23142756.0284
      3420.4854
  -4172857.30846  -3210684.09946  24868925.1534   24868924.0504   24868928.4604
     -3123.2304
 -27460757.67449 -21305931.83648  20073567.2064   20073566.9764   20073569.7614
      1206.1854
 -23065602.26849 -17933074.76348  20968280.1714   20968280.0014   20968282.5974
       552.6684
 -20810809.94349 -16203081.40648  21274487.3174   21274487.6184   21274489.5774
     -2278.9954
 -15192262.43348 -11801465.51147  22264925.9094   22264925.9204   22264928.1514
      -108.6034
 10  1  3  1 24  0.0000000  0 10G12G18G22G30G26G28G09G27G15G17
 -17715070.57148 -13785530.79647  22057687.4444   22057687.6604   22057688.8594
      2692.2454
 -12344536.57648  -9386095.48746  23021609.0594   23021607.2384   23021609.0804
      -962.4414
  -7166637.19147  -5425151.40046  24021642.5764   24021640.2614   24021638.8894
       786.9104
  -2293013.06147  -1779785.78246  25011073.2544   25011073.6604   25011075.6944
      3662.8734
  -8614051.72147  -6692666.83746  23123254.4644   23123254.8284   23123256.7064
      3411.7584
  -4079150.53446  -3137665.86746  24886758.2434   24886759.4894   24886759.4484
     -3123.7174
 -27496751.48049 -21333978.95748  20066717.9704   20066717.8764   20066720.1634
      1193.5884
 -23082078.18049 -17945913.13648  20965144.9564   20965144.7294   20965147.5794
       545.9534
 -20742219.64549 -16149634.42948  21287539.6534   21287539.9014   21287541.9874
     -2293.3994
 -15188713.92748 -11798700.43547  22265601.1414   22265601.6154   22265603.1364
      -127.9634
 10  1  3  1 24 30.0000000  0 10G12G18G22G30G26G28G09G27G15G17
 -17795674.32748 -13848338.90347  22042348.7854   22042349.1244   22042350.8434
      2681.1544
 -12315410.73747  -9363400.03746  23027150.0224   23027150.7554   23027150.9054
      -979.5054
  -7189978.12847  -5443339.14246  24017200.2964   24017198.5654   24017199.8024
       768.9424
  -2402862.77847  -1865382.92846  24990168.7144   24990169.1564   24990171.7254
      3659.9794
  -8716272.52347  -6772319.42746  23103802.9084   23103802.3334   23103805.1274
      3402.9344
  -3985415.86546  -3064625.88745  24904594.4484   24904595.2054   24904599.9374
     -3124.9054
 -27532369.60649 -21361733.34548  20059940.0754   20059939.9084   20059942.3264
      1180.8244
 -23098350.35349 -17958592.75548  20962048.3894   20962048.3364   20962051.3054
       538.8354
 -20673193.70949 -16095847.98848  21300674.7454   21300675.3094   21300677.0984
     -2308.2554
 -15184584.53848 -11795482.71947  22266387.0174   22266387.1334   22266389.1204
      -147.4754
 10  1  3  1 25  0.0000000  0 10G12G18G22G30G26G28G09G27G15G17
 -17875951.75648 -13910892.73047  22027072.7914   22027072.5204   22027074.4974
      2669.8014
 -12285787.50547  -9340317.01346  23032786.8054   23032787.3794   23032789.8374
      -996.3764
  -7212799.38547  -5461121.92046  24012856.6074   24012856.1554   24012856.8944
       751.1694
  -2512634.45347  -1950919.27246  24969280.1254   24969279.3824   24969282.8894
      3656.9264
  -8818238.23847  -6851773.24246  23084398.5144   23084398.7434   23084400.8814
      3393.9314
  -3891660.30646  -2991569.64645  24922436.2494   24922435.0484   24922439.7994
     -3126.6594
 -27567616.58249 -21389198.51848  20053232.8194   20053232.7684   20053234.9924
      1168.0424
 -23114423.75649 -17971117.48448  20958989.7614   20958989.5254   20958992.1394
       531.7424
 -20603739.06049 -16041727.49148  21313891.5064   21313891.7584   21313893.6874
     -2322.9674
 -15179879.78248 -11791816.66347  22267282.0704   22267282.2954   22267283.5354
      -166.9904
 10  1  3  1 25 30.0000000  0 10G12G18G22G30G26G28G09G27G15G17
 -17955896.66348 -13973187.44547  22011859.3624   22011859.5284   22011861.4234
      2659.0164
 -12255663.24748  -9316843.58246  23038519.9484   23038520.0014   23038521.3344
     -1012.6034
  -7235095.13547  -5478495.23646  24008615.1574   24008613.3414   24008613.1234
       734.4734
  -2622321.31346  -2036389.50646  24948407.9854   24948407.6664   24948410.3584
      3654.7964
  -8919940.67047  -6931021.86846  23065045.8094   23065046.0614   23065048.0304
      3385.6774
  -3797880.00046  -2918494.12445  24940281.5584   24940282.0964   24940282.2074
     -3126.4064
 -27602486.01349 -21416369.50048  20046597.3904   20046597.2944   20046599.4254
      1155.9954
 -23130292.19449 -17983482.49948  20955970.1024   20955969.9324   20955972.5124
       525.4634
 -20533851.58249 -15987269.72048  21327190.8164   21327190.9004   21327193.1224
     -2336.7634
 -15174594.05848 -11787697.91147  22268287.9914   22268288.2044   22268290.0204
      -185.9294
 10  1  3  1 26  0.0000000  0 10G12G18G22G30G26G28G09G27G15G17
 -18035497.86548 -14035214.35147  21996711.8694   21996712.5984   21996713.6914
      2648.2964
 -12225029.67848  -9292973.29046  23044349.3604   23044348.2534   23044350.1244
     -1028.8944
  -7256855.08747  -5495451.04446  24004473.1334   24004471.5594   24004472.7644
       717.0984
  -2731912.55247  -2121785.26846  24927552.8174   24927553.7574   24927556.4564
      3651.4114
  -9021367.03847  -7010055.39846  23045744.7474   23045745.4144   23045747.1284
      3376.7544
  -3704066.40547  -2845392.61845  24958133.8414   24958132.2294   24958135.8524
     -3127.1124
 -27636967.06049 -21443237.84848  20040035.7824   20040035.9874   20040038.0714
      1143.4404
 -23145945.58449 -17995679.94648  20952991.4714   20952991.5284   20952994.0654
       518.6964
 -20463523.54549 -15932468.65848  21340573.6234   21340573.8014   21340575.7734
     -2351.0824
 -15168717.90548 -11783119.08047  22269406.2434   22269406.3894   22269408.2884
      -205.1894
 10  1  3  1 26 30.0000000  0 10G12G18G22G30G26G28G09G27G15G17
 -18114776.23548 -14096989.68947  21981625.8664   21981625.6434   21981627.5314
      2636.8874
 -12193910.22848  -9268724.36146  23050272.4604   23050270.7384   23050272.9784
     -1045.9784
  -7278100.51747  -5512005.91846  24000428.6544   24000428.3494   24000429.9814
       699.3164
  -2841428.27647  -2207122.19046  24906712.3804   24906712.6204   24906715.4224
      3648.2374
  -9122536.41747  -7088888.69146  23026493.0124   23026492.9014   23026496.1854
      3367.5414
  -3610242.72847  -2772283.25546  24975988.1714   24975987.9524   24975991.2494
     -3128.0094
 -27671080.37649 -21469819.64848  20033544.2874   20033544.2734   20033546.3934
      1130.6454
 -23161405.06549 -18007726.29548  20950049.6804   20950049.5374   20950052.1594
       511.7324
 -20392778.17549 -15877342.40148  21354035.9254   21354036.2404   21354038.4534
     -2365.4804
 -15162272.91448 -11778097.00247  22270632.8344   22270633.0274   22270635.1694
      -224.6544
 10  1  3  1 27  0.0000000  0 10G12G18G22G30G26G28G09G27G15G17
 -18193718.07648 -14158502.80147  21966603.7674   21966603.9414   21966605.4404
      2625.6034
 -12162293.91147  -9244088.28446  23056287.1534   23056287.8704   23056289.3724
     -1062.1374
  -7298818.20347  -5528149.57046  23996488.4064   23996485.2234   23996486.4504
       681.6444
  -2950854.60846  -2292389.41846  24885889.4154   24885890.2944   24885893.1054
      3645.7504
  -9223433.32747  -7167509.65246  23007292.4734   23007293.6864   23007295.6004
      3358.7564
  -3516397.43247  -2699157.05945  24993846.2574   24993844.3384   24993847.5884
     -3128.4274
 -27704812.42649 -21496104.36148  20027125.2914   20027125.3224   20027127.4754
      1118.0574
 -23176657.42749 -18019611.25148  20947147.0774   20947146.9874   20947149.7174
       504.9264
 -20321603.83749 -15821881.88648  21367580.0524   21367580.2124   21367582.5194
     -2379.4134
 -15155246.21848 -11772621.65347  22271969.9344   22271970.1454   22271971.8534
      -243.9384
 10  1  3  1 27 30.0000000  0 10G12G18G22G30G26G28G09G27G15G17
 -18272329.28748 -14219758.27847  21951644.3324   21951644.5654   21951646.3694
      2614.2654
 -12130189.46648  -9219071.85646  23062396.7864   23062396.0674   23062398.3904
     -1078.8524
  -7319015.07247  -5543887.39446  23992644.0094   23992642.5844   23992642.9584
       664.1144
  -3060197.12046  -2377591.33446  24865082.9904   24865083.1574   24865084.7574
      3642.6014
  -9324061.94547  -7245921.53546  22988144.0054   22988144.0284   22988146.2954
      3349.3314
  -3422539.25947  -2626020.81345  25011707.0394   25011705.7444   25011709.5764
     -3129.6204
 -27738169.37449 -21522096.78548  20020777.7984   20020777.7824   20020779.8374
      1105.0484
 -23191708.97849 -18031339.73248  20944282.8214   20944282.9044   20944285.4864
       497.8134
 -20250009.40249 -15766094.02148  21381204.1364   21381204.5314   21381206.4114
     -2393.9884
 -15147644.91448 -11766698.55247  22273416.2694   22273416.6084   22273418.2844
      -263.4194
 10  1  3  1 28  0.0000000  0 10G12G18G22G30G26G28G09G27G15G17
 -18350599.72948 -14280748.22247  21936749.8554   21936750.4374   21936751.8904
      2603.1784
 -12097589.68848  -9193669.44546  23068600.1234   23068600.8714   23068602.0574
     -1095.0114
  -7338681.69647  -5559212.03146  23988899.6564   23988899.9114   23988901.5364
       646.6394
  -3169445.64346  -2462720.04546  24844292.0494   24844291.9544   24844295.0304
      3639.8074
  -9424410.28847  -7324115.03146  22969048.1784   22969047.4964   22969050.8564
      3340.2184
  -3328660.88947  -2552868.84945  25029571.2394   25029572.9234   25029572.1544
     -3129.8174
 -27771141.28949 -21547789.18548  20014503.4424   20014503.4414   20014505.5914
      1092.5984
 -23206550.38549 -18042904.46348  20941458.6564   20941458.5794   20941461.2024
       491.1654
 -20177987.48949 -15709973.05648  21394909.4614   21394909.7684   21394911.7484
     -2407.9274
 -15139460.16548 -11760320.81447  22274973.8094   22274973.9314   22274976.0714
      -282.6614
 10  1  3  1 28 30.0000000  0 10G12G18G22G30G26G28G09G27G15G17
 -18428534.36548 -14341476.49747  21921919.5954   21921919.5894   21921921.2334
      2591.6944
 -12064501.89548  -9167886.74346  23074896.9514   23074896.8304   23074898.2134
     -1111.2944
  -7357823.49847  -5574127.72646  23985256.1454   23985257.9924   23985258.6114
       629.0584
  -3278604.53546  -2547778.91446  24823520.8084   24823520.6444   24823522.7884
      3636.8534
  -9524481.53247  -7402092.61546  22950005.5974   22950006.0214   22950007.8114
      3330.4454
  -3234769.08847  -2479706.37645  25047438.6014   25047439.6004   25047439.2024
     -3130.4434
 -27803732.63349 -21573185.03248  20008301.3044   20008301.0924   20008303.6314
      1079.5944
 -23221186.75749 -18054309.42648  20938673.5054   20938673.4474   20938676.2754
       483.9314
 -20105545.73349 -15653524.93848  21408694.6594   21408694.9724   21408697.0294
     -2422.0444
 -15130697.88948 -11753493.05547  22276640.9644   22276641.0254   22276643.2914
      -302.0814
 10  1  3  1 29  0.0000000  0 10G12G18G22G30G26G28G09G27G15G17
 -18506131.05148 -14401941.43547  21907153.4594   21907153.8014   21907155.0334
      2580.8154
 -12030927.37847  -9141724.80646  23081284.9434   23081285.1204   23081285.7234
     -1127.4874
  -7376439.41347  -5588633.64246  23981715.0624   23981715.8754   23981715.1754
       611.4954
  -3387671.32146  -2632765.98246  24802765.5054   24802766.0534   24802770.6914
      3634.0584
  -9624271.77647  -7479851.24146  22931015.4714   22931014.8464   22931018.3004
      3321.4604
  -3140864.31747  -2406533.80445  25065308.0654   25065308.0704   25065306.5294
     -3130.4044
 -27835941.91149 -21598283.16548  20002172.2614   20002172.0374   20002174.4834
      1067.1384
 -23235616.76949 -18065553.59348  20935927.6704   20935927.4514   20935930.1144
       477.3214
 -20032684.38049 -15596749.86448  21422559.6434   21422559.8004   21422561.9634
     -2435.8734
 -15121357.44448 -11746214.78247  22278418.5684   22278418.6474   22278420.4864
      -321.0974
 10  1  3  1 29 30.0000000  0 10G12G18G22G30G26G28G09G27G15G17
 -18583387.78848 -14462141.48547  21892451.7314   21892452.0374   21892453.5294
      2569.5134
 -11996866.54248  -9115183.91246  23087767.9444   23087767.2304   23087768.9834
     -1143.6314
  -7394527.91647  -5602728.58946  23978275.9914   23978273.3744   23978273.9914
       593.9014
  -3496643.80646  -2717679.60746  24782028.7324   24782029.3454   24782033.2354
      3631.1484
  -9723777.23147  -7557387.93046  22912080.3674   22912080.5204   22912084.3814
      3311.9294
  -3046947.06047  -2333351.52745  25083180.5634   25083179.8254   25083181.0204
     -3130.9934
 -27867766.81249 -21623081.78448  19996116.1824   19996116.1364   19996118.2484
      1054.3754
 -23249838.66749 -18076635.59048  20933221.1704   20933221.1214   20933223.7694
       470.5074
 -19959404.39349 -15539648.58548  21436504.3194   21436504.9494   21436506.6834
     -2449.6844
 -15111438.11948 -11738485.43147  22280306.3484   22280306.3514   22280308.7434
      -340.3134
 10  1  3  1 30  0.0000000  0 10G12G18G22G30G26G28G09G27G15G17
 -18660305.87548 -14522077.64447  21877815.0814   21877814.9794   21877816.9144
      2558.0914
 -11962323.77247  -9088267.46146  23094340.1634   23094339.6364   23094342.0724
     -1159.4894
  -7412091.41947  -5616414.44746  23974932.1574   23974931.1394   23974930.9614
       576.8114
  -3605522.88946  -2802520.42246  24761310.2274   24761311.1994   24761312.2834
      3627.3624
  -9822997.32147  -7634702.26446  22893199.1194   22893198.8664   22893201.2814
      3302.3894
  -2953020.98047  -2260162.34646  25101053.3134   25101054.1144   25101055.4214
     -3131.2484
 -27899208.88249 -21647582.09348  19990132.8734   19990132.7704   19990135.2164
      1041.5904
 -23263854.29749 -18087556.86148  20930554.0564   20930554.0854   20930556.8194
       463.6024
 -19885709.43249 -15482223.95248  21450528.1914   21450528.4704   21450530.4154
     -2463.5304
 -15100942.10048 -11730306.71247  22282303.4194   22282303.5904   22282305.3474
      -359.6654
 10  1  3  1 30 30.0000000  0 10G12G18G22G30G26G28G09G27G15G17
 -18736879.94948 -14581745.73948  21863243.2854   21863243.5454   21863244.9524
      2546.4214
 -11927296.58047  -9060973.55646  23101006.0844   23101005.4664   23101006.5804
     -1176.0754
  -7429125.38947  -5629687.65346  23971687.9014   23971688.8464   23971690.1944
       558.1684
  -3714303.04847  -2887284.17446  24740610.2564   24740610.3974   24740612.8124
      3624.0674
  -9921924.95547  -7711788.72246  22874374.1424   22874374.6034   22874377.6744
      3292.2874
  -2859082.94047  -2186963.91146  25118929.9974   25118930.0404   25118931.0184
     -3132.0384
 -27930262.92549 -21671780.04048  19984223.4074   19984223.2754   19984225.5894
      1028.2454
 -23277658.93449 -18098313.72148  20927927.2684   20927927.0354   20927930.0154
       456.1384
 -19811597.10449 -15424474.09748  21464631.0114   21464631.4234   21464633.5184
     -2477.6424
 -15089865.24948 -11721675.39647  22284411.4114   22284410.8384   22284413.8024
      -379.4234
 10  1  3  1 31  0.0000000  0 10G12G18G22G30G26G28G09G27G15G17
 -18813111.10248 -14641146.63348  21848736.9474   21848737.1564   21848739.0844
      2535.3804
 -11891788.39447  -9033304.86346  23107762.6064   23107762.5854   23107763.5494
     -1191.4734
  -7445631.30647  -5642549.42546  23968551.2264   23968550.3674   23968549.4154
       541.4394
  -3822984.65446  -2971971.15246  24719928.0974   24719927.8124   24719932.7424
      3620.9934
 -10020559.11647  -7788646.48847  22855605.0674   22855604.7294   22855607.5254
      3282.9844
  -2765136.23447  -2113758.72446  25136807.4694   25136807.3374   25136807.6254
     -3131.2744
 -27960929.66949 -21695676.19948  19978387.8264   19978387.5684   19978389.8674
      1015.8994
 -23291253.71249 -18108907.05248  20925340.2294   20925340.1134   20925342.6524
       449.8214
 -19737070.86049 -15366401.71248  21478813.0984   21478813.4824   21478815.3184
     -2490.8914
 -15078209.58648 -11712593.05347  22286629.4714   22286629.5084   22286631.0114
      -398.1184
 10  1  3  1 31 30.0000000  0 10G12G18G22G30G26G28G09G27G15G17
 -18889001.50149 -14700282.00148  21834295.5574   21834295.8994   21834297.4844
      2523.5754
 -11855804.58847  -9005265.54346  23114611.1324   23114610.4634   23114611.0764
     -1207.8204
  -7461612.02847  -5655001.91946  23965506.9764   23965508.5134   23965507.5084
       523.3754
  -3931569.67846  -3056582.82846  24699264.0854   24699264.9474   24699270.4504
      3617.4624
 -10118900.30847  -7865275.97347  22836891.3124   22836890.9604   22836894.2554
      3272.7074
  -2671185.73346  -2040550.55146  25154684.9794   25154686.5964   25154688.5034
     -3131.9894
 -27991211.78049 -21719272.64048  19972625.2094   19972625.1284   19972627.6054
      1002.6434
 -23304641.35549 -18119338.98048  20922792.7574   20922792.3574   20922795.1684
       442.4404
 -19662135.64049 -15308010.64048  21493072.8524   21493073.1544   21493074.8694
     -2505.0524
 -15065978.89048 -11703062.63047  22288956.8234   22288957.4794   22288958.5314
      -417.6194
 10  1  3  1 32  0.0000000  0 10G12G18G22G30G26G28G09G27G15G17
 -18964547.57949 -14759149.07048  21819919.7884   21819919.8254   21819921.5484
      2512.3924
 -11819344.35047  -8976854.98346  23121549.9074   23121548.2364   23121548.0774
     -1223.2294
  -7477064.93847  -5667043.15346  23962568.1114   23962568.1554   23962566.9094
       506.2824
  -4040054.21646  -3141116.23446  24678622.1674   24678621.0354   24678622.6084
      3614.4774
 -10216942.88347  -7941672.77146  22818234.0144   22818234.4654   22818236.7034
      3263.0644
  -2577229.74346  -1967338.13546  25172564.8194   25172563.9734   25172565.7804
     -3132.0354
 -28021105.17549 -21742566.19048  19966936.6854   19966936.7114   19966939.1454
       989.8854
 -23317818.46849 -18129606.86148  20920285.1954   20920284.7524   20920287.8554
       435.6244
 -19586790.35949 -15249300.04148  21507410.4564   21507410.8124   21507413.0544
     -2518.3144
 -15053170.80448 -11693082.28947  22291394.0804   22291394.0644   22291395.9874
      -436.5794
 10  1  3  1 32 30.0000000  0 10G12G18G22G30G26G28G09G27G15G17
 -19039745.96248 -14817745.20948  21805609.6944   21805610.0704   21805611.4864
      2500.8484
 -11782407.71847  -8948073.20546  23128577.5544   23128576.9714   23128579.1154
     -1239.0484
  -7491987.61747  -5678671.23646  23959727.2264   23959727.3064   23959727.4914
       488.2634
  -4148434.79547  -3225568.62746  24657997.8644   24657998.1514   24657999.3604
      3611.2384
 -10314681.75147  -8017832.91746  22799635.1214   22799634.6524   22799637.8194
      3252.9094
  -2483267.33946  -1894120.69246  25190446.0114   25190446.3704   25190445.1154
     -3132.0784
 -28050606.65349 -21765554.34948  19961322.7904   19961322.7174   19961324.9774
       976.8844
 -23330782.11249 -18139708.40348  20917818.2234   20917817.9714   20917820.8664
       428.5484
 -19511034.57849 -15190269.57148  21521826.5484   21521826.9334   21521828.9694
     -2531.9964
 -15039783.28948 -11682650.45447  22293941.5464   22293941.6974   22293943.3784
      -455.8784
 10  1  3  1 33  0.0000000  0 10G12G18G22G30G26G28G09G27G15G17
 -19114602.96248 -14876075.33048  21791365.0224   21791365.1314   21791366.8724
      2489.2254
 -11745002.89347  -8918926.60846  23135695.6054   23135694.5134   23135697.3364
     -1254.9064
  -7506387.01047  -5689891.52046  23956986.6204   23956986.1664   23956988.1694
       470.5984
  -4256716.97847  -3309944.32046  24637391.2804   24637392.3594   24637395.0154
      3607.4354
 -10412121.17447  -8093759.73046  22781093.3354   22781093.1574   22781094.8574
      3242.5324
  -2389307.00146  -1820904.86345  25208324.6934   25208324.6724   25208325.9104
     -3131.8884
 -28079722.73749 -21788242.20248  19955782.0554   19955781.8884   19955784.3184
       963.8554
 -23343538.95149 -18149648.79748  20915390.6794   20915390.0614   20915393.2564
       421.5744
 -19434877.15249 -15130926.12848  21536318.7304   21536319.2544   21536321.2694
     -2545.5754
 -15025823.67848 -11671772.83147  22296598.0184   22296598.2954   22296599.8664
      -475.1984
 10  1  3  1 33 30.0000000  0  9G12G18G22G30G26G09G27G15G17
 -19189108.23149 -14934131.36848  21777186.9394   21777187.0844   21777188.8584
      2477.7254
 -11707123.22447  -8889409.99746  23142902.8884   23142904.7144   23142905.3574
     -1270.5604
  -7520253.95747  -5700696.92746  23954347.4174   23954347.2824   23954349.2804
       453.3654
  -4364890.00447  -3394234.99946  24616808.3014   24616808.0474   24616809.2654
      3603.6974
 -10509248.96147  -8169443.71246  22762610.1734   22762609.3394   22762611.8354
      3232.4104
 -28108442.89149 -21810621.54248  19950316.9094   19950316.7674   19950319.2074
       950.8564
 -23356079.08849 -18159420.33448  20913004.3554   20913004.0734   20913007.0084
       414.3974
 -19358310.28349 -15071263.63948  21550889.0374   21550889.1714   21550891.0104
     -2558.8614
 -15011283.12248 -11660442.52347  22299365.0194   22299365.3864   22299366.9824
      -494.0884
 10  1  3  1 34  0.0000000  0  9G12G18G22G30G26G09G27G15G17
 -19263263.89449 -14991914.99948  21763076.0444   21763076.2364   21763077.7134
      2466.0234
 -11668773.55447  -8859527.14246  23150201.3944   23150200.0214   23150204.1434
     -1286.1424
  -7533591.32447  -5711089.70246  23951808.0744   23951810.8604   23951810.5924
       435.8424
  -4472956.13947  -3478442.38246  24596242.9094   24596242.0564   24596246.6924
      3600.1934
 -10606065.37747  -8244885.06346  22744186.3384   22744185.8514   22744188.6744
      3222.0104
 -28136769.53449 -21832694.25348  19944926.4264   19944926.3434   19944928.6474
       937.6584
 -23368404.94949 -18169024.90248  20910658.6674   20910658.4664   20910661.2254
       407.2854
 -19281339.30649 -15011286.26848  21565536.0834   21565536.3104   21565538.4734
     -2572.4624
 -14996165.04548 -11648662.20147  22302241.9894   22302241.9334   22302244.1004
      -513.3894
 10  1  3  1 34 30.0000000  0 10G12G18G22G30G26G01G09G27G15G17
 -19337073.09749 -15049428.64948  21749030.2564   21749030.2984   21749032.2864
      2454.4244
 -11629959.89847  -8829282.75846  23157587.1054   23157586.7234   23157589.0324
     -1301.5094
  -7546402.77847  -5721072.66546  23949374.6994   23949372.4024   23949372.8114
       417.0544
  -4580917.89547  -3562568.41146  24575698.3224   24575698.8244   24575701.6164
      3596.8864
 -10702571.46247  -8320084.59347  22725822.5874   22725822.3684   22725823.9694
      3211.4444
  -1293744.97147   -993079.46246  25043882.5774   25043883.6324   25043885.5904
      3519.2294
 -28164705.54849 -21854462.57448  19939610.4944   19939610.1144   19939612.9494
       924.5434
 -23380519.94449 -18178465.15848  20908353.3814   20908353.2204   20908355.9354
       400.0864
 -19203969.72149 -14950998.29148  21580258.9094   21580259.1374   21580261.3184
     -2585.6954
 -14980473.71448 -11636435.17647  22305227.7784   22305228.1134   22305229.6314
      -532.7244
 10  1  3  1 35  0.0000000  0 10G12G18G22G30G26G01G09G27G15G17
 -19410530.18749 -15106667.92548  21735051.8324   21735052.1644   21735054.1574
      2442.8694
 -11590679.28848  -8798674.50246  23165062.8264   23165062.6264   23165064.7264
     -1316.7654
  -7558683.56547  -5730642.11246  23947037.1684   23947036.4334   23947036.0314
       400.8344
  -4688768.81747  -3646608.08346  24555175.1074   24555175.6734   24555177.2824
      3593.4634
 -10798759.53447  -8395036.31946  22707518.0214   22707517.9244   22707519.9114
      3201.3244
  -1399270.21147  -1075306.88846  25023801.6394   25023801.9694   25023804.1104
      3516.0474
 -28192245.13149 -21875921.99248  19934369.8414   19934369.8594   19934372.3444
       911.6604
 -23392418.48749 -18187736.75348  20906089.0784   20906089.0684   20906092.2224
       393.2794
 -19126197.96149 -14890396.92848  21595058.5064   21595058.9194   21595060.5784
     -2598.7514
 -14964204.98948 -11623758.23747  22308323.9694   22308323.8244   22308325.6774
      -551.4684
 10  1  3  1 35 30.0000000  0 10G12G18G22G30G26G01G09G27G15G17
 -19483638.13149 -15163635.14548  21721139.8854   21721140.1204   21721141.7054
      2430.8344
 -11550937.91847  -8767707.22746  23172624.5154   23172625.3574   23172627.4964
     -1332.6844
  -7570437.71647  -5739801.16446  23944801.6564   23944799.7034   23944799.0434
       382.7914
  -4796511.84847  -3730563.69846  24534672.4104   24534673.0244   24534673.8974
      3589.4694
 -10894630.83548  -8469741.22247  22689274.0304   22689274.2824   22689276.7954
      3190.1414
  -1504695.33347  -1157456.33246  25003739.5774   25003740.0564   25003742.3644
      3512.1484
 -28219391.71849 -21897075.17948  19929204.1334   19929203.9894   19929206.4514
       898.1384
 -23404104.31649 -18196842.59448  20903865.5954   20903865.2404   20903867.8984
       385.8794
 -19048030.20349 -14829486.99748  21609933.2554   21609933.4934   21609935.2294
     -2612.3584
 -14947363.23348 -11610634.78447  22311528.4684   22311528.8934   22311530.4004
      -571.1614
 10  1  3  1 36  0.0000000  0 10G12G18G22G30G26G01G09G27G15G17
 -19556396.64849 -15220330.08448  21707294.4334   21707294.6184   21707296.0414
      2419.3534
 -11510738.31947  -8736382.87246  23180274.8594   23180275.5344   23180275.8254
     -1347.9014
  -7581665.50947  -5748550.10546  23942665.5164   23942662.3994   23942663.1254
       365.5174
  -4904146.33347  -3814434.74246  24514190.4454   24514190.7724   24514192.1154
      3585.7924
 -10990183.04448  -8544197.48247  22671091.8774   22671091.5524   22671093.9954
      3179.2954
  -1610019.55247  -1239527.12846  24983697.0544   24983697.1474   24983700.3904
      3508.9544
 -28246144.56849 -21917921.55648  19924113.1064   19924112.8994   19924115.5314
       884.9974
 -23415577.35449 -18205782.62548  20901682.1654   20901681.9214   20901684.7164
       378.6354
 -18969468.92449 -14768270.42648  21624882.9724   21624883.1944   21624885.3254
     -2625.3354
 -14929949.23148 -11597065.42047  22314842.3394   22314842.3164   22314844.2524
      -590.1144
 10  1  3  1 36 30.0000000  0 10G12G18G22G30G26G01G09G27G15G17
 -19628798.19049 -15276746.85548  21693517.0714   21693517.5724   21693518.6114
      2407.6704
 -11470075.88747  -8704697.87346  23188012.7574   23188011.6654   23188014.8224
     -1362.9014
  -7592360.91847  -5756884.17446  23940629.6024   23940627.2214   23940628.2764
       347.9854
  -5011663.95347  -3898214.70646  24493730.2404   24493729.9944   24493731.5374
      3581.9784
 -11085406.42547  -8618397.50247  22652971.0034   22652970.4514   22652973.6184
      3168.9124
  -1715234.99347  -1321513.15846  24963675.5984   24963676.1534   24963678.6074
      3505.5154
 -28272495.84949 -21938455.01948  19919098.7324   19919098.5634   19919101.3644
       871.7674
 -23426829.71649 -18214550.69748  20899541.1254   20899540.8304   20899543.5694
       371.4284
 -18890508.95349 -14706743.18248  21639908.6654   21639908.7414   21639911.0964
     -2638.4984
 -14911956.84048 -11583045.35947  22318266.4564   22318266.1344   22318268.0734
      -609.3404
 10  1  3  1 37  0.0000000  0 10G12G18G22G30G26G01G09G27G15G17
 -19700848.31049 -15332889.79248  21679805.9744   21679806.4684   21679808.0864
      2395.9214
 -11428959.26247  -8672658.95546  23195836.5974   23195836.1764   23195837.3994
     -1377.8144
  -7602530.13547  -5764808.23446  23938692.0264   23938691.6944   23938692.8494
       329.6004
  -5119070.00147  -3981907.73846  24473291.3944   24473293.9144   24473294.1194
      3578.2314
 -11180304.69648  -8692344.20847  22634912.4034   22634912.4274   22634916.1284
      3157.9014
  -1820346.82647  -1403418.48446  24943672.4014   24943673.6934   24943676.0024
      3501.7734
 -28298451.56449 -21958680.25348  19914159.3984   19914159.2484   19914161.7614
       858.5744
 -23437867.80349 -18223151.80448  20897440.4024   20897440.1544   20897442.9754
       364.2664
 -18811158.85149 -14644911.94448  21655008.4504   21655008.7024   21655010.9144
     -2651.5284
 -14893393.49348 -11568580.41047  22321798.9094   22321798.6224   22321800.4584
      -628.0764
 10  1  3  1 37 30.0000000  0 11G12G18G22G30G26G01G28G09G27G15G17
 -19772542.01049 -15388754.99548  21666163.2434   21666163.4264   21666165.2614
      2383.6904
 -11387385.85647  -8640264.10046  23203748.7324   23203746.2874   23203748.9024
     -1393.5514
  -7612169.27347  -5772319.24846  23936854.8954   23936858.7684   23936859.0854
       311.4274
  -5226359.17247  -4065509.69746  24452874.9914   24452875.7824   24452878.1384
      3574.3574
 -11274870.98248  -8766032.21547  22616916.7604   22616917.2084   22616919.7664
      3146.6484
  -1925349.68547  -1485238.90146  24923691.7794   24923692.0504   24923694.6914
      3498.1804
  -1017407.33217                  25369235.636
     -3128.933
 -28324006.51749 -21978593.20148  19909296.4934   19909296.2894   19909298.8034
       845.0244
 -23448687.02849 -18231582.36948  20895381.7124   20895381.3574   20895384.5164
       356.8264
 -18731416.33749 -14582774.92848  21670182.8434   21670183.1364   21670185.2784
     -2664.7824
 -14874255.31748 -11553667.53447  22325440.8544   22325440.9004   22325442.5734
      -647.6234
 10  1  3  1 38  0.0000000  0 11G12G18G22G30G26G01G28G09G27G15G17
 -19843878.42549 -15444341.79248  21652588.4684   21652588.5604   21652590.2714
      2372.6024
 -11345358.16547  -8607515.27046  23211745.1144   23211745.5304   23211746.5674
     -1407.9764
  -7621278.37647  -5779417.23646  23935126.8764   23935123.9734   23935124.5314
       295.4304
  -5333529.61647  -4149019.14246  24432481.3724   24432481.2664   24432485.0604
      3571.1764
 -11369102.04148  -8839458.99647  22598984.9404   22598985.6624   22598986.6094
      3136.1864
  -2030242.09746  -1566973.22446  24903731.4294   24903732.0934   24903735.3894
      3495.3564
   -923482.65647   -767297.53146  25387108.7984   25387109.4804   25387112.1314
     -3129.8594
 -28349159.28449 -21998192.75948  19904510.0134   19904509.8814   19904512.3804
       832.3784
 -23459286.30749 -18239841.54648  20893364.6804   20893364.5554   20893367.2004
       350.1664
 -18651282.72949 -14520333.16148  21685431.8534   21685432.1214   21685433.9954
     -2677.0184
 -14854542.63948 -11538306.99647  22329191.6834   22329192.0104   22329193.3504
      -665.8984
 10  1  3  1 38 30.0000000  0 11G12G18G22G30G26G01G28G09G27G15G17
 -19914862.24649 -15499653.84048  21639080.5344   21639080.6634   21639082.4324
      2360.2874
 -11302883.50547  -8574418.13346  23219828.6864   23219828.5214   23219829.5824
     -1423.2044
  -7629862.35847  -5786106.09446  23933492.1394   23933490.8494   23933491.0834
       277.1884
  -5440585.53447  -4232439.32646  24412109.2754   24412108.9244   24412112.2224
      3566.4244
 -11463000.43648  -8912626.57247  22581117.0804   22581117.3674   22581118.6194
      3124.3474
  -2135027.80546  -1648624.43646  24883790.5884   24883791.1784   24883794.6364
      3491.4774
   -829572.14247   -694120.58846  25404979.6134   25404980.2384   25404982.4414
     -3130.2244
 -28373914.59549 -22017482.61248  19899799.2704   19899799.2044   19899801.6774
       818.5494
 -23469670.37149 -18247933.02548  20891388.5934   20891388.7114   20891391.2604
       342.5224
 -18570765.39549 -14457592.38948  21700753.7094   21700754.3934   21700756.0984
     -2690.3524
 -14834261.37548 -11522503.40247  22333051.1094   22333051.4384   22333052.7824
      -685.4934
 10  1  3  1 39  0.0000000  0 11G12G18G22G30G26G01G28G09G27G15G17
 -19985487.79849 -15554686.72448  21625641.0744   21625641.3154   21625642.9044
      2348.1834
 -11259959.83347  -8540971.12746  23227995.8344   23227995.8624   23227997.9944
     -1437.9924
  -7637917.61047  -5792382.93246  23931956.3314   23931957.7154   23931959.4374
       260.1704
  -5547521.82347  -4315766.28446  24391759.3784   24391758.7724   24391761.9904
      3562.7624
 -11556559.04548  -8985529.39547  22563313.7754   22563313.8944   22563316.1094
      3113.0284
  -2239701.68446  -1730188.50246  24863872.4124   24863872.7564   24863875.1924
      3487.0104
   -735673.11147   -620952.50545  25422847.6514   25422846.7764   25422847.9884
     -3130.0364
 -28398267.37349 -22036458.80848  19895165.0694   19895164.9084   19895167.3614
       805.0294
 -23479834.39149 -18255853.03948  20889454.3364   20889454.1874   20889457.1584
       335.2234
 -18489862.14049 -14394550.90048  21716149.2514   21716149.4664   21716151.5374
     -2703.2294
 -14813408.17448 -11506254.15047  22337019.3794   22337019.7414   22337021.4804
      -704.7304
 10  1  3  1 39 30.0000000  0 11G12G18G22G30G26G01G28G09G27G15G17
 -20055756.70749 -15609441.70548  21612269.3384   21612269.2014   21612271.0424
      2336.2374
 -11216591.28147  -8507177.45046  23236248.9984   23236247.7924   23236251.0524
     -1452.9914
  -7645446.38347  -5798249.50246  23930526.5884   23930524.6704   23930525.5504
       242.2554
  -5654339.07847  -4399000.47846  24371433.5804   24371434.4574   24371436.6124
      3558.6314
 -11649777.15148  -9058166.86447  22545574.3554   22545575.6134   22545577.8604
      3101.3374
  -2344264.47646  -1811665.99646  24843975.4154   24843975.7374   24843977.7534
      3483.5504
   -641788.78947   -547795.92646  25440714.0824   25440711.9684   25440715.7304
     -3129.4734
 -28422218.86149 -22055122.30748  19890607.3034   19890607.0434   19890609.3834
       791.5484
 -23489779.75849 -18263602.67448  20887561.8794   20887561.8694   20887564.8614
       327.7264
 -18408576.70549 -14331211.61048  21731617.0954   21731617.5154   21731619.3194
     -2716.1734
 -14791985.54348 -11489561.16647  22341095.6704   22341095.8244   22341097.8054
      -723.2874
 10  1  3  1 40  0.0000000  0 11G12G18G22G30G26G01G28G09G27G15G17
 -20125667.29649 -15663917.48448  21598965.5544   21598966.0104   21598967.7594
      2323.7804
 -11172779.43747  -8473038.36346  23244586.2084   23244586.0304   23244587.1724
     -1468.4334
  -7652447.37147  -5803704.86046  23929194.5484   23929193.6004   23929193.0674
       223.8574
  -5761034.98847  -4482140.14746  24351129.9244   24351130.5704   24351132.9984
      3554.1374
 -11742651.00248  -9130536.11147  22527901.6384   22527900.6234   22527904.5534
      3089.3674
  -2448713.79346  -1893055.04846  24824099.3504   24824099.5804   24824102.0044
      3478.8824
   -547919.41247   -474651.00345  25458576.1724   25458575.1834   25458578.2204
     -3129.1324
 -28445767.38049 -22073471.80548  19886126.1844   19886126.0584   19886128.5244
       777.5934
 -23499504.92549 -18271180.73048  20885711.2844   20885711.2774   20885713.8404
       319.8724
 -18326910.16049 -14267575.35548  21747158.1164   21747158.0584   21747160.1334
     -2729.1934
 -14769992.89048 -11472424.01447  22345280.9964   22345281.4974   22345283.5864
      -743.2874
 10  1  3  1 40 30.0000000  0 12G12G18G22G30G14G26G01G28G09G27G15G17
 -20195217.41349 -15718112.36548  21585730.8604   21585730.6354   21585732.6444
      2312.2874
 -11128525.02147  -8438554.38646  23253007.6484   23253007.2654   23253009.4204
     -1482.6124
  -7658920.12147  -5808748.55846  23927962.3744   23927961.3864   23927961.0334
       206.7284
  -5867607.28947  -4565183.49846  24330849.3544   24330850.0114   24330852.2354
      3550.0774
  -1692754.69247  -1265658.42745  25584042.3084   25584042.4564   25584040.1884
      3608.5854
 -11835176.41548  -9202633.83147  22510294.3244   22510295.5904   22510296.9884
      3078.1744
  -2553047.31047  -1974353.88346  24804246.0954   24804245.5084   24804247.4404
      3475.4734
   -454064.92546   -401517.57845  25476436.0944   25476436.2274   25476438.0154
     -3128.6224
 -28468910.51849 -22091505.42348  19881722.1184   19881722.0684   19881724.4394
       764.4334
 -23509008.02249 -18278585.74648  20883902.8594   20883902.8294   20883905.6054
       312.7274
 -18244863.31849 -14203642.76448  21762770.8324   21762771.1654   21762773.2264
     -2741.4424
 -14747430.25048 -11454842.72447  22349574.4644   22349574.3744   22349576.6944
      -761.8624
 10  1  3  1 41  0.0000000  0 11G12G18G22G30G26G01G28G09G27G15G17
 -20264409.25349 -15772028.07048  21572563.8124   21572563.9744   21572565.5054
      2300.2364
 -11083832.67147  -8403729.18346  23261512.7734   23261510.5094   23261514.1844
     -1497.0054
  -7664867.48847  -5813382.90046  23926830.7074   23926830.0704   23926829.1854
       189.4584
  -5974057.05447  -4648131.35146  24310593.4034   24310594.0604   24310596.2984
      3546.5104
 -11927353.22748  -9274459.90247  22492753.7414   22492753.8264   22492755.5194
      3066.6164
  -2657266.34447  -2055563.50546  24784413.4624   24784413.2304   24784415.3274
      3472.1874
   -360229.48946   -328399.12545  25494292.3124   25494291.3344   25494293.3514
     -3127.5544
 -28491650.20449 -22109224.65948  19877394.7894   19877394.7204   19877397.2934
       751.1294
 -23518290.93249 -18285819.17748  20882136.5374   20882136.3554   20882139.2764
       305.7264
 -18162440.72448 -14139417.37648  21778455.4674   21778455.7464   21778457.4304
     -2753.7104
 -14724300.68248 -11436819.67447  22353975.8914   22353976.3254   22353978.0054
      -780.4904
 10  1  3  1 41 30.0000000  0 12G12G18G22G30G14G26G01G28G09G27G15G17
 -20333239.05849 -15825661.66348  21559466.1024   21559466.3834   21559467.8034
      2288.4324
 -11038702.67247  -8368562.97246  23270100.7094   23270101.0234   23270100.5274
     -1511.2794
  -7670287.32447  -5817606.17546  23925799.7264   23925797.4524   23925798.9994
       172.4054
  -6080380.66247  -4730980.91346  24290360.3094   24290359.6614   24290362.8824
      3542.1064
  -1192930.15017                  25542856.023
      3606.249
 -12019175.90848  -9346010.06047  22475280.3664   22475280.6934   22475282.8384
      3055.0954
  -2761367.53446  -2136681.29546  24764602.8194   24764603.8964   24764605.3344
      3468.0314
   -266411.34246   -255293.99745  25512145.5114   25512144.2374   25512149.8354
     -3127.0384
 -28513983.20249 -22126626.99848  19873145.1954   19873144.8154   19873147.5474
       737.7614
 -23527350.68449 -18292878.72248  20880412.3654   20880412.4204   20880415.0614
       298.4384
 -18079641.44349 -14074898.46748  21794211.5064   21794211.8814   21794213.7444
     -2765.9954
 -14700602.60948 -11418353.63847  22358485.4314   22358485.6644   22358487.0444
      -799.2894
 10  1  3  1 42  0.0000000  0 11G12G18G22G30G26G01G28G09G27G15G17
 -20401706.38549 -15879012.80948  21546437.2324   21546437.2754   21546438.9874
      2276.6524
 -10993136.93547  -8333057.20346  23278771.3114   23278771.9074   23278772.8174
     -1525.7624
  -7675179.95647  -5821418.63146  23924866.4384   23924867.5414   23924866.9834
       154.5944
  -6186576.82347  -4813731.15746  24270151.6954   24270151.7294   24270155.1034
      3538.3284
 -12110641.84048  -9417282.20147  22457874.9624   22457874.7924   22457877.1874
      3043.3464
  -2865349.59246  -2217706.27546  24744815.5604   24744816.7474   24744818.9084
      3464.3834
   -172611.65147   -182203.38645  25529995.0314   25529994.4644   25529997.4214
     -3125.7144
 -28535908.42249 -22143711.58648  19868972.9774   19868972.9474   19868975.4114
       724.4634
 -23536186.90249 -18299764.08648  20878731.0784   20878730.7684   20878733.4554
       291.3524
 -17996467.62748 -14010087.71548  21810038.9744   21810039.7484   21810041.4794
     -2778.2464
 -14676336.86248 -11399445.25747  22363102.9554   22363102.8464   22363104.6794
      -817.7414
 10  1  3  1 42 30.0000000  0 11G12G18G22G30G26G01G28G09G27G15G17
 -20469810.63649 -15932081.03548  21533477.2994   21533477.6174   21533478.8834
      2264.1844
 -10947137.80347  -8297213.71946  23287524.4024   23287523.3684   23287525.6704
     -1540.5574
  -7679545.72747  -5824820.55546  23924036.5934   23924037.0594   23924036.4094
       136.8624
  -6292644.58247  -4896381.34046  24249967.7414   24249967.5604   24249971.5294
      3533.5614
 -12201748.26448  -9488274.21347  22440538.4834   22440538.4044   22440541.5784
      3030.7644
  -2969211.33446  -2298637.46146  24725051.7654   24725050.8744   24725054.7554
      3459.7054
    -78831.903 6   -109128.22845  25547840.209                    25547841.3974
     -3126.149
 -28557425.32649 -22160478.00648  19864878.4794   19864878.4094   19864880.7014
       710.3954
 -23544798.89749 -18306474.72948  20877092.1384   20877092.1434   20877094.5534
       283.3054
 -17912921.43448 -13944986.79648  21825937.5104   21825937.9794   21825939.8504
     -2790.9884
 -14651504.10448 -11380095.04947  22367828.5364   22367828.7524   22367830.3364
      -837.2524
 10  1  3  1 43  0.0000000  0 11G12G18G22G30G26G01G28G09G27G15G17
 -20537553.57249 -15984867.71648  21520586.2414   21520586.4814   21520587.7544
      2251.8274
 -10900710.07247  -8261036.28346  23296359.7984   23296356.7994   23296359.7954
     -1554.9564
  -7683387.29747  -5827814.02246  23923306.3144   23923304.8954   23923304.7704
       119.0964
  -6398584.90947  -4978932.23046  24229808.1374   24229808.3664   24229810.1204
      3529.2014
 -12292494.49348  -9558985.56647  22423269.8374   22423268.6124   22423271.3554
      3018.6614
  -3072953.63747  -2379475.60346  24705309.5074   24705309.8064   24705312.0784
      3455.9394
     14924.37246    -36071.42445  25565682.1864   25565681.6174   25565684.9034
     -3124.7234
 -28578535.08649 -22176927.17048  19860861.2804   19860861.1774   19860863.7204
       696.6624
 -23553188.34249 -18313011.95848  20875495.7534   20875495.7054   20875498.2424
       275.6264
 -17829007.07749 -13879599.00248  21841905.7534   21841906.3284   21841908.2344
     -2803.4754
 -14626107.53548 -11360305.51247  22372661.3324   22372661.6204   22372663.2554
      -856.1944
 10  1  3  1 43 30.0000000  0 11G12G18G22G30G26G01G28G09G27G15G17
 -20604932.14549 -16037370.47748  21507764.3934   21507764.8454   21507766.0804
      2239.2684
 -10853854.09047  -8224525.13646  23305274.7924   23305275.9474   23305276.4644
     -1569.5024
  -7686702.78647  -5830397.54246  23922675.2154   23922673.6624   23922674.9544
       101.2424
  -6504394.29647  -5061381.07546  24209673.4744   24209673.6504   24209675.3994
      3524.4744
 -12382875.64648  -9629412.42947  22406070.5694   22406069.9434   22406072.8454
      3006.0104
  -3176573.25547  -2460218.16746  24685592.1904   24685591.6984   24685594.6494
      3451.3094
    108658.04346     36967.83445  25583518.6444   25583515.1984   25583515.9364
     -3124.5644
 -28599234.92449 -22193056.91148  19856922.2524   19856922.0794   19856924.5744
       682.5664
 -23561352.52749 -18319373.65748  20873942.2744   20873941.9984   20873944.9194
       267.7854
 -17744724.50948 -13813924.28548  21857944.2364   21857944.5234   21857946.5244
     -2816.1134
 -14600146.18248 -11340075.87147  22377601.7464   22377601.9144   22377603.4164
      -875.4584
 10  1  3  1 44  0.0000000  0 11G12G18G22G30G26G01G28G09G27G15G17
 -20671947.10649 -16089589.90548  21495012.1864   21495012.0664   21495013.6904
      2227.8344
 -10806573.49347  -8187683.12946  23314273.5044   23314272.9234   23314274.3854
     -1583.1004
  -7689494.22647  -5832572.73146  23922144.1754   23922143.2054   23922143.0524
        84.5544
  -6610072.89347  -5143728.02746  24189562.1224   24189563.7084   24189566.9224
      3520.5144
 -12472890.36648  -9699553.76247  22388941.2394   22388941.9724   22388943.9444
      2994.3854
  -3280070.39047  -2540865.24946  24665897.8844   24665897.5784   24665899.3764
      3447.8874
    202366.76646    109987.55545  25601351.3064   25601353.0554   25601353.8004
     -3123.3934
 -28619525.29449 -22208867.59148  19853061.1304   19853060.8884   19853063.6004
       669.5734
 -23569292.12649 -18325560.35648  20872431.1984   20872431.2544   20872433.5494
       260.9354
 -17660077.02748 -13747965.22148  21874052.1934   21874052.3604   21874054.7534
     -2827.5444
 -14573621.75148 -11319407.47747  22382648.9854   22382649.2394   22382650.9044
      -893.4564
 10  1  3  1 44 30.0000000  0 10G12G18G22G30G26G01G09G27G15G17
 -20738594.27849 -16141522.74148  21482329.5244   21482329.7134   21482331.1034
      2215.4774
 -10758867.01947  -8150509.27046  23323351.3644   23323351.1804   23323352.4874
     -1597.1714
  -7691758.44247  -5834337.08646  23921708.0444   23921713.9334   23921713.5314
        66.7954
  -6715616.26247  -5225969.59746  24169477.8814   24169479.0304   24169481.9474
      3516.0144
 -12562532.28748  -9769404.61547  22371883.0034   22371883.9134   22371885.1844
      2981.8274
  -3383440.40347  -2621413.30746  24646226.4584   24646226.5784   24646229.1304
      3443.7404
 -28639401.70549 -22224355.70348  19849278.9544   19849278.6234   19849281.0704
       655.5724
 -23577003.29649 -18331569.06148  20870963.9744   20870963.7734   20870966.5604
       253.1934
 -17575063.10848 -13681720.62148  21890229.6984   21890229.9334   21890232.1524
     -2839.8754
 -14546531.95548 -11298298.53547  22387804.1374   22387804.0454   22387805.7004
      -912.4464
 10  1  3  1 45  0.0000000  0 10G12G18G22G30G26G01G09G27G15G17
 -20804875.58649 -16193170.48648  21469716.5984   21469716.5924   21469718.1484
      2202.9544
 -10710739.49347  -8113007.31046  23332509.9884   23332508.8314   23332511.2204
     -1611.4444
  -7693498.41947  -5835692.93746  23921383.9964   23921382.8894   23921382.1194
        49.0614
  -6821025.85747  -5308106.92246  24149419.9294   24149420.3094   24149423.8714
      3511.0824
 -12651801.19248  -9838964.79947  22354895.9634   22354896.0634   22354898.4024
      2969.0194
  -3486684.87947  -2701863.54746  24626579.1644   24626580.5024   24626583.1254
      3439.4204
 -28658866.52749 -22239523.09648  19845574.6364   19845574.6114   19845577.0654
       641.7284
 -23584487.76749 -18337401.11548  20869539.6464   20869539.3004   20869542.1084
       245.3414
 -17489687.68748 -13615194.32648  21906476.1834   21906476.1474   21906478.5674
     -2852.0224
 -14518880.38048 -11276751.85147  22393066.0014   22393065.7954   22393067.8064
      -931.3424
 10  1  3  1 45 30.0000000  0 10G12G18G22G30G26G01G09G27G15G17
 -20870793.34249 -16244534.94248  21457172.7164   21457173.2554   21457174.2584
      2190.4524
 -10662196.34447  -8075181.49246  23341745.9634   23341746.5114   23341749.4644
     -1625.7144
  -7694717.63947  -5836642.97246  23921152.4784   23921150.0274   23921150.3194
        31.3114
  -6926302.94047  -5390141.01046  24129386.6264   24129386.8244   24129388.9274
      3506.5744
 -12740697.05948  -9908234.30847  22337979.6444   22337979.4044   22337980.9174
      2956.2284
  -3589805.19347  -2782217.02446  24606956.2674   24606956.8104   24606958.2914
      3434.7734
 -28677921.50449 -22254371.12848  19841948.7134   19841948.3754   19841951.0504
       627.6584
 -23591747.71149 -18343058.21948  20868158.1144   20868158.0684   20868160.8604
       237.6024
 -17403955.27248 -13548389.85448  21922790.1044   21922790.7424   21922792.9844
     -2864.3854
 -14490670.80548 -11254770.36447  22398434.0824   22398434.4264   22398435.7574
      -950.3534
 10  1  3  1 46  0.0000000  0 10G12G18G22G30G26G01G09G27G15G17
 -20936342.79449 -16295612.40248  21444699.2954   21444699.3574   21444700.7124
      2178.8454
 -10613235.88647  -8037030.50346  23351062.7194   23351064.0864   23351065.9144
     -1639.0954
  -7695412.55147  -5837184.48946  23921019.1074   23921017.0814   23921016.7074
        14.4174
  -7031442.55247  -5472067.97946  24109379.0064   24109379.0564   24109381.5004
      3502.1144
 -12829213.02948  -9977207.79047  22321135.3434   22321135.4564   22321138.8154
      2944.0894
  -3692796.31947  -2862469.84646  24587357.4794   24587358.3054   24587360.1824
      3431.0344
 -28696561.94749 -22268896.14848  19838401.4404   19838401.3454   19838403.8424
       614.3304
 -23598778.52649 -18348536.77848  20866820.2054   20866820.1084   20866822.6454
       230.3234
 -17317864.16448 -13481305.88448  21939172.8624   21939173.2144   21939175.4394
     -2875.8354
 -14461900.00748 -11232351.55547  22403908.9604   22403909.1914   22403910.5194
      -968.4364
 10  1  3  1 46 30.0000000  0 10G12G18G22G30G26G01G09G27G15G17
 -21001522.52849 -16346401.77148  21432296.0354   21432296.0674   21432297.3934
      2166.5604
 -10563859.79047  -7998555.64546  23360459.5854   23360459.7064   23360461.7464
     -1652.6754
  -7695582.80547  -5837317.19546  23920986.9604   23920984.9564   23920985.6794
        -3.0714
  -7136442.64647  -5553886.24846  24089397.8114   24089397.9054   24089401.5974
      3497.5374
 -12917345.54648 -10045882.48347  22304364.4874   22304365.0464   22304366.4604
      2931.4894
  -3795656.46547  -2942620.62046  24567784.4494   24567784.5484   24567786.7444
      3426.6624
 -28714786.18049 -22283096.84748  19834933.5864   19834933.6154   19834935.9704
       600.5754
 -23605578.71749 -18353835.62748  20865526.1294   20865526.0764   20865528.7434
       222.9004
 -17231415.37148 -13413943.19348  21955623.8164   21955624.2444   21955625.9484
     -2887.4414
 -14432568.33848 -11209495.70147  22409490.7374   22409490.9504   22409492.3894
      -987.0224
 10  1  3  1 47  0.0000000  0 10G12G18G22G30G26G01G09G27G15G17
 -21066334.74149 -16396904.76748  21419962.5414   21419962.6264   21419963.8134
      2154.1114
 -10514073.28347  -7959760.97946  23369934.1884   23369933.3674   23369935.0174
     -1666.5754
  -7695231.79347  -5837043.69446  23921052.2394   23921052.8794   23921053.2154
       -20.6584
  -7241304.77647  -5635597.00246  24069443.7914   24069443.1674   24069446.8044
      3492.9514
 -13005094.50948 -10114258.30647  22287666.0784   22287667.3544   22287668.7224
      2918.2974
  -3898386.99947  -3022670.40946  24548234.9244   24548235.3744   24548238.6104
      3421.7414
 -28732596.15449 -22296974.74648  19831544.3584   19831544.2974   19831546.9464
       586.6644
 -23612150.62449 -18358956.59448  20864275.4504   20864275.3214   20864278.1894
       215.0864
 -17144614.02848 -13346305.79448  21972141.6494   21972141.5304   21972144.2244
     -2899.3474
 -14402679.60448 -11186205.77347  22415178.2484   22415178.4884   22415180.8084
     -1005.7534
 10  1  3  1 47 30.0000000  0 10G12G18G22G30G26G01G09G27G15G17
 -21130778.25449 -16447120.46748  21407699.1534   21407699.6034   21407700.6614
      2141.6454
 -10463878.02047  -7920647.80346  23379486.2424   23379485.2974   23379487.3964
     -1680.1944
  -7694359.27047  -5836363.82846  23921219.1404   23921218.2464   23921218.3564
       -37.7364
  -7346027.05347  -5717198.76146  24049516.0084   24049515.9544   24049518.8214
      3488.2274
 -13092456.38248 -10182332.48047  22271041.7264   22271041.4804   22271044.8454
      2905.2584
  -4000986.27347  -3102617.88346  24528711.3064   24528710.6574   24528712.7534
      3417.4204
 -28749990.22349 -22310528.56548  19828234.3354   19828234.3884   19828236.8664
       572.5794
 -23618492.76249 -18363898.52048  20863068.7404   20863068.5194   20863071.1074
       207.1814
 -17057461.22948 -13278394.52748  21988726.2074   21988726.4714   21988728.2614
     -2911.1204
 -14372234.17548 -11162482.04847  22420972.0034   22420972.4024   22420973.5354
     -1024.4424
 10  1  3  1 48  0.0000000  0 10G12G18G22G30G26G01G09G27G15G17
 -21194849.78149 -16497046.30948  21395506.8614   21395507.2364   21395508.1984
      2129.4024
 -10413274.10847  -7881216.20046  23389115.6844   23389115.2634   23389116.6014
     -1693.6914
  -7692963.52148  -5835276.25146  23921486.9784   23921483.2274   23921483.5094
       -55.4554
  -7450606.19847  -5798689.00246  24029614.9584   24029615.9194   24029617.6464
      3483.5524
 -13179426.21948 -10250101.19747  22254492.1614   22254492.3984   22254493.8984
      2892.2134
  -4103450.43547  -3182460.07746  24509213.2264   24509212.7234   24509214.8544
      3413.2294
 -28766965.34249 -22323755.93448  19825004.2084   19825004.3174   19825006.6564
       558.7744
 -23624602.29649 -18368659.19748  20861905.9504   20861905.7684   20861908.5304
       199.6354
 -16969957.24648 -13210209.61248  22005377.6474   22005377.8974   22005380.1554
     -2922.7524
 -14341230.57448 -11138323.39447  22426871.5704   22426871.7964   22426873.7974
     -1042.8664
 10  1  3  1 48 30.0000000  0 10G12G18G22G30G26G01G09G27G15G17
 -21258552.79849 -16546684.99948  21383384.5674   21383384.7544   21383386.1724
      2117.1364
 -10362268.05247  -7841471.25146  23398820.8854   23398821.2444   23398821.4594
     -1707.1514
  -7691049.31948  -5833784.68946  23921850.6284   23921847.8774   23921846.7274
       -72.7454
  -7555044.77147  -5880069.70646  24009741.2884   24009741.4154   24009744.1764
      3478.6244
 -13266004.98248 -10317565.17047  22238017.0194   22238017.6634   22238019.4124
      2879.3314
  -4205782.46847  -3262199.32946  24489739.2474   24489739.9114   24489743.0674
      3408.5744
 -28783525.02349 -22336659.57948  19821853.0184   19821852.8754   19821855.3954
       544.8454
 -23630482.64149 -18373241.28948  20860786.9834   20860786.8884   20860789.8194
       191.9814
 -16882107.47448 -13141755.25048  22022094.8644   22022095.1834   22022097.1174
     -2934.2004
 -14309673.74848 -11113733.64747  22432876.3494   22432876.4804   22432878.8394
     -1061.1584
 10  1  3  1 49  0.0000000  0 10G12G18G22G30G26G01G09G27G15G17
 -21321883.74549 -16596033.76948  21371333.0504   21371333.0534   21371334.7564
      2104.7304
 -10310859.17247  -7801412.38846  23408605.3514   23408602.5574   23408604.8704
     -1720.1134
  -7688614.05247  -5831887.10246  23922312.7184   23922311.9344   23922310.4744
       -89.7394
  -7659338.18047  -5961337.30446  23989894.9104   23989895.2154   23989897.6354
      3473.8534
 -13352186.85948 -10384719.87547  22221617.0434   22221617.1754   22221620.0514
      2866.0954
  -4307978.03947  -3341832.25246  24470292.7194   24470292.3954   24470295.9284
      3404.1584
 -28799665.24449 -22349236.37548  19818781.7654   19818781.3924   19818784.0144
       530.9774
 -23636129.90249 -18377641.75448  20859712.3244   20859712.1984   20859714.8684
       184.2814
 -16793911.15048 -13073030.84048  22038878.1564   22038878.2694   22038880.5984
     -2945.6164
 -14277561.77748 -11088711.33047  22438986.9864   22438987.3314   22438989.3524
     -1079.7764
 10  1  3  1 49 30.0000000  0 10G12G18G22G30G26G01G09G27G15G17
 -21384841.55349 -16645091.78748  21359352.4694   21359352.8084   21359354.1784
      2092.1364
 -10259049.48747  -7761041.23346  23418463.7194   23418463.8284   23418463.2234
     -1734.1084
  -7685657.72347  -5829583.48946  23922874.2974   23922874.8314   23922875.0024
      -107.3784
  -7763484.89147  -6042490.58746  23970076.1994   23970076.3244   23970078.7704
      3468.8774
 -13437968.40748 -10451562.65447  22205293.5214   22205293.5904   22205295.9324
      2852.5464
  -4410035.70747  -3421357.70346  24450871.3164   24450872.0924   24450874.2834
      3399.1924
 -28815384.43949 -22361485.09748  19815790.4244   19815789.8614   19815792.7654
       516.7304
 -23641542.93349 -18381859.70648  20858682.4864   20858682.2974   20858685.0224
       176.2824
 -16705369.93148 -13004037.68447  22055726.9544   22055727.1334   22055729.3914
     -2957.4184
 -14244895.34148 -11063256.96547  22445203.2324   22445203.6184   22445205.7784
     -1098.4354
 10  1  3  1 50  0.0000000  0 10G12G18G22G30G26G01G09G27G15G17
 -21447427.97249 -16693860.41548  21347442.7024   21347442.9094   21347444.2984
      2080.1284
 -10206843.90647  -7720361.57646  23428397.6074   23428397.4684   23428399.4514
     -1746.8284
  -7682183.58847  -5826876.37146  23923534.2514   23923534.3634   23923534.6724
      -124.3834
  -7867486.23447  -6123530.60346  23950285.4064   23950286.5224   23950287.1994
      3464.4474
 -13523349.32448 -10518093.24447  22189045.6854   22189045.9634   22189048.5874
      2839.5464
  -4511956.63347  -3500776.60246  24431476.4374   24431476.5964   24431479.0734
      3395.1344
 -28830684.23049 -22373407.01348  19812878.7954   19812878.8984   19812881.2194
       503.1614
 -23646723.40049 -18385896.43848  20857696.5524   20857696.3354   20857699.2134
       168.9864
 -16616488.11748 -12934779.13247  22072640.8014   22072640.9714   22072642.6684
     -2968.2814
 -14211678.16048 -11037373.44747  22451524.8674   22451525.0264   22451526.6094
     -1116.3764
 10  1  3  1 50 30.0000000  0 10G12G18G22G30G26G01G09G27G15G17
 -21509640.50949 -16742337.69748  21335604.0874   21335604.1404   21335605.6464
      2067.4004
 -10154242.72447  -7679373.65046  23438407.1724   23438407.5004   23438410.0124
     -1760.2224
  -7678189.99347  -5823764.49546  23924294.3334   23924294.8824   23924294.8964
      -142.1764
  -7971338.72847  -6204454.62046  23930522.9794   23930523.1714   23930525.8774
      3458.9854
 -13608324.57648 -10584307.73147  22172875.6284   22172875.9554   22172877.9134
      2825.5764
  -4613737.24847  -3580086.16246  24412109.2454   24412108.0014   24412111.2144
      3390.1344
 -28845561.77649 -22384999.90648  19810047.7704   19810047.6644   19810050.0504
       488.7214
 -23651668.38149 -18389749.67548  20856755.4614   20856755.3394   20856758.2204
       160.7214
 -16527265.92748 -12865255.35047  22089618.9564   22089619.3094   22089621.4904
     -2979.8854
 -14177908.92648 -11011059.74847  22457950.9204   22457951.1664   22457952.9544
     -1134.8764
 10  1  3  1 51  0.0000000  0 11G12G18G22G30G14G26G01G09G27G15G17
 -21571480.76749 -16790524.89448  21323836.2994   21323836.5224   21323837.9304
      2055.2684
 -10101250.81447  -7638081.26946  23448491.1164   23448489.4284   23448493.0344
     -1772.9904
  -7673679.79547  -5820250.07446  23925153.8374   23925153.4974   23925154.9094
      -158.8034
  -8075043.43947  -6285263.49246  23910788.2564   23910789.1614   23910790.3064
      3454.3284
  -1450509.47546  -1075188.20345  25153825.2574   25153827.7394   25153825.1204
      3563.1714
 -13692893.45948 -10650205.55547  22156782.2934   22156783.1974   22156785.7784
      2812.1894
  -4715378.60047  -3659287.22746  24392767.1164   24392767.6204   24392770.1804
      3385.9044
 -28860018.45649 -22396264.85248  19807296.9334   19807296.7734   19807299.1334
       475.0254
 -23656379.43749 -18393420.63148  20855859.0004   20855858.6904   20855861.6104
       153.3044
 -16437707.45148 -12795469.52847  22106661.3124   22106662.0794   22106663.5854
     -2990.6774
 -14143591.07048 -10984318.54747  22464481.0894   22464480.9264   22464482.7944
     -1153.0604
 10  1  3  1 51 30.0000000  0 11G12G18G22G30G14G26G01G09G27G15G17
 -21632946.25849 -16838420.06748  21312139.6334   21312139.7414   21312141.1504
      2042.6954
 -10047868.79247  -7596484.91946  23458649.9114   23458649.8704   23458651.3684
     -1785.9294
  -7668652.30948  -5816332.56046  23926112.3974   23926110.4804   23926111.7414
      -175.7914
  -8178597.41347  -6365954.91646  23891082.6374   23891081.4754   23891084.6894
      3449.0704
  -1557352.24746  -1158442.33745  25133493.9964   25133492.7874   25133493.8634
      3559.4624
 -13777051.54548 -10715783.28547  22140768.1514   22140767.6564   22140770.7174
      2798.4774
  -4816878.31847  -3738377.91146  24373452.3174   24373451.8354   24373454.0124
      3381.0754
 -28874051.93349 -22407200.03048  19804626.4714   19804626.3244   19804628.5864
       460.8104
 -23660854.23849 -18396907.49348  20855007.4974   20855007.3324   20855010.2344
       145.3174
 -16347813.20148 -12725422.05947  22123767.8734   22123768.3664   22123769.6524
     -3002.0094
 -14108724.16948 -10957149.51647  22471116.1644   22471116.4834   22471118.1844
     -1171.4124
 10  1  3  1 52  0.0000000  0 11G12G18G22G30G14G26G01G09G27G15G17
 -21694036.71749 -16886023.00548  21300514.6154   21300514.8284   21300516.2224
      2030.1534
  -9994099.84347  -7554587.05546  23468882.9454   23468882.1724   23468883.1844
     -1798.5084
  -7663108.47147  -5812012.69446  23927165.9564   23927165.4144   23927165.3464
      -193.3834
  -8281999.75147  -6446528.18246  23871405.0874   23871406.1394   23871408.7774
      3444.6014
  -1664103.22046  -1241624.89945  25113179.1554   25113179.3294   25113182.7124
      3556.9894
 -13860796.29748 -10781038.92947  22124831.5084   22124831.7174   22124834.9774
      2784.5484
  -4918235.29347  -3817357.37146  24354164.7014   24354164.3484   24354167.4324
      3375.9954
 -28887661.55749 -22417804.93848  19802036.5744   19802036.4994   19802038.7284
       446.5784
 -23665092.39549 -18400209.95848  20854201.1074   20854200.7374   20854203.7434
       137.2994
 -16257585.75548 -12655114.96247  22140937.2554   22140937.8154   22140939.4034
     -3013.0594
 -14073309.61448 -10929553.74847  22477855.1504   22477854.9264   22477856.7254
     -1189.5004
 10  1  3  1 52 30.0000000  0 11G12G18G22G30G14G26G01G09G27G15G17
 -21754750.88149 -16933332.72548  21288961.0784   21288961.4014   21288962.7154
      2017.8674
  -9939945.59147  -7512388.95146  23479187.2054   23479186.2874   23479188.3004
     -1811.2564
  -7657048.49447  -5807290.62346  23928316.5164   23928317.7794   23928318.0884
      -210.5104
  -8385248.83147  -6526981.99246  23851757.8974   23851758.5124   23851760.8584
      3439.2634
  -1770759.37047  -1324733.57345  25092883.7074   25092883.4154   25092880.8284
      3553.8154
 -13944124.26148 -10845969.80247  22108975.2594   22108975.2964   22108978.1774
      2770.9874
  -5019447.49947  -3896224.02246  24334905.0514   24334904.6214   24334907.4464
      3371.6904
 -28900846.00849 -22428078.53348  19799527.6524   19799527.5304   19799530.0534
       432.7064
 -23669092.63249 -18403327.03048  20853439.7744   20853439.3094   20853442.5674
       129.6414
 -16167027.03048 -12584549.71847  22158170.3654   22158170.2654   22158172.5444
     -3023.8064
 -14037347.80248 -10901531.55147  22484698.5774   22484698.6494   22484699.9634
     -1207.5754
 10  1  3  1 53  0.0000000  0 11G12G18G22G30G14G26G01G09G27G15G17
 -21815088.19949 -16980348.80448  21277479.2114   21277479.1624   21277480.9944
      2004.8344
  -9885408.31547  -7469892.38646  23489563.9174   23489565.1044   23489566.6014
     -1824.5754
  -7650472.60347  -5802166.58946  23929568.4654   23929569.8174   23929568.5784
      -227.6044
  -8488343.17147  -6607315.22946  23832139.8924   23832141.1044   23832143.0884
      3433.6924
  -1877318.36146  -1407766.57845  25072605.5894   25072606.9424   25072607.3574
      3550.5004
 -14027032.60648 -10910573.71247  22093198.1364   22093198.3304   22093200.5234
      2756.3914
  -5120513.86547  -3974977.02446  24315672.8444   24315672.3914   24315675.3974
      3366.1944
 -28913604.19649 -22438019.98548  19797099.8294   19797099.7644   19797102.1414
       418.0874
 -23672853.99949 -18406257.97648  20852724.1634   20852724.0714   20852726.9754
       121.2804
 -16076137.98948 -12513727.09447  22175465.5654   22175466.5154   22175467.8304
     -3035.2194
 -14000840.06848 -10873083.95947  22491646.0264   22491645.7674   22491647.7984
     -1226.2314
 10  1  3  1 53 30.0000000  0 11G12G18G22G30G14G26G01G09G27G15G17
 -21875051.76349 -17027073.63448  21266068.4824   21266068.5504   21266070.3424
      1992.2814
  -9830493.83147  -7427101.89146  23500014.5324   23500014.1034   23500015.9784
     -1837.1054
  -7643385.05647  -5796643.84246  23930917.6114   23930918.3064   23930918.3854
      -244.9504
  -8591284.66747  -6687529.38046  23812550.9444   23812551.5564   23812554.4494
      3428.6014
  -1983780.72446  -1490724.26045  25052346.0224   25052346.4734   25052348.9564
      3546.4854
 -14109521.52348 -10974850.78547  22077500.7424   22077500.5214   22077503.8754
      2742.2434
  -5221436.15447  -4053617.75846  24296467.0254   24296467.2714   24296469.8374
      3361.3744
 -28925938.85749 -22447631.41048  19794752.7584   19794752.5984   19794754.9984
       403.8174
 -23676379.10549 -18409004.81648  20852053.2164   20852053.0224   20852055.9344
       113.2074
 -15984924.33648 -12442651.52147  22192823.3194   22192823.8524   22192825.0404
     -3046.3264
 -13963790.79048 -10844214.38147  22498696.1924   22498695.7884   22498697.0244
     -1244.3334
 10  1  3  1 54  0.0000000  0 11G12G18G22G30G14G26G01G09G27G15G17
 -21934638.70449 -17073505.00548  21254729.2804   21254729.6584   21254731.2264
      1979.8084
  -9775202.75047  -7384017.95046  23510537.2104   23510534.3844   23510537.1284
     -1849.3384
  -7635784.70747  -5790721.52246  23932364.6434   23932364.6244   23932365.0074
      -261.9704
  -8694070.33547  -6767622.08946  23792991.4434   23792991.2754   23792994.2104
      3423.4834
  -2090142.70446  -1573603.73645  25032107.4174   25032106.9954   25032112.5554
      3543.4064
 -14191586.43648 -11038797.46547  22061884.6454   22061883.8224   22061887.2354
      2728.4714
  -5322211.62147  -4132144.06946  24277290.5014   24277290.0374   24277293.7224
      3356.9244
 -28937847.09449 -22456910.55648  19792486.4764   19792486.3234   19792488.8034
       389.6794
 -23679665.50949 -18411565.65648  20851427.9484   20851427.7604   20851430.4924
       105.4154
 -15893386.16948 -12371323.08347  22210242.1764   22210242.7764   22210244.4234
     -3056.8434
 -13926199.04848 -10814922.10247  22505849.4634   22505849.6164   22505851.2224
     -1262.3274
 10  1  3  1 54 30.0000000  0 11G12G18G22G30G14G26G01G09G27G15G17
 -21993847.94949 -17119642.07948  21243462.3904   21243462.7714   21243464.0474
      1967.1324
  -9719537.22747  -7340642.23046  23521130.3544   23521128.8964   23521130.7344
     -1862.0184
  -7627671.72947  -5784399.75546  23933909.9244   23933908.6464   23933908.7184
      -278.9554
  -8796698.25147  -6847591.89946  23773463.5844   23773463.3284   23773464.9634
      3418.0034
  -2196401.09747  -1656402.47845  25011886.2124   25011887.9124   25011887.0494
      3539.7084
 -14273223.76648 -11102410.97247  22046349.1614   22046349.3354   22046351.8704
      2714.1464
  -5422838.45447  -4210554.56946  24258140.1604   24258141.1694   24258145.2564
      3351.4624
 -28949327.93249 -22465856.66848  19790301.8884   19790301.5474   19790304.2424
       375.4534
 -23682711.63549 -18413939.26648  20850848.2274   20850848.1584   20850851.1784
        97.3724
 -15801525.61848 -12299743.44247  22227722.9994   22227723.3574   22227725.2724
     -3067.4634
 -13888065.82648 -10785207.90247  22513105.7124   22513106.3344   22513108.1154
     -1280.3724
 10  1  3  1 55  0.0000000  0 11G12G18G22G30G14G26G01G09G27G15G17
 -22052678.80949 -17165484.30348  21232267.1984   21232267.2314   21232268.7304
      1954.6484
  -9663499.22547  -7296976.25846  23531793.4874   23531792.1184   23531795.2474
     -1874.2944
  -7619046.61647  -5777678.88746  23935551.8414   23935550.0254   23935551.2034
      -295.9214
  -8899166.87147  -6927437.56146  23753962.5704   23753962.5784   23753966.5754
      3412.9404
  -2302552.93646  -1739118.23245  24991685.1744   24991684.9484   24991684.8554
      3536.7014
 -14354430.32948 -11165688.80747  22030896.4174   22030895.6714   22030899.1174
      2699.6074
  -5523314.96247  -4288847.91846  24239021.3154   24239022.0914   24239024.4254
      3347.1184
 -28960380.02549 -22474468.69348  19788198.6684   19788198.4264   19788200.9184
       361.1534
 -23685516.23449 -18416124.67448  20850314.5954   20850314.4464   20850317.2864
        89.4514
 -15709343.99448 -12227913.60747  22245264.4114   22245265.0534   22245266.0664
     -3078.0734
 -13849392.14748 -10755072.56447  22520465.1954   22520465.3194   22520467.2104
     -1298.2544
 10  1  3  1 55 30.0000000  0 11G12G18G22G30G14G26G01G09G27G15G17
 -22111131.73449 -17211032.02948  21221143.9664   21221144.0194   21221145.5064
      1942.0894
  -9607093.09047  -7253023.44946  23542527.5704   23542524.9354   23542527.9214
     -1886.5784
  -7609911.49047  -5770560.63746  23937287.0024   23937288.4684   23937288.2884
      -312.6564
  -9001476.50247  -7007159.35046  23734494.2164   23734495.1174   23734497.0794
      3407.7044
  -2408597.35246  -1821750.27745  24971505.7034   24971505.9354   24971504.4144
      3532.9034
 -14435204.74048 -11228629.89547  22015525.2134   22015524.5934   22015527.3904
      2685.2684
  -5623641.33047  -4367024.31646  24219929.1704   24219931.1924   24219932.7154
      3341.7304
 -28971003.69449 -22482746.87948  19786177.0654   19786176.9264   19786179.3444
       346.9414
 -23688080.07349 -18418122.47648  20849826.6504   20849826.5294   20849829.3504
        81.4434
 -15616844.84848 -12155836.35847  22262866.5544   22262866.6964   22262868.7494
     -3088.4974
 -13810180.03448 -10724517.67247  22527927.1054   22527927.5434   22527928.7434
     -1316.0984
 10  1  3  1 56  0.0000000  0 11G12G18G22G30G14G26G01G09G27G15G17
 -22169205.75549 -17256284.50148  21210092.9414   21210092.9164   21210094.1724
      1929.2924
  -9550320.36147  -7208784.98246  23553331.7324   23553330.7664   23553331.8594
     -1898.3534
  -7600266.70947  -5763045.25546  23939121.0244   23939122.5704   23939123.3424
      -330.3574
  -9103625.18847  -7086755.73246  23715055.9894   23715056.9074   23715058.7724
      3402.2314
  -2514531.12147  -1904296.05445  24951346.6944   24951344.9634   24951348.7104
      3528.9314
 -14515543.54248 -11291231.55747  22000237.6304   22000237.9314   22000239.8424
      2670.5504
  -5723815.89147  -4445082.39746  24200867.2464   24200867.6804   24200869.5684
      3336.1174
 -28981197.54649 -22490690.14248  19784237.1434   19784236.9584   19784239.4344
       332.3844
 -23690401.85149 -18419931.65848  20849385.0064   20849384.8894   20849387.4824
        73.1784
 -15524029.77748 -12083512.93547  22280528.6424   22280528.7694   22280531.1404
     -3099.4114
 -13770430.50848 -10693544.01147  22535491.2014   22535492.0674   22535492.6864
     -1334.1524
 10  1  3  1 56 30.0000000  0 11G12G18G22G30G14G26G01G09G27G15G17
 -22226899.82849 -17301240.91148  21199114.1754   21199114.3574   21199115.9914
      1916.7194
  -9493183.05147  -7164262.40546  23564202.5934   23564202.0694   23564202.9604
     -1910.9244
  -7590112.44647  -5755132.86546  23941054.0344   23941055.2724   23941056.0614
      -346.9434
  -9205610.94047  -7166225.12446  23695648.4794   23695648.6634   23695651.0814
      3397.0214
  -2620351.51046  -1986753.51245  24931211.4784   24931212.0494   24931212.2974
      3524.8694
 -14595443.31548 -11353491.12147  21985033.3514   21985033.7574   21985035.1474
      2655.7604
  -5823836.90947  -4523020.83746  24181833.8624   24181834.7674   24181837.0804
      3331.1764
 -28990960.67149 -22498297.77548  19782379.2924   19782379.2684   19782381.7704
       318.1734
 -23692480.10849 -18421551.07948  20848989.4204   20848989.1284   20848991.8404
        65.1944
 -15430900.34348 -12010944.55247  22298250.7204   22298250.4694   22298252.9394
     -3109.7404
 -13730144.36448 -10662152.20347  22543157.3274   22543157.7544   22543159.5524
     -1351.7304
 10  1  3  1 57  0.0000000  0 11G12G18G22G30G14G26G01G09G27G15G17
 -22284214.48449 -17345901.67848  21188207.3224   21188207.4774   21188208.9034
      1904.4714
  -9435684.70747  -7119458.53046  23575145.0644   23575145.7844   23575147.3924
     -1922.3544
  -7579450.56947  -5746824.90446  23943086.0514   23943083.0004   23943084.6964
      -363.7654
  -9307433.49447  -7245567.35646  23676272.7244   23676273.3034   23676274.9674
      3391.5044
  -2726056.84746  -2069121.31945  24911095.6844   24911094.9054   24911097.3874
      3521.7204
 -14674902.12748 -11415407.07047  21969912.5434   21969912.0924   21969915.3884
      2641.6594
  -5923703.92747  -4600839.29446  24162830.2304   24162830.4454   24162832.8774
      3326.3284
 -29000292.77349 -22505569.54748  19780603.5144   19780603.3784   19780605.8734
       304.1564
 -23694315.10849 -18422980.95348  20848640.2254   20848640.0404   20848642.8514
        57.4224
 -15337459.48248 -11938133.49847  22316031.6894   22316032.2804   22316034.3164
     -3119.4794
 -13689323.92948 -10630344.06447  22550925.4584   22550925.5944   22550927.4244
     -1369.2574
 10  1  3  1 57 30.0000000  0 11G12G18G22G30G14G26G01G09G27G15G17
 -22341149.07949 -17390266.27648  21177373.2114   21177373.3954   21177374.5904
      1891.8394
  -9377827.86947  -7074375.27646  23586154.6534   23586152.8814   23586155.2754
     -1934.0944
  -7568281.73547  -5738121.92546  23945211.6624   23945210.3344   23945209.3264
      -380.0814
  -9409091.41947  -7324781.32046  23656927.8124   23656927.8884   23656930.2714
      3386.1654
  -2831644.35146  -2151397.30545  24891002.6994   24891002.1854   24891004.4494
      3517.8444
 -14753917.06648 -11476977.15547  21954876.6364   21954876.4974   21954878.3224
      2626.7624
  -6023415.75647  -4678536.83046  24143855.3524   24143856.0374   24143859.0994
      3321.3614
 -29009193.13749 -22512504.89648  19778909.7764   19778909.5604   19778912.2134
       289.8204
 -23695905.94049 -18424220.56448  20848337.5214   20848337.1034   20848339.9874
        49.3194
 -15243709.27548 -11865081.39447  22333871.9064   22333872.1434   22333874.0164
     -3129.6634
 -13647970.30048 -10598120.45147  22558794.4584   22558795.0974   22558796.2134
     -1387.1084
 10  1  3  1 58  0.0000000  0 11G12G18G22G30G14G26G01G09G27G15G17
 -22397704.93949 -17434335.76548  21166610.8694   21166611.2114   21166612.4404
      1878.3764
  -9319616.88647  -7029016.09046  23597232.2864   23597232.1164   23597233.5004
     -1946.4594
  -7556608.60347  -5729026.00946  23947432.5974   23947431.0924   23947430.7064
      -397.7484
  -9510585.08947  -7403867.27146  23637614.2754   23637615.2144   23637617.3764
      3379.8134
  -2937113.07946  -2233580.75045  24870935.0734   24870934.8074   24870935.6174
      3512.7134
 -14832486.88948 -11538200.39947  21939925.1534   21939925.1814   21939927.9064
      2611.0414
  -6122973.01647  -4756113.89846  24124910.2934   24124911.3644   24124913.1424
      3315.3134
 -29017662.73949 -22519104.58648  19777298.0924   19777297.8604   19777300.4324
       274.7304
 -23697253.28249 -18425270.44248  20848081.0774   20848081.0794   20848083.5244
        40.4004
 -15149653.41048 -11791791.11747  22351770.0674   22351770.4944   22351772.7684
     -3140.7874
 -13606086.39248 -10565483.63147  22566764.6764   22566764.6644   22566767.2524
     -1405.3014
 10  1  3  1 58 30.0000000  0 11G12G18G22G30G14G26G01G09G27G15G17
 -22453876.28149 -17478105.62848  21155921.8884   21155922.1264   21155923.2434
      1866.1414
  -9261049.66247  -6983379.29446  23608376.8794   23608375.5494   23608378.9954
     -1958.0464
  -7544427.76447  -5719534.48046  23949748.0624   23949749.3204   23949749.0134
      -414.2184
  -9611909.22147  -7482821.13846  23618332.5344   23618333.0044   23618334.9584
      3374.9064
  -3042456.53946  -2315666.58645  24850886.7484   24850888.0284   24850888.7794
      3509.4584
 -14910604.47248 -11599071.23847  21925059.9124   21925059.6434   21925061.3154
      2596.3524
  -6222369.74847  -4833565.89346  24105996.3264   24105996.3964   24105999.1694
      3310.6204
 -29025696.10349 -22525364.35648  19775769.4674   19775769.4404   19775771.6714
       260.7034
 -23698352.06549 -18426126.63848  20847872.1544   20847871.8594   20847874.6684
        32.6254
 -15055289.69648 -11718260.95747  22369726.7014   22369727.2474   22369729.0304
     -3150.3294
 -13563669.22148 -10532431.28247  22574836.4334   22574837.4424   22574837.8014
     -1422.5324
 10  1  3  1 59  0.0000000  0 11G12G18G22G30G14G26G01G09G27G15G17
 -22509672.42049 -17521583.12248  21145304.0814   21145304.3174   21145305.5874
      1852.5764
  -9202138.02947  -6937474.13946  23619587.8434   23619586.7284   23619588.4114
     -1971.0524
  -7531749.35847  -5709655.18346  23952160.9844   23952160.5304   23952161.6874
      -431.7084
  -9713071.31547  -7561648.73346  23599082.3694   23599082.4474   23599086.4164
      3368.3114
  -3147681.11546  -2397659.75445  24830864.7114   24830862.6374   24830867.4974
      3504.9464
 -14988276.06748 -11659594.56947  21910279.6524   21910279.4804   21910281.9534
      2580.5654
  -6321614.11347  -4910899.16846  24087110.9024   24087110.5254   24087112.8374
      3304.6544
 -29033301.64449 -22531290.75948  19774322.1454   19774321.8994   19774324.3604
       245.4974
 -23699210.53549 -18426795.58248  20847708.6944   20847708.6524   20847711.3964
        23.7654
 -14960629.81548 -11644500.01947  22387740.0074   22387740.0234   22387742.2484
     -3161.0794
 -13520729.07448 -10498971.42947  22583007.7794   22583008.3404   22583009.7634
     -1440.8304
 10  1  3  1 59 30.0000000  0 11G12G18G22G30G14G26G01G09G27G15G17
 -22565081.24749 -17564758.81548  21134760.1184   21134760.5144   21134761.7164
      1840.4684
  -9142872.89047  -6891293.54046  23630863.9694   23630864.2924   23630865.3964
     -1981.1084
  -7518562.35947  -5699379.61846  23954668.7524   23954670.9354   23954671.6014
      -448.3214
  -9814058.67647  -7640340.16246  23579864.8534   23579865.2874   23579867.5904
      3363.4504
  -3252772.68346  -2479549.26846  24810865.0004   24810864.3044   24810866.3294
      3501.1374
 -15065487.05648 -11719758.97047  21895586.5114   21895586.7584   21895589.9524
      2566.2284
  -6420693.26247  -4988103.68546  24068255.6394   24068256.6464   24068258.8194
      3299.9214
 -29040466.94549 -22536874.11448  19772958.5914   19772958.5884   19772961.0234
       231.5324
 -23699816.34349 -18427267.64148  20847593.4524   20847593.0054   20847596.2664
        16.0624
 -14865663.47248 -11570500.27447  22405811.5034   22405811.3764   22405813.8504
     -3170.5644
 -13477255.79648 -10465096.14347  22591280.3254   22591280.1304   22591281.8714
     -1457.9234
                            4  1
RINEX FILE SPLICE; other post-header comments skipped       COMMENT
 10  1  3  2  0  0.0000000  0 11G12G18G22G30G14G26G01G09G27G15G17
 -22620108.01149 -17607636.79348  21124288.7784   21124289.0904   21124290.4354
      1828.3134
  -9083262.63447  -6844843.98546  23642208.7754   23642207.1684   23642207.9634
     -1991.8354
  -7504873.63147  -5688713.10946  23957275.8594   23957275.8234   23957276.1294
      -464.1784
  -9914875.61847  -7718898.81646  23560680.0164   23560681.0284   23560683.1974
      3358.1894
  -3357734.29046  -2561337.52446  24790891.5724   24790892.1004   24790895.1444
      3497.4244
 -15142240.22348 -11779566.63747  21880981.5304   21880981.8584   21880983.9844
      2551.2724
  -6519611.60147  -5065182.91046  24049432.7584   24049432.9564   24049435.0964
      3294.9634
 -29047196.76349 -22542118.12848  19771677.8644   19771677.9174   19771680.3994
       217.4804
 -23700174.34549 -18427546.60548  20847525.2324   20847525.0054   20847527.9654
         8.2784
 -14770398.77748 -11496268.04947  22423939.6764   22423940.0694   22423942.3014
     -3180.0564
 -13433256.34848 -10430810.85547  22599653.1784   22599653.1844   22599654.8024
     -1474.9634
 10  1  3  2  0 30.0000000  0 11G12G18G22G30G14G26G01G09G27G15G17
 -22674753.98249 -17650218.05748  21113890.2014   21113890.3514   21113891.6704
      1815.3964
  -9023312.04547  -6798129.24546  23653616.4604   23653616.7174   23653617.3224
     -2003.6674
  -7490686.14447  -5677657.93346  23959973.3734   23959976.9984   23959976.9104
      -480.4824
 -10015523.07347  -7797325.39746  23541527.1904   23541528.2224   23541531.1564
      3352.1054
  -3462565.46347  -2643024.14946  24770943.3274   24770943.3804   24770946.2184
      3492.3534
 -15218534.99848 -11839017.12147  21866462.7644   21866463.3994   21866465.1974
      2535.6564
  -6618370.24547  -5142137.71346  24030639.9834   24030639.5194   24030642.5904
      3289.5744
 -29053492.19349 -22547023.66348  19770480.1364   19770479.9564   19770482.5334
       202.8924
 -23700285.69749 -18427633.37748  20847503.9574   20847503.8474   20847506.5654
         -.0834
 -14674840.08548 -11421806.73947  22442124.0734   22442124.9554   22442126.3144
     -3189.6964
 -13388734.53248 -10396118.52047  22608125.5884   22608125.8264   22608127.2404
     -1492.5944
 10  1  3  2  1  0.0000000  0 11G12G18G22G30G14G26G01G09G27G15G17
 -22729016.40349 -17692500.44648  21103564.1474   21103564.5024   21103565.8214
      1802.0974
  -8963021.22047  -6751149.39646  23665089.3404   23665088.2084   23665092.0074
     -2015.7274
  -7475998.47647  -5666213.01146  23962772.3634   23962773.1714   23962771.7374
      -498.1064
 -10115997.60247  -7875617.21546  23522407.4474   23522408.6034   23522411.2474
      3346.2464
  -3567261.34047  -2724605.34146  24751019.6304   24751021.0934   24751020.0504
      3487.3314
 -15294366.17948 -11898106.35747  21852032.7684   21852032.5444   21852034.6844
      2519.8074
  -6716965.23247  -5218964.98346  24011877.1144   24011877.7864   24011879.7334
      3283.3954
 -29059350.47849 -22551588.55848  19769365.1284   19769365.0524   19769367.6924
       187.7944
 -23700147.16849 -18427525.43648  20847530.4314   20847530.1724   20847533.1004
        -9.0614
 -14578986.93448 -11347115.97947  22460364.1034   22460364.6284   22460366.4734
     -3200.1264
 -13343689.27548 -10361018.31247  22616697.3544   22616697.5984   22616699.2994
     -1510.5504
 10  1  3  2  1 30.0000000  0 11G12G18G22G30G14G26G01G09G27G15G17
 -22782895.96649 -17734484.50848  21093311.4714   21093311.5674   21093312.9054
      1789.4244
  -8902393.56147  -6703907.09646  23676626.0584   23676626.4754   23676625.8424
     -2026.6194
  -7460812.90447  -5654380.11146  23965660.7724   23965659.7434   23965658.9554
      -514.5534
 -10216298.69647  -7953773.90946  23503320.7084   23503321.0764   23503323.3014
      3340.1264
  -3671820.21347  -2806079.77146  24731123.6414   24731123.0954   24731124.8744
      3483.6144
 -15369731.85648 -11956832.84947  21837690.8974   21837690.6544   21837693.3664
      2504.4664
  -6815396.64347  -5295664.77446  23993146.6054   23993146.7764   23993149.1064
      3278.1134
 -29064771.76849 -22555812.94148  19768333.6624   19768333.5054   19768336.1124
       173.3454
 -23699759.17449 -18427223.10848  20847604.2614   20847603.9734   20847606.9004
       -17.1874
 -14482842.63648 -11272198.34647  22478659.6244   22478660.1624   22478662.2374
     -3209.6724
 -13298122.89448 -10325512.02947  22625368.3764   22625368.3604   22625370.3804
     -1527.6714
 10  1  3  2  2  0.0000000  0 11G12G18G22G30G14G26G01G09G27G15G17
 -22836389.76849 -17776167.97848  21083131.8104   21083131.8854   21083133.3894
      1776.2734
  -8841429.28247  -6656402.45846  23688227.6754   23688227.8944   23688228.2254
     -2038.2824
  -7445127.69647  -5642157.90546  23968644.5044   23968644.9624   23968646.1474
      -531.5594
 -10316422.55547  -8031792.51946  23484267.4724   23484268.3434   23484270.2894
      3334.1994
  -3776237.34047  -2887443.74946  24711253.7144   24711253.2504   24711254.5654
      3477.5664
 -15444626.82648 -12015192.56547  21823438.9384   21823439.2024   21823441.2914
      2488.1874
  -6913660.53947  -5372234.05046  23974447.6724   23974447.6714   23974449.2474
      3272.2934
 -29069753.09249 -22559694.49048  19767385.5104   19767385.2894   19767388.1564
       158.3324
 -23699118.35949 -18426723.77148  20847726.1134   20847725.9664   20847728.6394
       -26.0124
 -14386407.02848 -11197053.72047  22497010.7334   22497010.6644   22497013.0794
     -3219.7474
 -13252034.62848 -10289599.08447  22634138.5894   22634138.5384   22634140.1384
     -1545.3584
 10  1  3  2  2 30.0000000  0 11G12G18G22G30G14G26G01G09G27G15G17
 -22889500.55149 -17817552.99148  21073025.1124   21073025.2334   21073026.6414
      1764.1444
  -8780134.57747  -6608640.36346  23699891.6384   23699891.6514   23699893.9664
     -2048.2674
  -7428947.36347  -5629549.87046  23971723.9914   23971724.8844   23971724.3644
      -547.4614
 -10416371.25247  -8109674.62446  23465248.5194   23465249.1014   23465251.1534
      3328.9914
  -3880513.15547  -2968697.61246  24691410.8724   24691410.9944   24691413.0594
      3473.6314
 -15519051.59448 -12073185.88247  21809275.8414   21809276.0344   21809279.2654
      2473.1504
  -7011759.31447  -5448674.66346  23955780.8794   23955780.2294   23955783.4014
      3267.3404
 -29074296.73349 -22563234.99648  19766521.0314   19766520.7124   19766523.2114
       144.3424
 -23698227.08449 -18426029.27748  20847895.7844   20847895.5744   20847898.4974
       -33.6724
 -14289685.39148 -11121686.21747  22515416.3064   22515416.9634   22515418.7154
     -3228.8194
 -13205428.76648 -10253282.82747  22643007.2914   22643007.8534   22643008.9684
     -1562.0594
 10  1  3  2  3  0.0000000  0 11G12G18G22G30G14G26G01G09G27G15G17
 -22942227.43549 -17858638.85748  21062991.4894   21062991.5944   21062993.0934
      1750.9774
  -8718511.81547  -6560622.61146  23711617.8234   23711617.3184   23711620.1694
     -2059.5094
  -7412272.46947  -5616556.47946  23974894.4804   23974898.2004   23974898.5124
      -564.7904
 -10516143.19047  -8187418.97846  23446262.5344   23446263.7064   23446265.1144
      3322.6134
  -3984644.53047  -3049838.89846  24671595.4714   24671594.9024   24671596.2294
      3468.5974
 -15593002.88048 -12130810.25747  21795203.9114   21795204.0104   21795206.0664
      2456.9944
  -7109691.21947  -5524985.24446  23937143.8064   23937143.9564   23937147.9854
      3261.1914
 -29078401.29749 -22566433.36148  19765740.0464   19765739.8484   19765742.2294
       129.3144
 -23697084.01749 -18425138.57748  20848113.3234   20848113.1154   20848115.8624
       -42.4564
 -14192679.48148 -11046097.19647  22533876.0304   22533877.0374   22533878.9314
     -3238.4084
 -13158306.65148 -10216564.29447  22651974.4074   22651974.8994   22651976.0474
     -1579.4884
 10  1  3  2  3 30.0000000  0 11G12G18G22G30G14G26G01G09G27G15G17
 -22994568.53249 -17899424.11348  21053031.3654   21053031.5264   21053033.1004
      1738.2504
  -8656561.86547  -6512349.94346  23723406.4894   23723406.5344   23723407.7414
     -2070.3814
  -7395103.01347  -5603177.70546  23978165.2524   23978166.5604   23978167.1784
      -580.3974
 -10615735.89147  -8265023.66246  23427311.2534   23427311.1114   23427314.0494
      3316.6664
  -4088627.72846  -3130864.72546  24651808.0394   24651809.4344   24651809.8754
      3463.7514
 -15666476.34148 -12188062.29947  21781222.1884   21781222.1114   21781224.8934
      2441.2224
  -7207453.80147  -5601163.86046  23918540.3254   23918541.1674   23918543.0584
      3256.1024
 -29082064.99449 -22569288.19148  19765042.7704   19765042.6994   19765045.1274
       114.8734
 -23695687.13749 -18424050.10248  20848379.1374   20848378.9414   20848381.7904
       -50.7794
 -14095389.93548 -10970287.16647  22552390.1484   22552389.6574   22552392.3164
     -3247.7344
 -13110668.53848 -10179443.68547  22661039.3894   22661039.3764   22661041.2594
     -1596.5684
 10  1  3  2  4  0.0000000  0 11G12G18G22G30G14G26G01G09G27G15G17
 -23046529.01449 -17939912.78048  21043143.6824   21043143.9254   21043145.2084
      1724.5894
  -8594292.49647  -6463828.34746  23735255.2224   23735255.2104   23735258.0014
     -2082.1654
  -7377444.93547  -5589418.20046  23981523.8104   23981526.6854   23981526.9924
      -597.4174
 -10715152.92647  -8342491.46946  23408391.9484   23408391.7664   23408395.5994
      3309.8714
  -4192465.17346  -3211776.97846  24632047.3404   24632046.7184   24632047.5104
      3457.6504
 -15739474.68248 -12244944.11547  21767330.9664   21767331.4754   21767334.4924
      2424.3694
  -7305050.89247  -5677213.54246  23899968.6694   23899969.2154   23899971.5974
      3249.4534
 -29085292.13049 -22571802.84448  19764428.5024   19764428.5034   19764431.0834
        99.1524
 -23694040.51249 -18422767.02048  20848692.5274   20848692.3324   20848695.0224
       -60.1114
 -13997824.21848 -10894261.93647  22570955.9654   22570956.7074   22570958.3114
     -3257.6474
 -13062520.90348 -10141926.03747  22670201.8804   22670201.3514   22670203.5684
     -1614.5374
 10  1  3  2  4 30.0000000  0 11G12G18G22G30G14G26G01G09G27G15G17
 -23098096.57249 -17980095.27748  21033330.8454   21033330.8384   21033332.0564
      1713.0414
  -8531695.28747  -6415051.30446  23747166.7744   23747167.7554   23747171.2214
     -2091.4484
  -7359288.24647  -5575270.14446  23984983.7264   23984977.3864   23984979.6054
      -612.9354
 -10814381.99747  -8419812.82046  23389509.7964   23389509.7374   23389512.2564
      3305.0344
  -4296143.13147  -3292564.97746  24612318.4064   24612317.3344   24612320.6374
      3454.2674
 -15811983.73548 -12301444.67447  21753532.9144   21753532.7334   21753535.2264
      2409.4204
  -7402470.27047  -5753124.72046  23881430.0694   23881429.7564   23881433.1964
      3244.9164
 -29088070.78449 -22573968.03248  19763899.9874   19763899.6684   19763902.4234
        85.7874
 -23692132.05549 -18421279.91448  20849055.6854   20849055.3894   20849058.5104
       -67.3604
 -13899973.20648 -10818014.40947  22589576.0204   22589577.1414   22589578.0224
     -3265.7494
 -13013853.79048 -10104003.60847  22679462.8924   22679462.7884   22679465.1424
     -1630.2644
 10  1  3  2  5  0.0000000  0 11G12G18G22G30G14G26G01G09G27G15G17
 -23149287.21149 -18019984.06948  21023589.5134   21023589.7994   21023590.9044
      1699.9594
  -8468789.04747  -6366033.48146  23759139.6374   23759139.4444   23759141.7994
     -2102.1674
  -7340649.87747  -5560746.79846  23988524.9024   23988530.1504   23988529.9144
      -629.2804
 -10913437.95948  -8496999.26946  23370659.7674   23370661.5884   23370661.8874
      3298.5964
  -4399675.11247  -3373239.22846  24592617.7304   24592616.8084   24592618.2624
      3448.2774
 -15884016.63048 -12357574.20247  21739825.7014   21739825.7654   21739827.7674
      2392.7784
  -7499726.44247  -5828908.75646  23862922.5614   23862922.8284   23862925.6234
      3239.1784
 -29090415.86949 -22575795.37448  19763453.8694   19763453.7334   19763456.2514
        70.7354
 -23689977.15849 -18419600.77848  20849465.6474   20849465.6674   20849468.2804
       -76.0794
 -13801855.28548 -10741558.88847  22608247.4474   22608247.8804   22608249.5364
     -3275.2244
 -12964685.27248 -10065690.47447  22688819.5104   22688819.6534   22688821.9284
     -1647.3694
 10  1  3  2  5 30.0000000  0 11G12G18G22G30G14G26G01G09G27G15G17
 -23200084.78749 -18059566.58848  21013922.8294   21013922.9704   21013924.6234
      1686.5724
  -8405560.64247  -6316764.57946  23771170.2064   23771168.9224   23771172.8164
     -2113.2514
  -7321515.68947  -5545837.04646  23992165.4834   23992166.6134   23992168.2934
      -646.1454
 -11012303.60847  -8574037.43146  23351846.1444   23351846.6284   23351849.1294
      3292.2134
  -4503042.60846  -3453785.31546  24572947.1834   24572946.9004   24572948.9044
      3442.7394
 -15955555.06448 -12413318.42947  21726212.4854   21726213.2154   21726214.3264
      2376.2884
  -7596802.78347  -5904552.64446  23844449.8994   23844450.7974   23844452.4204
      3232.6914
 -29092310.93249 -22577272.05148  19763093.0684   19763092.9674   19763095.5684
        55.6204
 -23687559.20449 -18417716.66048  20849925.9444   20849925.6684   20849928.6614
       -85.1084
 -13703456.82148 -10664884.76247  22626972.1414   22626972.4374   22626974.5044
     -3284.7344
 -12915000.84248 -10026975.33047  22698273.9654   22698274.3594   22698275.9174
     -1664.8614
 10  1  3  2  6  0.0000000  0 11G12G18G22G30G14G26G01G09G27G15G17
 -23250500.70849 -18098851.70748  21004328.7994   21004329.1734   21004330.4964
      1674.2384
  -8342024.48247  -6267255.89746  23783260.7504   23783261.9634   23783263.7584
     -2123.0144
  -7301898.58847  -5530551.02146  23995901.7754   23995902.2444   23995901.6694
      -661.6804
 -11110989.88148  -8650935.82146  23333066.6094   23333067.4054   23333070.4324
      3286.4874
  -4606254.93447  -3534210.49046  24553305.8744   24553303.5464   24553307.8054
      3437.9524
 -16026608.33848 -12468684.60547  21712691.3244   21712690.8984   21712693.8304
      2360.2164
  -7693710.07747  -5980064.80846  23826008.8004   23826009.9654   23826011.1674
      3227.4264
 -29093767.47349 -22578407.02048  19762815.9264   19762815.9854   19762818.0824
        41.2774
 -23684889.25449 -18415636.18848  20850433.9814   20850433.7064   20850436.7634
       -93.1604
 -13604791.91248 -10588003.02147  22645747.4844   22645747.9784   22645749.5244
     -3293.2754
 -12864813.99948  -9987868.69647  22707824.0894   22707823.6764   22707826.3214
     -1681.2354
 10  1  3  2  6 30.0000000  0 11G12G18G22G30G14G26G01G09G27G15G17
 -23300528.89249 -18137834.69248  20994809.1694   20994809.4794   20994810.4044
      1661.0204
  -8278177.57647  -6217505.06946  23795410.0604   23795410.1524   23795412.8064
     -2133.2454
  -7281793.81347  -5514884.97346  23999724.6054   23999726.2704   23999728.2744
      -678.4694
 -11209489.67547  -8727688.88946  23314322.6004   23314323.9614   23314326.1894
      3280.4754
  -4709303.44647  -3614508.02746  24533697.0574   24533694.5884   24533696.1384
      3432.1544
 -16097167.41948 -12523665.70047  21699264.2684   21699264.5084   21699266.8284
      2343.6364
  -7790441.07247  -6055439.62346  23807602.7384   23807602.2884   23807604.4824
      3221.5424
 -29094778.84649 -22579195.10548  19762623.5164   19762623.1244   19762625.8674
        26.1754
 -23681960.46349 -18413354.01448  20850991.1574   20850991.0694   20850994.0794
      -102.0934
 -13505856.70948 -10510910.66547  22664574.1424   22664574.6324   22664576.6354
     -3302.4854
 -12814120.40648  -9948367.18647  22717470.9834   22717470.7574   22717472.3504
     -1698.2714
 10  1  3  2  7  0.0000000  0 11G12G18G22G30G14G26G01G09G27G15G17
 -23350170.91249 -18176516.77048  20985362.4474   20985362.6244   20985363.9174
      1648.0784
  -8214024.28847  -6167515.49046  23807619.1714   23807619.9324   23807620.8194
     -2143.6434
  -7261204.52248  -5498841.39046  24003648.7064   24003647.0444   24003646.3264
      -694.3084
 -11307803.25647  -8804296.86046  23295614.5844   23295615.2084   23295617.2024
      3273.8894
  -4812186.92547  -3694676.99946  24514118.9694   24514119.8074   24514117.5884
      3426.4734
 -16167231.37848 -12578260.98747  21685931.7094   21685931.4584   21685934.1494
      2326.9224
  -7886996.42147  -6130677.54746  23789228.4594   23789228.1694   23789231.4534
      3215.4594
 -29095345.95649 -22579637.01648  19762515.5344   19762515.5184   19762517.8984
        11.3304
 -23678773.73449 -18410870.85748  20851597.8664   20851597.4384   20851600.4644
      -110.6804
 -13406655.16448 -10433610.76047  22683451.6554   22683451.7304   22683453.8914
     -3311.2774
 -12762923.45648  -9908473.45647  22727213.3544   22727213.1354   22727215.0874
     -1715.0614
 10  1  3  2  7 30.0000000  0 11G12G18G22G30G14G26G01G09G27G15G17
 -23399427.00249 -18214898.12948  20975989.3014   20975989.4744   20975990.7524
      1635.5804
  -8149568.61047  -6117290.31046  23819884.5604   23819884.4164   23819885.6144
     -2153.3164
  -7240132.98547  -5482422.01346  24007654.4014   24007655.8324   24007655.5444
      -710.4224
 -11405931.06947  -8880760.07746  23276941.8214   23276941.9964   23276943.1044
      3267.9844
  -4914904.43647  -3774716.63446  24494571.6874   24494572.2234   24494573.0334
      3421.2994
 -16236799.08948 -12632469.59347  21672693.4734   21672693.0174   21672695.7074
      2310.7334
  -7983376.49447  -6205778.87146  23770886.4484   23770887.9934   23770889.9674
      3209.7624
 -29095469.45049 -22579733.25348  19762491.9864   19762491.8234   19762494.3164
        -3.0444
 -23675329.78749 -18408187.26448  20852253.1694   20852252.9454   20852255.7994
      -118.9544
 -13307191.18848 -10356106.36647  22702378.3834   22702378.5104   22702381.6134
     -3319.7094
 -12711226.29348  -9868189.95047  22737051.2254   22737051.6034   22737052.2044
     -1731.5564
 10  1  3  2  8  0.0000000  0 11G12G18G22G30G14G26G01G09G27G15G17
 -23448295.44149 -18252977.41748  20966689.8834   20966689.9984   20966691.2384
      1622.4064
  -8084811.98747  -6066830.60946  23832207.3684   23832206.5924   23832209.2994
     -2163.3764
  -7218579.18047  -5465626.87046  24011757.5234   24011756.9054   24011755.3534
      -726.1964
 -11503870.05547  -8957076.14746  23258303.8144   23258304.4824   23258308.5654
      3261.1444
  -5017451.47547  -3854623.43646  24475058.5664   24475058.3114   24475056.4384
      3415.0404
 -16305866.15248 -12686288.07847  21659550.2074   21659550.6704   21659553.3224
      2293.7554
  -8079578.22347  -6280741.25746  23752581.1954   23752581.7964   23752583.6294
      3203.6094
 -29095147.06049 -22579482.04048  19762553.5234   19762553.1034   19762555.8604
       -18.3264
 -23671625.95549 -18405301.16648  20852957.9334   20852957.7624   20852960.3994
      -127.8934
 -13207464.94848 -10278397.60747  22721356.2834   22721357.2284   22721358.3774
     -3328.8074
 -12659028.66548  -9827516.47047  22746983.6534   22746983.5274   22746985.4874
     -1748.5184
 10  1  3  2  8 30.0000000  0 11G12G18G22G30G14G26G01G09G27G15G17
 -23496774.80349 -18290753.53348  20957464.4164   20957464.6924   20957466.0394
      1609.6274
  -8019755.48447  -6016137.23946  23844586.8604   23844586.7414   23844589.1714
     -2173.0274
  -7196542.94047  -5448455.78246  24015948.5824   24015951.3244   24015951.4794
      -742.3524
 -11601617.53747  -9033243.01746  23239703.8394   23239704.4924   23239705.8924
      3254.8074
  -5119824.47146  -3934394.62046  24455575.8074   24455572.5774   24455575.3624
      3409.6754
 -16374428.48048 -12739713.27247  21646503.4114   21646503.9374   21646505.6084
      2277.1524
  -8175599.20447  -6355562.79446  23734308.5184   23734309.0994   23734311.5554
      3197.8734
 -29094376.61549 -22578881.69248  19762700.1334   19762699.7954   19762702.4424
       -33.0734
 -23667660.04149 -18402210.84448  20853712.6474   20853712.4074   20853715.2384
      -136.4134
 -13107477.48248 -10200485.30047  22740383.1514   22740383.9064   22740385.0624
     -3337.0634
 -12606331.01148  -9786453.36047  22757011.9154   22757012.3824   22757013.0494
     -1764.7434
 10  1  3  2  9  0.0000000  0 11G12G18G22G30G14G26G01G09G27G15G17
 -23544868.49149 -18328229.11948  20948312.7894   20948312.9044   20948314.1994
      1596.8094
  -7954405.49047  -5965215.17446  23857022.6604   23857020.7364   23857024.6104
     -2183.1994
  -7174029.22647  -5430912.63846  24020234.0074   24020233.3734   24020236.5174
      -758.8474
 -11699176.29347  -9109262.81346  23221138.5264   23221139.1384   23221140.7964
      3248.7974
  -5222024.20047  -4014030.78746  24436128.1654   24436128.9394   24436132.1624
      3403.6914
 -16442486.97148 -12792745.85747  21633552.0424   21633551.9964   21633554.6334
      2260.2894
  -8271442.31147  -6430245.72246  23716069.6214   23716070.6394   23716073.2644
      3191.8574
 -29093161.32949 -22577934.72048  19762931.2254   19762931.1404   19762933.7124
       -47.9244
 -23663434.84549 -18398918.48948  20854516.6114   20854516.2644   20854519.2574
      -145.1544
 -13007234.60648 -10122373.97047  22759458.6664   22759458.4644   22759460.6284
     -3345.7364
 -12553138.65648  -9745004.77247  22767134.3244   22767134.0674   22767135.9504
     -1781.2214
 10  1  3  2  9 30.0000000  0 11G12G18G22G30G14G26G01G09G27G15G17
 -23592574.67249 -18365402.75748  20939234.4694   20939234.6864   20939236.1994
      1583.7584
  -7888763.08647  -5914065.25146  23869514.4724   23869513.2374   23869515.1974
     -2193.0034
  -7151037.66847  -5412997.17046  24024612.4074   24024609.7104   24024609.3294
      -774.3434
 -11796543.39047  -9185133.26046  23202610.2544   23202610.6944   23202612.8354
      3242.3814
  -5324046.20247  -4093528.46946  24416715.8894   24416716.1924   24416716.9344
      3397.8184
 -16510037.54048 -12845382.66747  21620697.8204   21620698.6194   21620700.3854
      2243.1004
  -8367104.40647  -6504787.59646  23697866.5234   23697867.0814   23697869.0204
      3185.7894
 -29091499.01549 -22576639.41348  19763247.6204   19763247.4664   19763250.1754
       -62.8914
 -23658948.15449 -18395422.36648  20855370.4854   20855370.1814   20855373.2284
      -153.8594
 -12906736.90248 -10044064.07247  22778582.9584   22778583.3884   22778585.6274
     -3354.0534
 -12499452.04748  -9703171.04747  22777350.2374   22777350.9814   22777352.3414
     -1797.6984
 10  1  3  2 10  0.0000000  0 11G12G18G22G30G14G26G01G09G27G15G17
 -23639892.22849 -18402273.57348  20930230.2154   20930230.5144   20930231.8544
      1570.6644
  -7822829.91847  -5862688.75546  23882060.6224   23882060.5344   23882062.2864
     -2202.8444
  -7127568.63147  -5394709.59546  24029076.2304   24029073.2324   24029074.5404
      -789.8924
 -11893716.28747  -9260852.38546  23184119.0974   23184119.4644   23184121.7614
      3236.0114
  -5425886.88146  -4172884.85346  24397335.1034   24397333.1974   24397336.7394
      3391.8884
 -16577076.16448 -12897620.54847  21607941.0694   21607941.6034   21607943.3674
      2226.0964
  -8462583.41647  -6579186.81447  23679697.0464   23679696.9814   23679699.4704
      3179.5404
 -29089387.54949 -22574994.11648  19763649.4894   19763649.1564   19763651.9604
       -77.9034
 -23654197.66749 -18391720.69248  20856274.4344   20856274.4484   20856277.0874
      -162.7584
 -12805985.62048  -9965556.58347  22797755.3084   22797755.7584   22797757.3744
     -3362.4554
 -12445271.44548  -9660952.39447  22787660.6494   22787661.1894   22787662.3754
     -1814.2844
 10  1  3  2 10 30.0000000  0 11G12G18G22G30G14G26G01G09G27G15G17
 -23686824.20749 -18438843.93548  20921299.3594   20921299.6164   20921300.8364
      1558.0254
  -7756613.05447  -5811091.19746  23894662.5184   23894661.2284   23894665.1874
     -2212.0274
  -7103627.76747  -5376054.41446  24033629.8174   24033632.1524   24033630.9194
      -805.8224
 -11990697.87547  -9336422.43446  23165664.4164   23165664.2244   23165666.9254
      3229.7284
  -5527547.61446  -4252101.00546  24377990.2124   24377990.5734   24377991.1634
      3385.8194
 -16643604.73448 -12949460.98847  21595281.0714   21595281.5324   21595283.6524
      2209.3414
  -8557882.37847  -6653445.74047  23661563.1354   23661562.8474   23661564.4824
      3173.6294
 -29086830.68849 -22573001.75848  19764135.9824   19764135.8504   19764138.3584
       -92.5674
 -23649186.87749 -18387816.18848  20857228.0344   20857227.8764   20857230.5824
      -171.4164
 -12704987.26348  -9886856.56747  22816974.3684   22816974.9424   22816976.8744
     -3370.6764
 -12390602.56948  -9618353.26447  22798063.6994   22798063.2094   22798064.9534
     -1830.3384
 10  1  3  2 11  0.0000000  0 11G12G18G22G30G14G26G01G09G27G15G17
 -23733363.90249 -18475108.62748  20912443.1974   20912443.4414   20912444.6744
      1544.4574
  -7690108.37447  -5759269.36346  23907316.4674   23907315.8544   23907319.8554
     -2222.0934
  -7079209.69247  -5357027.36146  24038275.6994   24038276.7864   24038277.7194
      -822.0784
 -12087480.64547  -9411837.55146  23147246.4564   23147247.5914   23147249.5314
      3222.4454
  -5629019.12646  -4331169.70646  24358678.0774   24358678.9354   24358681.6714
      3378.3674
 -16709613.67748 -13000896.52147  21582719.6264   21582719.6714   21582721.8934
      2191.2314
  -8652993.49947  -6727558.28847  23643463.3974   23643464.2094   23643466.4504
      3166.8684
 -29083821.29249 -22570656.77748  19764708.6474   19764708.6544   19764710.9954
      -108.2134
 -23643908.30349 -18383703.01748  20858232.4254   20858232.0954   20858234.8534
      -180.7634
 -12603737.40248  -9807960.56947  22836241.5764   22836242.4164   22836244.4484
     -3379.3394
 -12335440.71748  -9575370.00247  22808560.4584   22808561.0054   22808562.3604
     -1847.0134
 10  1  3  2 11 30.0000000  0 11G12G18G22G30G14G26G01G09G27G15G17
 -23779518.21349 -18511073.01948  20903660.2204   20903660.3284   20903661.9434
      1532.0104
  -7623325.69047  -5707230.93046  23920025.1474   23920025.6174   23920026.5514
     -2230.5074
  -7054322.48747  -5337634.74346  24043012.0784   24043012.5604   24043013.9034
      -837.2524
 -12184070.10247  -9487102.04746  23128866.0464   23128865.5684   23128868.2034
      3216.2214
  -5730305.40647  -4410094.06546  24339406.6204   24339406.3814   24339406.1994
      3372.6124
 -16775107.16848 -13051930.41547  21570256.9974   21570256.7694   21570259.3634
      2174.5004
  -8747922.42647  -6801528.87347  23625399.4674   23625398.7854   23625401.6524
      3161.1214
 -29080365.29649 -22567963.80048  19765366.3804   19765366.1904   19765368.6764
      -122.6674
 -23638367.85849 -18379385.79248  20859286.7564   20859286.4234   20859289.3614
      -189.1194
 -12502244.98248  -9728875.56647  22855555.2634   22855555.5664   22855557.3304
     -3387.1904
 -12279794.25248  -9532009.11947  22819149.7774   22819149.9164   22819151.4484
     -1862.9214
 10  1  3  2 12  0.0000000  0 11G12G18G22G30G14G26G01G09G27G15G17
 -23825285.39049 -18546735.74448  20894950.9394   20894951.1674   20894952.6064
      1518.7434
  -7556266.38947  -5654976.93946  23932785.8104   23932785.1044   23932787.6324
     -2240.0154
  -7028966.50847  -5317876.88646  24047838.8894   24047838.8444   24047839.5334
      -853.3094
 -12280464.26948  -9562214.37646  23110522.9314   23110523.8744   23110525.2204
      3209.2424
  -5831402.54846  -4488871.06446  24320167.4694   24320166.7204   24320168.4904
      3366.4484
 -16840081.69148 -13102559.90347  21557892.2324   21557892.5224   21557894.8634
      2156.8244
  -8842667.08147  -6875355.86247  23607370.1944   23607370.7334   23607372.8734
      3154.5794
 -29076460.88949 -22564921.40648  19766109.4254   19766109.1514   19766111.8544
      -137.9954
 -23632563.55749 -18374862.96748  20860391.3594   20860391.0794   20860393.9754
      -198.2704
 -12400511.04348  -9649602.36947  22874914.4484   22874915.0194   22874916.9464
     -3395.4164
 -12223663.98948  -9488271.24947  22829831.0234   22829831.2184   22829832.9834
     -1879.4084
 10  1  3  2 12 30.0000000  0 11G12G18G22G30G14G26G01G09G27G15G17
 -23870660.27149 -18582092.78948  20886316.4334   20886316.6994   20886317.8604
      1505.6424
  -7488928.68347  -5602505.98746  23945599.7714   23945598.7294   23945601.2744
     -2249.8004
  -7003138.28447  -5297750.99146  24052754.9314   24052755.4284   24052753.8784
      -868.8634
 -12376656.56147  -9637169.39546  23092218.6854   23092219.1904   23092220.2054
      3203.0264
  -5932302.97146  -4567494.76446  24300966.1374   24300965.8454   24300968.2074
      3359.5754
 -16904529.33648 -13152778.84547  21545628.6244   21545628.8014   21545630.8754
      2139.1874
  -8937221.08647  -6949034.30747  23589376.8404   23589377.5524   23589379.5974
      3148.2894
 -29072102.40049 -22561525.18248  19766938.5274   19766938.6024   19766941.0984
      -153.1414
 -23626489.29249 -18370129.77848  20861547.1584   20861546.8274   20861549.5824
      -207.2964
 -12298532.94848  -9570138.91847  22894320.4284   22894320.8304   22894322.4284
     -3403.4504
 -12167046.46548  -9444153.70047  22840604.4994   22840604.3394   22840606.0474
     -1895.8734
 10  1  3  2 13  0.0000000  0 11G12G18G22G30G14G26G01G09G27G15G17
 -23915649.99849 -18617149.71148  20877755.2524   20877755.1824   20877756.7554
      1492.4614
  -7421322.22547  -5549825.64846  23958465.4464   23958466.0004   23958466.4324
     -2258.4554
  -6976846.18447  -5277263.67546  24057757.5824   24057756.8294   24057757.3254
      -885.1754
 -12472652.89648  -9711971.69846  23073951.3934   23073950.9724   23073954.3984
      3195.9794
  -6033011.20147  -4645968.68046  24281803.7844   24281804.8164   24281806.3814
      3352.9394
 -16968454.86548 -13202590.94047  21533463.5094   21533463.7664   21533466.5924
      2121.6024
  -9031590.68847  -7022569.08147  23571419.5374   23571419.7114   23571421.1174
      3141.7254
 -29067296.47049 -22557780.30748  19767853.1314   19767852.9894   19767855.6364
      -168.3354
 -23620151.75049 -18365191.43348  20862753.1324   20862753.0534   20862755.7384
      -216.3814
 -12196320.05248  -9490492.51347  22913770.9784   22913771.8074   22913773.3494
     -3411.6914
 -12109950.94948  -9399663.68547  22851469.8844   22851469.3964   22851470.4484
     -1911.7994
 10  1  3  2 13 30.0000000  0 11G12G18G22G30G14G26G01G09G27G15G17
 -23960251.75549 -18651904.31748  20869267.8364   20869267.9334   20869269.3994
      1480.0114
  -7353447.01947  -5496935.89446  23971381.2834   23971380.3014   23971381.9224
     -2267.7474
  -6950089.53047  -5256414.35746  24062852.9194   24062846.8984   24062846.9034
      -899.6154
 -12568449.82848  -9786618.64646  23055721.3944   23055722.1864   23055724.0464
      3189.4184
  -6133521.90946  -4724288.70546  24262676.9334   24262677.5174   24262677.2234
      3346.6904
 -17031853.13948 -13251992.19447  21521399.5314   21521399.5444   21521401.9294
      2104.2444
  -9125772.32747  -7095957.34347  23553496.1164   23553496.9764   23553498.8774
      3136.2144
 -29062039.99249 -22553684.35548  19768853.5194   19768853.3494   19768855.6974
      -182.9274
 -23613547.54449 -18360045.30548  20864009.9374   20864009.9534   20864012.4834
      -224.8684
 -12093872.03048  -9410662.89447  22933265.9724   22933266.8074   22933268.6754
     -3419.0244
 -12052376.48248  -9354800.46447  22862425.5424   22862425.6034   22862427.8564
     -1927.3444
 10  1  3  2 14  0.0000000  0 11G12G18G22G30G14G26G01G09G27G15G17
 -24004459.95849 -18686352.25648  20860855.2164   20860855.5314   20860856.7884
      1466.8544
  -7285301.16047  -5443835.23446  23984349.3564   23984348.7974   23984351.1364
     -2276.1434
  -6922864.72047  -5235200.22646  24068027.9524   24068028.0924   24068031.7024
      -915.4304
 -12664040.89548  -9861105.16446  23037530.7424   23037530.9844   23037532.8544
      3182.7214
  -6233827.60547  -4802448.98246  24243588.2464   24243588.2194   24243590.2444
      3339.9614
 -17094716.58348 -13300976.69147  21509437.0964   21509437.4334   21509439.4974
      2086.3574
  -9219759.73048  -7169194.27147  23535612.0594   23535611.8494   23535614.0764
      3129.3224
 -29056327.31649 -22549232.92048  19769940.6584   19769940.3644   19769942.9794
      -198.2504
 -23606670.70249 -18354686.72748  20865318.5124   20865318.5604   20865321.2774
      -233.9424
 -11991186.19148  -9330647.96247  22952806.5584   22952807.2444   22952808.3984
     -3426.9714
 -11994320.23348  -9309561.81047  22873473.4454   22873474.2064   22873475.2324
     -1943.5364
 10  1  3  2 14 30.0000000  0 11G12G18G22G30G14G26G01G09G27G15G17
 -24048282.97649 -18720500.05448  20852516.0934   20852516.2174   20852517.4884
      1454.0004
  -7216896.03347  -5390532.55946  23997365.6254   23997365.4724   23997367.3964
     -2284.6734
  -6895181.56547  -5213628.96746  24073299.0174   24073295.7204   24073294.3374
      -931.2984
 -12759433.49448  -9935437.04346  23019378.3734   23019378.2924   23019381.2964
      3176.0444
  -6333933.64147  -4880453.67446  24224540.5244   24224539.1554   24224541.4994
      3333.3044
 -17157051.19848 -13349549.11547  21497575.4714   21497575.4414   21497577.8724
      2068.6894
  -9313560.35747  -7242285.66647  23517762.1204   23517761.9054   23517765.1934
      3123.2514
 -29050166.68949 -22544432.43148  19771112.9304   19771112.7274   19771115.2484
      -213.2004
 -23599528.95449 -18349121.73248  20866677.4514   20866677.2274   20866680.2724
      -242.8534
 -11888273.27148  -9250456.08347  22972390.3164   22972390.2434   22972391.8124
     -3434.5094
 -11935792.03148  -9263955.40347  22884611.3324   22884610.8664   22884612.6884
     -1959.0994
 10  1  3  2 15  0.0000000  0 11G12G18G22G30G14G26G01G09G27G15G17
 -24091715.56249 -18754343.61748  20844251.0864   20844251.1624   20844252.5694
      1441.2994
  -7148228.90547  -5337025.71046  24010433.7864   24010432.8104   24010434.1594
     -2293.3814
  -6867036.43147  -5191697.70546  24078652.3624   24078652.8924   24078655.4734
      -946.0554
 -12854621.50748 -10009609.51747  23001264.8024   23001264.1124   23001266.7064
      3169.6194
  -6433832.30347  -4958296.76546  24205528.5724   24205529.2834   24205531.6504
      3326.6644
 -17218849.13648 -13397703.35047  21485815.5124   21485816.0424   21485818.0244
      2051.1314
  -9407168.08748  -7315226.73147  23499948.8544   23499948.8274   23499952.4834
      3117.0974
 -29043551.92149 -22539278.07148  19772371.7864   19772371.3834   19772373.8664
      -227.9434
 -23592116.13849 -18343345.51548  20868088.1884   20868088.0314   20868090.6104
      -251.4904
 -11785130.49848  -9170085.09747  22992017.3264   22992018.4184   22992020.1414
     -3441.6464
 -11876788.76048  -9217978.82447  22895839.0074   22895840.1124   22895840.7904
     -1974.5784
 10  1  3  2 15 30.0000000  0 11G12G18G22G30G14G26G01G09G27G15G17
 -24134758.25849 -18787883.37248  20836060.3354   20836060.4034   20836061.8044
      1428.4494
  -7079303.31647  -5283317.45746  24023547.9324   24023548.2394   24023551.5434
     -2301.9104
  -6838431.57047  -5169408.26146  24084098.3134   24084096.9744   24084095.5724
      -960.7204
 -12949604.11048 -10083621.90947  22983189.6024   22983189.0994   22983192.1534
      3162.9754
  -6533521.28447  -5035976.46146  24186559.5284   24186558.4324   24186561.6064
      3319.7724
 -17280108.50348 -13445437.91847  21474158.3734   21474159.0184   21474160.9754
      2033.1874
  -9500582.27947  -7388017.00047  23482172.4964   23482173.2824   23482175.2874
      3110.6064
 -29036483.10449 -22533769.90548  19773716.8784   19773716.7994   19773719.1514
      -242.9874
 -23584431.96649 -18337357.85348  20869550.4894   20869550.5494   20869553.1194
      -260.4404
 -11681760.72948  -9089537.23447  23011688.4534   23011688.3144   23011690.8374
     -3449.2594
 -11817312.63648  -9171633.79447  22907157.0654   22907157.2504   22907159.3174
     -1990.3524
 10  1  3  2 16  0.0000000  0 11G12G18G22G30G14G26G01G09G27G15G17
 -24177413.85449 -18821121.49248  20827943.0944   20827943.4604   20827944.6464
      1415.1314
  -7010125.33247  -5229412.54246  24036713.7594   24036712.4344   24036715.9374
     -2310.7634
  -6809371.69347  -5146764.21446  24089625.4764   24089628.0014   24089627.4904
      -976.3334
 -13044383.19948 -10157475.73047  22965154.2704   22965154.0524   22965155.6554
      3155.6174
  -6633001.12847  -5113493.18646  24167628.4564   24167627.9964   24167630.1434
      3312.2084
 -17340829.89748 -13492753.28647  21462603.1904   21462603.6314   21462606.1714
      2014.7514
  -9593804.77948  -7460657.89547  23464432.6984   23464432.1294   23464435.5014
      3103.9684
 -29028962.84349 -22527909.96948  19775147.9244   19775147.8874   19775150.3754
      -258.4474
 -23576478.83749 -18331160.61448  20871063.7854   20871063.5534   20871066.3534
      -269.8514
 -11578169.16848  -9008816.55247  23031400.9824   23031401.6694   23031403.8004
     -3457.0894
 -11757368.62448  -9124924.17047  22918564.1854   22918564.4374   22918566.4994
     -2006.2554
 10  1  3  2 16 30.0000000  0 11G12G18G22G30G14G26G01G09G27G15G17
 -24219679.04449 -18854055.39548  20819900.2364   20819900.6724   20819901.8664
      1402.0124
  -6940694.65747  -5175310.72546  24049925.8514   24049925.7124   24049927.6894
     -2318.7574
  -6779855.33047  -5123764.45746  24095241.5264   24095242.6544   24095245.1954
      -991.5914
 -13138954.74348 -10231167.82147  22947157.7404   22947158.4684   22947161.0634
      3148.6104
  -6732266.09747  -5190842.49046  24148739.6964   24148739.6404   24148741.4454
      3305.0744
 -17401007.96548 -13539645.28847  21451151.8494   21451151.6794   21451154.2294
      1996.3674
  -9686831.81147  -7533146.48147  23446730.4964   23446729.9964   23446732.7264
      3097.3234
 -29020987.52849 -22521695.43948  19776665.6974   19776665.4264   19776667.9584
      -273.7174
 -23568252.82849 -18324750.73948  20872629.2374   20872628.6994   20872632.1334
      -279.0464
 -11474354.95748  -8927922.36947  23051156.2844   23051156.3814   23051158.4694
     -3464.3064
 -11696955.94348  -9077849.34947  22930060.3714   22930059.3274   22930061.4544
     -2021.7004
 10  1  3  2 17  0.0000000  0 11G12G18G22G30G14G26G01G09G27G15G17
 -24261555.79649 -18886686.62048  20811931.5294   20811932.0344   20811933.1304
      1389.2804
  -6871015.92647  -5121015.63046  24063185.3954   24063184.9364   24063186.4494
     -2327.1114
  -6749886.05347  -5100411.81446  24100944.0034   24100949.4324   24100948.3644
     -1006.6414
 -13233319.47148 -10304698.76947  22929200.4604   22929200.0264   22929204.2854
      3141.8474
  -6831314.75247  -5268023.24946  24129891.2034   24129889.6854   24129891.5724
      3297.8464
 -17460641.90448 -13586113.28447  21439803.6834   21439804.4574   21439806.2524
      1978.5914
  -9779664.06547  -7605483.29247  23429065.0834   23429065.5404   23429067.3364
      3090.9694
 -29012558.34549 -22515127.25148  19778269.7004   19778269.4194   19778271.8384
      -288.6794
 -23559755.11749 -18318129.14348  20874246.4194   20874246.2564   20874249.0614
      -287.9994
 -11370322.68648  -8846858.26847  23070952.8704   23070953.4034   23070955.9804
     -3471.4214
 -11636078.21648  -9030412.15847  22941644.9294   22941644.8924   22941646.3664
     -2037.0554
 10  1  3  2 17 30.0000000  0 11G12G18G22G30G14G26G01G09G27G15G17
 -24303043.66549 -18919014.82448  20804036.6734   20804036.7964   20804037.8484
      1376.2584
  -6801091.75447  -5066529.31246  24076491.7754   24076492.3894   24076491.7604
     -2335.1154
  -6719465.00947  -5076707.13446  24106735.3274   24106736.7644   24106737.5104
     -1021.5684
 -13327476.01848 -10378067.50047  22911283.2664   22911284.3844   22911286.8094
      3134.7824
  -6930144.96547  -5345033.77146  24111084.0364   24111084.0054   24111086.4994
      3290.2864
 -17519729.15448 -13632155.29947  21428560.1414   21428559.7354   21428562.0744
      1960.2484
  -9872300.62948  -7677667.60147  23411436.9864   23411437.9604   23411440.3544
      3084.3374
 -29003674.90849 -22508205.09848  19779960.0034   19779959.9574   19779962.5354
      -303.8494
 -23550984.70849 -18311295.06648  20875915.1994   20875915.1814   20875918.0414
      -297.0384
 -11266074.30348  -8765625.77947  23090790.6894   23090790.5174   23090792.1254
     -3478.8034
 -11574737.27848  -8982614.02547  22953317.3424   22953318.0164   22953319.5064
     -2052.3704
 10  1  3  2 18  0.0000000  0 11G12G18G22G30G14G26G01G09G27G15G17
 -24344139.29649 -18951037.38648  20796216.2514   20796216.6654   20796217.9234
      1363.1424
  -6730921.93347  -5011851.52946  24089845.4894   24089844.8714   24089846.3344
     -2343.6914
  -6688590.92647  -5052649.41746  24112609.9404   24112609.2494   24112610.8904
     -1036.6434
 -13421420.17548 -10451270.73447  22893406.6344   22893406.3764   22893409.1794
      3127.8004
  -7028750.77847  -5421869.43746  24092320.0164   24092318.8884   24092321.9914
      3282.9994
 -17578264.27148 -13677767.07447  21417421.0804   21417420.8634   21417423.0064
      1941.8904
  -9964736.90347  -7749695.85147  23393847.0984   23393846.4934   23393850.3074
      3077.6134
 -28994333.40549 -22500926.01348  19781737.7494   19781737.6104   19781740.0424
      -319.2064
 -23541937.56049 -18304245.34648  20877636.8694   20877636.8684   20877639.4634
      -306.3254
 -11161608.96148  -8684224.22847  23110669.5454   23110670.1994   23110671.9424
     -3485.9134
 -11512931.86148  -8934453.94847  22965078.6054   22965078.9154   22965080.5854
     -2068.0804
 10  1  3  2 18 30.0000000  0 11G12G18G22G30G14G26G01G09G27G15G17
 -24384848.35449 -18982758.72048  20788469.6694   20788469.8904   20788471.1544
      1350.5094
  -6660515.55647  -4956989.41546  24103240.3274   24103239.4474   24103244.0134
     -2350.9924
  -6657271.31447  -5028244.56646  24118571.1924   24118571.4364   24118570.3474
     -1051.2594
 -13515156.58548 -10524312.07547  22875568.9544   22875568.8274   22875571.1274
      3121.0634
  -7127135.23947  -5498532.64546  24073598.8254   24073598.7684   24073600.1654
      3275.4854
 -17636250.68248 -13722951.29047  21406386.6634   21406386.6994   21406389.0394
      1923.8314
 -10056978.03648  -7821572.04147  23376293.6574   23376293.8064   23376296.1194
      3071.4724
 -28984539.18249 -22493294.15148  19783601.5444   19783601.4204   19783603.8414
      -334.0924
 -23532618.78649 -18296983.96548  20879410.3174   20879410.0174   20879413.0694
      -315.1584
 -11056934.91848  -8602660.04547  23130588.7224   23130589.4974   23130590.3524
     -3492.4764
 -11450669.58748  -8885937.87947  22976926.7764   22976926.7754   22976928.5724
     -2082.8474
 10  1  3  2 19  0.0000000  0 11G12G18G22G30G14G26G01G09G27G15G17
 -24425166.68049 -19014175.58748  20780797.2304   20780797.4764   20780798.8314
      1337.2624
  -6589870.63147  -4901941.42046  24116685.6574   24116685.6174   24116687.5664
     -2358.9524
  -6625503.65647  -5003490.53446  24124612.5234   24124615.8854   24124615.1074
     -1066.5814
 -13608679.95948 -10597187.41947  22857771.4914   22857772.7724   22857775.7634
      3113.6934
  -7225290.97547  -5575017.62446  24054919.0884   24054918.6764   24054921.8794
      3267.6424
 -17693681.57948 -13767702.63447  21395458.0974   21395458.3394   21395460.7424
      1904.9144
 -10149018.38747  -7893291.78947  23358779.2504   23358779.2574   23358782.2044
      3064.4004
 -28974287.40549 -22485305.76048  19785552.3954   19785552.3694   19785554.6884
      -349.5144
 -23523023.15349 -18289506.85348  20881236.0444   20881236.0204   20881238.7004
      -324.6224
 -10952050.08048  -8520931.60847  23150547.8524   23150546.9854   23150549.8394
     -3499.8204
 -11387948.40648  -8837064.22147  22988861.9444   22988862.2504   22988863.2484
     -2098.4844
 10  1  3  2 19 30.0000000  0 11G12G18G22G30G14G26G01G09G27G15G17
 -24465096.94749 -19045290.07148  20773198.8234   20773199.0374   20773200.1404
      1323.9074
  -6518993.05146  -4846712.13346  24130172.6264   24130172.2804   24130175.5514
     -2366.0704
  -6593292.34547  -4978390.84746  24130747.0134   24130745.8914   24130747.5494
     -1081.6984
 -13701992.03548 -10669898.12247  22840015.5494   22840015.2444   22840017.8974
      3106.1204
  -7323218.36347  -5651324.64246  24036285.4554   24036284.8844   24036286.5594
      3259.4974
 -17750557.32148 -13812021.38847  21384634.8744   21384634.7464   21384637.5054
      1886.0074
 -10240859.98047  -7964856.65147  23341302.0394   23341301.7614   23341304.7194
      3057.5144
 -28963580.39049 -22476962.63548  19787589.7894   19787589.8354   19787592.1684
      -365.1504
 -23513152.49549 -18281815.43748  20883114.5854   20883114.2854   20883117.0874
      -334.2574
 -10846959.52848  -8439042.86647  23170545.6594   23170545.6614   23170548.3074
     -3507.0014
 -11324772.98048  -8787836.60047  23000884.3704   23000884.7024   23000885.5364
     -2114.1294
 10  1  3  2 20  0.0000000  0 11G12G18G22G30G14G26G01G09G27G15G17
 -24504636.36049 -19076100.00248  20765674.7104   20765674.9334   20765676.1134
      1311.4754
  -6447882.63146  -4791301.42846  24143704.1454   24143704.1764   24143706.9874
     -2374.4774
  -6560636.21947  -4952944.53446  24136960.9164   24136959.1744   24136957.3574
     -1095.8694
 -13795088.87848 -10742441.10447  22822299.4064   22822300.0164   22822301.4164
      3099.5744
  -7420911.99647  -5727449.53446  24017694.1114   24017693.3604   24017696.1124
      3252.1074
 -17806872.98348 -13855903.72247  21373918.1654   21373918.4174   21373920.8064
      1867.9674
 -10332498.91748  -8036263.60447  23323864.1914   23323864.0924   23323866.0784
      3051.1034
 -28952415.11749 -22468262.42948  19789714.4784   19789714.5294   19789716.9094
      -379.7564
 -23503003.36349 -18273907.02248  20885045.7464   20885045.6234   20885048.2144
      -342.9384
 -10741662.93448  -8356993.57447  23190583.2424   23190582.8804   23190585.2844
     -3513.2084
 -11261142.51548  -8738254.40847  23012992.7394   23012993.3884   23012993.9064
     -2128.5134
 10  1  3  2 20 30.0000000  0 11G12G18G22G30G14G26G01G09G27G15G17
 -24543786.61449 -19106606.68848  20758224.7194   20758224.8284   20758226.1174
      1297.9524
  -6376544.38046  -4735713.20046  24157279.7224   24157279.2314   24157282.1724
     -2382.0284
  -6527539.29446  -4927154.71646  24143252.6804   24143255.4764   24143258.5734
     -1111.5494
 -13887971.08448 -10814816.84447  22804625.1824   22804624.2764   22804626.2034
      3091.8394
  -7518370.86647  -5803391.49746  23999148.0914   23999147.8754   23999149.7264
      3243.8594
 -17862627.95648 -13899349.14847  21363308.4794   21363308.6914   21363310.7704
      1848.3784
 -10423936.42048  -8107513.58847  23306464.0094   23306463.6784   23306466.6254
      3043.8424
 -28940792.70649 -22459206.00548  19791926.2684   19791926.0534   19791928.5754
      -395.6904
 -23492576.92149 -18265782.52448  20887029.8214   20887029.5534   20887032.5934
      -352.6654
 -10636165.14848  -8274787.50647  23210658.3244   23210658.5184   23210661.8004
     -3520.6474
 -11197061.07348  -8688320.80547  23025186.8974   23025186.2054   23025189.1844
     -2144.1224
 10  1  3  2 21  0.0000000  0 11G12G18G22G30G14G26G01G09G27G15G17
 -24582549.93449 -19136811.86948  20750848.2724   20750848.4564   20750849.7754
      1285.7464
  -6304983.49446  -4679951.47446  24170895.2034   24170896.9024   24170897.4614
     -2389.0434
  -6494005.43947  -4901024.50646  24149637.1304   24149638.9134   24149639.4744
     -1124.9864
 -13980639.79848 -10887026.21747  22786990.5984   22786989.6514   22786991.8044
      3085.5014
  -7615594.02547  -5879149.83246  23980647.8434   23980647.4974   23980648.3104
      3236.8514
 -17917822.23148 -13942357.67247  21352805.1584   21352805.4074   21352807.5184
      1830.5314
 -10515173.49247  -8178607.38747  23289101.9514   23289102.1454   23289104.7384
      3038.1204
 -28928715.06849 -22449794.86648  19794224.5434   19794224.2374   19794226.9114
      -410.1004
 -23481874.54949 -18257443.01848  20889066.5154   20889066.2234   20889068.9434
      -361.3054
 -10530469.69948  -8192427.42247  23230771.7694   23230771.6004   23230774.1454
     -3526.5674
 -11132532.82148  -8638039.05147  23037466.0234   23037466.5824   23037468.1034
     -2158.3394
 10  1  3  2 21 30.0000000  0 11G12G18G22G30G14G26G01G09G27G15G17
 -24620922.90949 -19166712.88348  20743546.2374   20743546.4114   20743547.5814
      1272.0124
  -6233199.82047  -4624016.15746  24184558.7484   24184558.7024   24184557.7414
     -2397.2974
  -6460033.06547  -4874552.53246  24156104.0574   24156102.3414   24156101.8444
     -1140.1174
 -14073090.86748 -10959065.99547  22769397.6964   22769397.9944   22769399.2954
      3077.5174
  -7712576.20547  -5954720.37246  23962191.4234   23962191.4434   23962192.5894
      3228.2224
 -17972450.29048 -13984924.99347  21342410.1374   21342409.8894   21342412.1224
      1810.7734
 -10606205.57447  -8249541.46647  23271779.8604   23271779.3204   23271781.3314
      3030.3964
 -28916178.42649 -22440026.05948  19796610.1104   19796609.9764   19796612.4454
      -426.0974
 -23470892.44949 -18248885.54048  20891156.3724   20891156.1634   20891158.7124
      -371.3674
 -10424575.72848  -8109912.64947  23250922.9094   23250922.6984   23250925.0134
     -3533.7944
 -11067556.58648  -8587408.21147  23049830.9934   23049830.9414   23049832.5314
     -2173.8214
 10  1  3  2 22  0.0000000  0 11G12G18G22G30G14G26G01G09G27G15G17
 -24658906.11049 -19196310.17948  20736318.2394   20736318.3874   20736319.5654
      1259.5344
  -6161196.07146  -4567909.36046  24198259.4764   24198258.1394   24198260.1144
     -2403.8244
  -6425623.95547  -4847740.24646  24162647.9584   24162655.2614   24162653.8784
     -1154.2524
 -14165323.90348 -11030935.88047  22751846.1814   22751846.4524   22751849.6574
      3070.8424
  -7809314.77047  -6030101.03846  23943783.2814   23943783.2574   23943785.2474
      3220.5144
 -18026510.52348 -14027049.84947  21332122.5464   21332122.6834   21332125.3674
      1792.3924
 -10697032.42948  -8320315.61947  23254495.7744   23254496.3864   23254497.3344
      3024.1074
 -28903183.22249 -22429899.93248  19799083.0544   19799083.1294   19799085.5244
      -440.9034
 -23459630.24649 -18240109.79948  20893299.2704   20893299.2594   20893302.3354
      -380.0564
 -10318486.61148  -8027245.81547  23271110.7324   23271110.7164   23271113.4314
     -3539.8214
 -11002134.53448  -8536429.99347  23062280.1674   23062280.7234   23062280.9334
     -2188.1944
 10  1  3  2 22 30.0000000  0 11G12G18G22G30G14G26G01G09G27G15G17
 -24696499.85449 -19225604.00148  20729164.3094   20729164.5444   20729165.7194
      1246.6464
  -6088976.08347  -4511634.06646  24212003.3564   24212001.2684   24212003.3244
     -2411.2694
  -6390781.37547  -4820590.22346  24169281.2684   24169281.6394   24169282.2064
     -1168.8244
 -14257338.32948 -11102635.42347  22734336.8244   22734336.2594   22734338.4984
      3063.4744
  -7905807.55147  -6105290.20946  23925421.6044   23925420.6264   23925423.6394
      3212.5954
 -18080001.02248 -14068730.75647  21321943.7714   21321943.8014   21321945.9544
      1773.3564
 -10787653.60648  -8390929.52547  23237251.4234   23237252.0364   23237252.7594
      3017.2834
 -28889729.45149 -22419416.47748  19801643.2054   19801643.1174   19801645.7384
      -456.1774
 -23448087.76649 -18231115.66148  20895495.8584   20895495.7144   20895498.5714
      -389.5714
 -10212205.03348  -7944428.99947  23291335.8364   23291336.0464   23291337.6474
     -3545.9774
 -10936269.47848  -8485106.57147  23074813.7664   23074814.4614   23074816.3654
     -2202.8724
 10  1  3  2 23  0.0000000  0 11G12G18G22G30G14G26G01G09G27G15G17
 -24733704.35049 -19254594.51248  20722084.4624   20722084.7394   20722085.9874
      1233.7924
  -6016542.51847  -4455192.31246  24225785.8564   24225785.9234   24225787.5234
     -2417.5264
  -6355506.94247  -4793103.67846  24175992.6254   24175995.8034   24175997.2884
     -1182.8294
 -14349132.53848 -11174163.36747  22716868.4794   22716869.1174   22716871.2824
      3056.1704
  -8002051.69447  -6180285.66946  23907106.7014   23907105.7084   23907109.0674
      3203.9844
 -18132919.17748 -14109965.68447  21311873.8394   21311873.6994   21311876.2364
      1754.5954
 -10878068.26948  -8461382.50147  23220045.4764   23220045.8954   23220048.1704
      3010.5014
 -28875816.23049 -22408575.00848  19804290.8664   19804290.8894   19804293.1904
      -471.2914
 -23436263.68249 -18221902.09148  20897745.9844   20897745.8064   20897748.6734
      -398.8044
 -10105733.29948  -7861464.02447  23311596.3164   23311596.0574   23311598.5454
     -3552.0724
 -10869963.58948  -8433439.63647  23087431.3404   23087431.6204   23087432.7844
     -2217.4974
 10  1  3  2 23 30.0000000  0 11G12G18G22G30G14G26G01G09G27G15G17
 -24770520.39249 -19283282.33348  20715078.7884   20715078.9254   20715080.2284
      1220.7494
  -5943899.48346  -4398587.36546  24239608.4674   24239609.5374   24239612.3144
     -2424.2744
  -6319803.24647  -4765282.59046  24182787.6504   24182787.8734   24182789.7884
     -1197.0774
 -14440707.16448 -11245520.20147  22699442.5184   22699442.2474   22699445.7504
      3049.0324
  -8098045.42747  -6255085.99646  23888840.7954   23888840.8444   23888841.0474
      3195.9944
 -18185264.20248 -14150754.01747  21301912.5764   21301913.1734   21301914.8544
      1735.3664
 -10968275.87547  -8531674.12247  23202879.5474   23202879.1644   23202882.1624
      3003.6624
 -28861444.72149 -22397376.43748  19807025.4784   19807025.4534   19807027.9244
      -486.6554
 -23424158.48549 -18212469.47248  20900049.4924   20900049.3054   20900052.2464
      -408.1494
  -9999074.91648  -7778353.60047  23331892.5854   23331893.2444   23331895.2424
     -3558.3824
 -10803219.90348  -8381431.55947  23100132.2864   23100131.7554   23100134.4544
     -2232.1144
 10  1  3  2 24  0.0000000  0 11G12G18G22G30G14G26G01G09G27G15G17
 -24806948.58949 -19311667.93548  20708146.5614   20708146.8554   20708147.9074
      1207.7454
  -5871050.74646  -4341822.11646  24253471.1144   24253471.4174   24253473.2164
     -2432.3174
  -6283672.54047  -4737128.88746  24189666.9404   24189665.3924   24189664.7804
     -1211.5394
 -14532061.15648 -11316705.12647  22682058.2384   22682057.8154   22682060.8254
      3041.4084
  -8193786.48347  -6329689.39946  23870620.3494   23870620.6314   23870623.7314
      3187.2654
 -18237034.36648 -14191094.40447  21292061.3514   21292061.7074   21292063.4564
      1716.0414
 -11058276.55648  -8601804.51147  23185753.3274   23185753.4394   23185755.7354
      2996.3974
 -28846615.01149 -22385820.82648  19809847.6964   19809847.4314   19809849.8444
      -502.0934
 -23411772.00349 -18202817.67248  20902406.6214   20902406.5114   20902409.2694
      -417.6584
  -9892232.49548  -7695099.77247  23352224.4304   23352225.0704   23352226.3444
     -3564.5714
 -10736040.84848  -8329084.24447  23112915.9414   23112915.6874   23112918.7214
     -2246.6164
 10  1  3  2 24 30.0000000  0 11G12G18G22G30G14G26G01G09G27G15G17
 -24842985.60249 -19339748.71948  20701288.9034   20701289.1944   20701290.4734
      1195.1594
  -5797995.08947  -4284895.63946  24267373.9354   24267373.0554   24267375.3634
     -2437.8324
  -6247113.61547  -4708641.37346  24196620.2914   24196621.4724   24196621.7604
     -1225.2174
 -14623189.92848 -11387714.54447  22664716.9114   22664717.0664   22664718.6494
      3034.3034
  -8289268.74947  -6404091.12146  23852450.6584   23852450.1304   23852452.9524
      3179.1184
 -18288223.78748 -14230982.26747  21282320.2724   21282320.2354   21282322.7894
      1696.8984
 -11148065.77248  -8671770.11247  23168666.7674   23168667.0244   23168669.1734
      2989.8844
 -28831323.00249 -22373904.97848  19812757.4794   19812757.3924   19812760.0224
      -516.9604
 -23399099.79949 -18192943.22748  20904818.1414   20904817.8964   20904820.5484
      -426.7414
  -9785205.08648  -7611701.79247  23372590.5254   23372590.8854   23372593.7064
     -3570.5314
 -10668425.13548  -8276396.67947  23125783.0294   23125782.9544   23125784.8584
     -2260.6984
 10  1  3  2 25  0.0000000  0 11G12G18G22G30G14G26G01G09G27G15G17
 -24878636.66149 -19367528.75548  20694504.6824   20694504.9304   20694506.2104
      1181.8944
  -5724741.06647  -4227814.61946  24281314.0964   24281313.3364   24281315.5114
     -2445.2214
  -6210133.78247  -4679825.96346  24203657.4024   24203657.6084   24203657.4454
     -1239.6284
 -14714098.22948 -11458552.17447  22647417.7444   22647417.3754   22647420.9934
      3026.6534
  -8384495.11847  -6478293.49646  23834330.1634   23834329.6354   23834332.2474
      3170.1184
 -18338835.96948 -14270420.33447  21272689.0334   21272689.2694   21272691.4094
      1677.4894
 -11237648.29048  -8741574.65247  23151620.1114   23151620.0134   23151621.6174
      2982.6014
 -28815573.79849 -22361632.87548  19815754.5304   19815754.3124   19815756.9844
      -532.5604
 -23386146.87049 -18182850.04248  20907282.9794   20907282.8604   20907285.7394
      -436.3924
  -9678000.58948  -7528165.82847  23392991.0404   23392991.8714   23392993.2934
     -3576.5514
 -10600380.70348  -8223375.04747  23138731.4594   23138732.6144   23138733.9394
     -2275.4744
 10  1  3  2 25 30.0000000  0 11G12G18G22G30G14G26G01G09G27G15G17
 -24913897.47949 -19395004.70848  20687794.8344   20687795.0104   20687796.3644
      1168.9784
  -5651287.18247  -4170577.80646  24295292.3534   24295291.5854   24295293.1284
     -2451.4874
  -6172730.36447  -4650680.44746  24210776.2224   24210775.9854   24210774.5154
     -1253.3294
 -14804780.42748 -11529213.61247  22630161.6634   22630161.9614   22630164.2864
      3019.0994
  -8479458.11047  -6552290.63346  23816259.9834   23816259.3904   23816261.5704
      3161.1634
 -18388864.09948 -14309403.28947  21263169.3174   21263168.9484   21263171.5554
      1658.0624
 -11327018.28248  -8811213.58547  23134613.1124   23134613.8374   23134616.5664
      2975.5954
 -28799362.37749 -22349000.59948  19818839.5814   19818839.3294   19818841.9334
      -547.9244
 -23372907.65649 -18172533.77548  20909802.3614   20909802.0264   20909804.7934
      -445.9034
  -9570616.60148  -7444490.00547  23413425.5374   23413425.9874   23413427.4984
     -3582.2224
 -10531904.86848  -8170017.24747  23151761.7344   23151762.9554   23151763.4334
     -2289.8714
