     2.11           OBSERVATION DATA    G (GPS)             RINEX VERSION / TYPE
teqc  2009Oct19     administrateur ccgps20100104 13:51:51UTCPGM / RUN BY / DATE
Solaris 5.9|UltraSparc IIe|cc -xarch=v9 SC5.8|=+-|*Sparc    COMMENT
teqc  2009Oct19     administrateur ccgps20100104 13:47:58UTCCOMMENT
teqc  2009Oct19     CNES                20100104 09:58:22UTCCOMMENT
MSXP|IAx86-PII|bcc32 5.0|MSWin95->XP|486/DX+                COMMENT
teqc  2009Oct19                         20100104 09:58:21UTCCOMMENT
BIT 2 OF LLI FLAGS DATA COLLECTED UNDER A/S CONDITION       COMMENT
GRAS                                                        MARKER NAME
10002M006                                                   MARKER NUMBER
CARDALIAGUET        CNES                                    OBSERVER / AGENCY
48002               ASHTECH UZ-12       CN00-1A01           REC # / TYPE / VERS
24222               ASH701945E_M    NONE                    ANT # / TYPE
  4581694.7600   556114.9500  4389366.7300                  APPROX POSITION XYZ
        0.0350        0.0000        0.0000                  ANTENNA: DELTA H/E/N
     1     1                                                WAVELENGTH FACT L1/2
     7    L1    L2    C1    P1    P2    D1    D2            # / TYPES OF OBSERV
    30.0000                                                 INTERVAL
Version: Version:                                           COMMENT
Project: A002_______CNE_____________                        COMMENT
 SNR is mapped to RINEX snr flag value [0-9]                COMMENT
  L1 & L2: min(max(int(snr_dBHz/6), 0), 9)                  COMMENT
pseudorange smoothing corrections not applied               COMMENT
Forced Modulo Decimation to 30 seconds                      COMMENT
  2010     1     1     0     0    0.0000000     GPS         TIME OF FIRST OBS
                                                            END OF HEADER
 10  1  1  0  0  0.0000000  0  9G17G05G28G18G10G08G09G15G27
  -9001376.79547  -6962362.08046  23782013.2604   23782013.7514   23782016.1364
      2638.3584
  -7001537.49647  -5442439.42747  23422028.7964   23422029.7844   23422031.8994
     -3517.0034
 -19637172.29548 -15253275.39047  22028876.4464   22028876.0054   22028877.7684
     -1934.3544
  -9122399.96447  -7098410.68046  23750121.8974   23750122.3914   23750123.6774
      2260.0014
  -1409909.50447  -1082042.52046  24637232.7684   24637232.7044   24637236.9094
     -3714.6994
 -11866083.58347  -9239833.75846  23724399.2074   23724397.5974   23724403.0734
     -2890.5194
 -16608196.07348 -12875088.27947  22338636.8434   22338636.2194   22338640.7454
      2934.5214
 -25278442.69649 -19694170.31048  20429744.9284   20429745.2504   20429746.8204
       665.6054
 -16617987.07548 -12909825.89147  22127486.6074   22127486.1694   22127490.1024
      1637.3114
 10  1  1  0  0 30.0000000  0  9G17G05G28G18G10G08G09G15G27
  -9080402.67047  -7023940.67946  23766975.6654   23766974.7764   23766978.0054
      2629.8904
  -6895944.75148  -5360159.38447  23442122.9634   23442123.1544   23442125.6104
     -3522.7244
 -19578941.82248 -15207900.99747  22039957.3594   22039956.7134   22039958.6234
     -1947.9844
  -9189982.01347  -7151072.03446  23737262.0104   23737262.3124   23737263.7184
      2245.1054
  -1298459.32647   -995198.20746  24658440.8574   24658440.0704   24658443.2354
     -3715.2474
 -11779321.04547  -9172226.61746  23740909.7084   23740909.4444   23740912.8074
     -2893.7914
 -16696121.44648 -12943601.54247  22321905.5004   22321905.5374   22321908.6074
      2927.0344
 -25298180.99549 -19709550.80948  20425988.9334   20425989.2254   20425990.9004
       649.9794
 -16667008.63148 -12948024.48947  22118158.3254   22118157.6254   22118160.9794
      1630.5674
 10  1  1  0  1  0.0000000  0  9G17G05G28G18G10G08G09G15G27
  -9159194.31347  -7085336.76746  23751981.7524   23751982.1374   23751984.4764
      2622.3214
  -6790207.25148  -5277766.53647  23462244.3324   23462245.2124   23462247.4204
     -3526.9134
 -19520332.24648 -15162231.20047  22051110.1384   22051109.5894   22051111.6244
     -1959.7754
  -9257136.40347  -7203400.12546  23724482.0014   23724482.4294   23724485.0614
      2231.6234
  -1187018.21147   -908360.97946  24679647.2284   24679646.2894   24679651.6474
     -3714.3274
 -11692485.06047  -9104562.24046  23757433.6804   23757434.0584   23757437.3614
     -2895.7954
 -16783848.90148 -13011960.60247  22305211.5484   22305209.9114   22305214.8664
      2921.1404
 -25317477.64649 -19724587.16648  20422316.8984   20422317.1804   20422318.7704
       635.9394
 -16715855.00948 -12986086.59347  22108862.8924   22108862.9314   22108866.1734
      1625.4864
 10  1  1  0  1 30.0000000  0  9G17G05G28G18G10G08G09G15G27
  -9237750.18647  -7146549.12946  23737033.3794   23737032.9374   23737035.9504
      2613.7314
  -6684329.10248  -5195264.08947  23482392.0564   23482392.3974   23482394.5214
     -3532.0664
 -19461346.91648 -15116268.60247  22062334.8124   22062334.2354   22062336.2564
     -1973.0624
  -9323862.25447  -7255394.29046  23711784.9424   23711784.6904   23711784.9804
      2216.3704
  -1075590.36547   -821534.07446  24700852.0534   24700852.1384   24700854.2984
     -3714.5784
 -11605577.66047  -9036842.20346  23773972.6134   23773972.1654   23773975.0724
     -2898.4994
 -16871378.63048 -13080165.56247  22288555.5414   22288554.4904   22288557.4304
      2913.8214
 -25336332.35049 -19739279.15048  20418729.1164   20418729.3544   20418730.9994
       620.6174
 -16764527.80548 -13024013.43747  22099600.8794   22099600.1354   22099603.0194
      1619.0894
 10  1  1  0  2  0.0000000  0  9G17G05G28G18G10G08G09G15G27
  -9316064.70147  -7207573.41846  23722130.1384   23722130.7164   23722133.5324
      2606.1444
  -6578310.83148  -5112652.46247  23502566.8604   23502566.6684   23502569.8884
     -3536.2264
 -19401985.32648 -15070012.82347  22073630.9184   22073630.7834   22073632.2904
     -1985.0144
  -9390155.06947  -7307051.03246  23699169.5054   23699168.1784   23699170.9964
      2202.5194
   -964175.90947   -734717.59746  24722053.5804   24722052.4524   24722055.9644
     -3713.6944
 -11518597.01947  -8969065.09446  23790524.1154   23790522.9204   23790525.4314
     -2900.5964
 -16958707.59048 -13148214.07347  22271937.0194   22271937.4254   22271939.7584
      2907.5974
 -25354741.59049 -19753624.01748  20415225.9344   20415226.1744   20415227.6704
       606.2404
 -16813024.66148 -13061803.18847  22090372.4584   22090372.2584   22090374.5244
      1613.5404
 10  1  1  0  2 30.0000000  0  9G17G05G28G18G10G08G09G15G27
  -9394138.66447  -7268410.25846  23707273.4324   23707273.7324   23707275.5194
      2598.0364
  -6472158.89748  -5029936.68247  23522766.5264   23522766.7114   23522769.6954
     -3541.0564
 -19342253.16048 -15023468.28047  22084997.5994   22084996.9164   22084999.2604
     -1997.7094
  -9456016.30247  -7358371.48246  23686637.1074   23686637.4584   23686638.8154
      2187.7084
   -852780.52847   -647915.99146  24743251.1124   24743250.6314   24743254.5434
     -3713.1964
 -11431547.84947  -8901234.59046  23807089.5594   23807089.4124   23807092.5274
     -2902.9834
 -17045838.25848 -13216108.07847  22255356.9614   22255356.5944   22255359.2304
      2900.7184
 -25372707.78049 -19767623.65348  20411807.0474   20411807.2714   20411808.7074
       591.1124
 -16861349.38748 -13099458.80147  22081176.1054   22081175.7714   22081179.3974
      1607.5744
 10  1  1  0  3  0.0000000  0  9G17G05G28G18G10G08G09G15G27
  -9471967.38647  -7329056.00646  23692462.8764   23692463.0634   23692464.9814
      2590.6674
  -6365874.52648  -4947117.70947  23542992.0124   23542992.3824   23542995.2184
     -3544.8634
 -19282150.81648 -14976635.28947  22096434.8174   22096434.4744   22096436.3704
     -2009.3414
  -9521442.02247  -7409352.56646  23674187.1004   23674187.1254   23674188.1574
      2173.6714
   -741404.94447   -561129.82446  24764445.6784   24764444.9674   24764447.5204
     -3711.9894
 -11344429.04647  -8833349.82346  23823667.1684   23823666.5264   23823671.2004
     -2904.9474
 -17132768.30048 -13283845.74947  22238813.6264   22238815.1344   22238816.6404
      2894.4054
 -25390227.80149 -19781275.62448  20408473.0064   20408473.2784   20408474.8034
       576.6404
 -16909500.26148 -13136978.95147  22072013.6294   22072013.7344   22072016.1424
      1602.3564
 10  1  1  0  3 30.0000000  0  9G17G05G28G18G10G08G09G15G27
  -9549548.40547  -7389508.73947  23677700.0644   23677700.7854   23677702.1614
      2581.2534
  -6259460.96948  -4864198.06747  23563241.8634   23563242.0964   23563244.8854
     -3549.8534
 -19221680.82148 -14929515.81347  22107941.5714   22107941.2804   22107943.0284
     -2022.2634
  -9586431.01247  -7459993.34146  23661819.9724   23661819.7454   23661821.8374
      2158.5454
   -630052.81747   -474361.90746  24785634.3674   24785633.8764   24785638.1654
     -3711.9444
 -11257241.26047  -8765411.32046  23840258.3894   23840257.8054   23840261.0924
     -2907.8354
 -17219497.15848 -13351426.64347  22222310.4364   22222310.3884   22222313.4894
      2886.9654
 -25407301.06849 -19794579.47548  20405224.2224   20405224.4374   20405225.9144
       561.0754
 -16957478.16948 -13174364.32147  22062883.1644   22062883.4054   22062886.1994
      1595.8314
 10  1  1  0  4  0.0000000  0  9G17G05G28G18G10G08G09G15G27
  -9626877.26847  -7449764.98147  23662985.2604   23662985.0094   23662987.6914
      2572.9204
  -6152920.33848  -4781179.40647  23583515.7404   23583516.6754   23583518.5904
     -3553.8574
 -19160844.17148 -14882110.63047  22119518.3314   22119518.4094   22119519.9904
     -2034.3304
  -9650979.92447  -7510291.19846  23649536.2644   23649535.1964   23649539.0124
      2143.7914
   -518724.99647   -387612.97246  24806819.2404   24806819.0354   24806823.3804
     -3710.9914
 -11169984.68347  -8697419.20446  23856863.0844   23856863.6404   23856866.1094
     -2910.3944
 -17306023.14248 -13418849.46847  22205845.4424   22205845.5374   22205847.5524
      2880.2554
 -25423925.02849 -19807533.21448  20402060.8304   20402060.8414   20402062.4624
       546.1944
 -17005282.01848 -13211614.05447  22053786.9314   22053787.0334   22053789.9114
      1590.0924
 10  1  1  0  4 30.0000000  0  9G17G05G28G18G10G08G09G15G27
  -9703951.08547  -7509822.48247  23648318.1954   23648318.0064   23648319.9554
      2564.8414
  -6046255.10347  -4698063.65147  23603813.5544   23603814.3634   23603817.1534
     -3557.7654
 -19099642.22648 -14834420.80447  22131165.0924   22131164.8064   22131166.6584
     -2046.2574
  -9715086.38647  -7560244.29446  23637337.6484   23637336.7214   23637338.5064
      2129.2344
   -407423.98647   -300884.91046  24827999.2174   24827998.4674   24828003.5354
     -3709.8074
 -11082659.78147  -8629373.85446  23873480.2364   23873479.8594   23873483.2674
     -2912.3274
 -17392344.62848 -13486112.95747  22189417.9004   22189417.0764   22189421.3374
      2873.7284
 -25440098.59949 -19820136.00348  20398982.8294   20398983.1194   20398984.7244
       531.3874
 -17052911.71948 -13248728.08847  22044723.4744   22044722.7914   22044725.9484
      1584.3584
 10  1  1  0  5  0.0000000  0  9G17G05G28G18G10G08G09G15G27
  -9780767.78948  -7569679.63647  23633700.7674   23633701.0284   23633703.0864
      2555.3434
  -5939468.97148  -4614853.69047  23624134.6574   23624134.4384   23624137.2484
     -3562.3614
 -19038078.03648 -14786448.70447  22142880.3014   22142879.9694   22142881.7804
     -2058.9714
  -9778749.42447  -7609851.84646  23625222.0054   23625223.0714   23625224.0464
      2113.7684
   -296153.10847   -214180.34146  24849173.5654   24849173.1054   24849176.8234
     -3709.4204
 -10995267.86047  -8561276.26946  23890110.9014   23890109.9194   23890113.7504
     -2914.9714
 -17478461.78348 -13553217.21847  22173030.7184   22173030.4624   22173033.8184
      2866.2624
 -25455821.12149 -19832387.32348  20395990.9254   20395991.2024   20395992.8364
       515.7764
 -17100368.21948 -13285707.16247  22035692.8014   22035692.1224   22035695.3564
      1578.1684
 10  1  1  0  5 30.0000000  0 10G12G17G05G28G18G10G08G09G15G27
  -2443922.40346  -1845503.58646  25412776.1024   25412777.2734   25412779.9314
      3822.0714
  -9857327.50548  -7629336.55147  23619131.7254   23619131.9364   23619132.7984
      2547.4694
  -5832567.71647  -4531554.01247  23644477.1524   23644477.0984   23644479.7214
     -3565.4134
 -18976156.87748 -14738198.45247  22154663.5824   22154663.7654   22154665.0894
     -2070.2174
  -9841969.95747  -7659114.61246  23613192.8814   23613191.9884   23613193.0324
      2099.6204
   -184917.91347   -127503.59646  24870340.9434   24870340.4244   24870344.0584
     -3707.3244
 -10907812.68547  -8493129.39546  23906752.4544   23906751.6664   23906755.9244
     -2916.3774
 -17564376.85848 -13620164.02047  22156682.1894   22156681.7784   22156685.0004
      2860.1604
 -25471094.57449 -19844288.72548  20393084.6344   20393085.0534   20393086.4574
       501.3734
 -17147654.58548 -13322553.67047  22026694.4084   22026694.0884   22026696.7914
      1573.2244
 10  1  1  0  6  0.0000000  0 10G12G17G05G28G18G10G08G09G15G27
  -2558561.98046  -1934833.05246  25390961.5734   25390961.4034   25390965.5714
      3820.7184
  -9933621.05048  -7688786.05247  23604613.5794   23604613.7274   23604615.8814
      2538.2184
  -5725548.28847  -4448162.27347  23664841.8584   23664843.0144   23664844.3884
     -3569.5284
 -18913874.51648 -14689666.74247  22166515.3494   22166515.0014   22166516.7364
     -2082.3664
  -9904739.66247  -7708026.08246  23601248.2364   23601246.6684   23601249.0604
      2084.3334
    -73714.68047    -40851.71246  24891502.2304   24891500.1964   24891503.2164
     -3706.3604
 -10820288.59947  -8424928.82246  23923407.9664   23923407.1574   23923410.7204
     -2918.7864
 -17650082.97448 -13686947.98547  22140372.4924   22140371.1144   22140375.2194
      2853.0054
 -25485911.42349 -19855834.32348  20390265.1764   20390265.3284   20390266.7844
       485.9964
 -17194764.72148 -13359262.85647  22017729.3144   22017729.2054   22017732.2264
      1567.0114
 10  1  1  0  6 30.0000000  0 10G12G17G05G28G18G10G08G09G15G27
  -2673164.51445  -2024133.64645  25369153.1904   25369153.2254   25369155.8394
      3819.4204
 -10009650.45248  -7748029.71647  23590145.3294   23590145.4354   23590147.4724
      2529.8764
  -5618418.53847  -4364684.56447  23685228.4534   23685228.0694   23685231.2924
     -3572.5804
 -18851237.70648 -14640858.83947  22178434.6504   22178434.7944   22178436.2924
     -2093.7654
  -9967061.56947  -7756588.60946  23589388.2394   23589387.8044   23589390.3184
      2069.9854
     37449.30247     45769.53246  24912656.3124   24912654.8264   24912658.5024
     -3704.6124
 -10732701.66847  -8356679.27746  23940075.0694   23940074.2454   23940078.9494
     -2920.4964
 -17735584.14448 -13753572.24947  22124102.6874   22124101.6604   22124104.8794
      2846.7304
 -25500275.89449 -19867027.42348  20387531.7164   20387531.7874   20387533.3794
       471.2574
 -17241703.83148 -13395838.77347  22008797.2144   22008796.9444   22008800.2144
      1561.9074
 10  1  1  0  7  0.0000000  0 10G12G17G05G28G18G10G08G09G15G27
  -2787724.74546  -2113401.21645  25347353.6034   25347353.7574   25347355.1774
      3818.1464
 -10085409.87448  -7807063.02647  23575728.8244   23575729.0264   23575732.1664
      2520.8384
  -5511178.43147  -4281120.85346  23705635.7564   23705634.9124   23705637.2914
     -3576.1284
 -18788246.19248 -14591774.54547  22190421.6374   22190421.4844   22190423.1214
     -2105.5294
 -10028931.15147  -7804798.67246  23577615.7494   23577614.5714   23577616.6444
      2054.8764
    148574.16747    132360.31846  24933802.3464   24933801.9314   24933804.2644
     -3703.5794
 -10645049.45447  -8288378.85946  23956755.4994   23956753.6724   23956758.0044
     -2923.0434
 -17820876.74448 -13820033.98447  22107871.1844   22107870.7734   22107874.4184
      2839.5974
 -25514183.55949 -19877864.56648  20384885.0014   20384885.1784   20384886.8104
       455.8584
 -17288469.22148 -13432279.32947  21999898.2444   21999898.0334   21999900.8884
      1555.8974
 10  1  1  0  7 30.0000000  0 10G12G17G05G28G18G10G08G09G15G27
  -2902237.95646  -2202632.26045  25325561.9704   25325560.5844   25325566.0884
      3815.0434
 -10160893.75548  -7865881.62147  23561364.7354   23561364.5034   23561367.1434
      2510.7664
  -5403828.38047  -4197471.46946  23726063.3754   23726064.0204   23726066.3854
     -3581.0204
 -18724899.01348 -14542413.10747  22202476.4164   22202475.6484   22202477.7794
     -2118.2714
 -10090343.48347  -7852652.43846  23565929.3114   23565929.4784   23565929.6474
      2038.6944
    259660.31846    218920.92246  24954941.0974   24954939.3904   24954944.4944
     -3702.7904
 -10557330.01147  -8220026.05746  23973447.5764   23973446.1284   23973449.5914
     -2925.6914
 -17905956.78348 -13886330.09347  22091681.2004   22091680.5714   22091683.7714
      2831.5734
 -25527630.77849 -19888342.92448  20382326.1834   20382326.4024   20382327.9294
       439.7604
 -17335058.18448 -13468582.40247  21991032.5254   21991032.0144   21991035.5494
      1549.3264
 10  1  1  0  8  0.0000000  0 10G12G17G05G28G18G10G08G09G15G27
  -3016707.76447  -2291829.46345  25303779.7004   25303779.6784   25303782.5924
      3815.0134
 -10236104.72748  -7924487.55947  23547052.5614   23547052.5494   23547056.1534
      2502.7794
  -5296376.67247  -4113742.87146  23746510.3384   23746509.8314   23746513.8094
     -3583.1284
 -18661204.08148 -14492780.69547  22214596.8334   22214595.9974   22214598.5194
     -2128.6494
 -10151302.42347  -7900152.91746  23554329.2064   23554327.6314   23554330.1814
      2024.8984
    370699.52347    305444.93446  24976071.6584   24976071.1194   24976074.5174
     -3700.3304
 -10469549.41747  -8151625.60546  23990151.1134   23990150.2324   23990154.6484
     -2926.6394
 -17990829.12448 -13952464.36347  22075530.6454   22075530.9264   22075532.9604
      2825.8824
 -25540621.97049 -19898465.93648  20379854.0834   20379854.3584   20379855.7934
       425.8134
 -17381476.50148 -13504752.50647  21982199.2514   21982198.9834   21982202.0074
      1544.8064
 10  1  1  0  8 30.0000000  0 10G12G17G05G28G18G10G08G09G15G27
  -3131132.37146  -2380991.50545  25282004.4924   25282006.2074   25282005.9154
      3813.9804
 -10311040.13348  -7982878.77247  23532792.8514   23532793.7814   23532795.1674
      2493.8704
  -5188826.03547  -4029937.18646  23766976.7414   23766976.8234   23766979.7874
     -3586.0744
 -18597163.62548 -14442879.02947  22226783.3484   22226782.6454   22226784.8324
     -2140.0154
 -10211806.04347  -7947298.58346  23542815.7374   23542815.1504   23542815.9214
      2009.6124
    481689.14947    391930.33346  24997192.5704   24997191.5324   24997196.4274
     -3698.5044
 -10381708.57447  -8083178.20146  24006866.8214   24006865.9954   24006870.3994
     -2928.5544
 -18075493.30848 -14018436.43347  22059419.0874   22059419.8644   22059420.9294
      2818.9804
 -25553156.31449 -19908232.96248  20377469.0384   20377469.1174   20377470.4944
       410.5524
 -17427724.41848 -13540789.83947  21973398.6944   21973398.4154   21973401.7294
      1539.1594
 10  1  1  0  9  0.0000000  0  9G17G05G28G18G10G08G09G15G27
 -10385694.91448  -8041051.31147  23518586.5174   23518586.9624   23518588.8534
      2483.7844
  -5081177.68247  -3946055.35746  23787461.5434   23787461.6544   23787463.6574
     -3590.0804
 -18532777.48748 -14392708.00847  22239035.6604   22239035.3554   22239037.0924
     -2151.7504
 -10271850.40847  -7994086.40546  23531389.5904   23531389.4704   23531389.8944
      1993.8444
    592629.18047    478377.09346  25018303.3474   25018302.3374   25018305.2934
     -3697.3464
 -10293806.62447  -8014683.19046  24023593.7974   24023593.6724   24023598.3434
     -2930.9104
 -18159946.24248 -14084243.89247  22043348.9434   22043348.1554   22043351.4934
      2811.6194
 -25565230.65449 -19917641.54248  20375171.2374   20375171.5454   20375172.9404
       394.9224
 -17473800.07948 -13576692.94347  21964630.8124   21964630.3974   21964633.3724
      1533.1414
 10  1  1  0  9 30.0000000  0 10G12G17G05G28G18G10G08G09G15G27
  -3359832.09046  -2559198.93845  25238483.4574   25238485.6144   25238485.6294
      3810.2784
 -10460065.67348  -8099002.53447  23504434.5274   23504434.1814   23504437.2734
      2474.1904
  -4973433.85747  -3862099.13946  23807963.8564   23807964.7124   23807966.9194
     -3593.2714
 -18468047.09048 -14342268.73647  22251353.5204   22251353.0374   22251355.0434
     -2163.4774
 -10331432.93247  -8040514.35046  23520050.6424   23520050.0664   23520051.4934
      1978.8584
    703517.37447    564783.43146  25039404.6754   25039404.3314   25039407.4404
     -3695.3254
 -10205843.23647  -7946140.31746  24040333.2274   24040330.8984   24040335.2884
     -2933.1854
 -18244186.65748 -14149885.73847  22027318.3114   22027318.0224   22027321.3314
      2804.3834
 -25576843.14549 -19926690.24548  20372961.4114   20372961.4874   20372963.1644
       379.2364
 -17519702.78448 -13612461.27747  21955895.8044   21955895.2604   21955898.4344
      1527.1164
 10  1  1  0 10  0.0000000  0 10G12G17G05G28G18G10G08G09G15G27
  -3474102.91847  -2648241.08346  25216739.2714   25216740.4464   25216740.3774
      3808.4884
 -10534149.67648  -8156730.32347  23490336.5514   23490337.3094   23490338.1404
      2464.9784
  -4865597.78847  -3778071.04146  23828485.2434   23828485.6394   23828486.5304
     -3595.5714
 -18402974.84648 -14291563.09047  22263736.3884   22263736.1194   22263737.4984
     -2174.3474
 -10390551.94247  -8086581.11446  23508800.7074   23508800.6634   23508801.9734
      1963.1324
    814351.15947    651147.41746  25060495.5964   25060495.2054   25060499.2144
     -3693.3054
 -10117819.07747  -7877550.09246  24057083.2334   24057082.2484   24057086.3344
     -2934.9904
 -18328213.74848 -14215361.36947  22011328.2394   22011328.7114   22011331.1454
      2797.4964
 -25587992.79449 -19935378.28848  20370839.6934   20370839.8904   20370841.5014
       364.2324
 -17565433.13348 -13648095.31047  21947193.4404   21947193.5484   21947196.2804
      1521.7644
 10  1  1  0 10 30.0000000  0 10G12G17G05G28G18G10G08G09G15G27
  -3588318.80447  -2737240.44746  25195005.3704   25195006.4114   25195006.9744
      3806.6404
 -10607944.56248  -8214232.82647  23476293.8904   23476294.6914   23476296.3524
      2455.4304
  -4757673.10747  -3693973.88446  23849022.8324   23849023.0144   23849025.5944
     -3598.7874
 -18337563.50248 -14240593.20747  22276183.8684   22276183.7884   22276185.0844
     -2185.7034
 -10449206.25747  -8132285.77946  23497639.5254   23497638.6234   23497640.5884
      1947.9584
    925127.35047    737466.47846  25081575.5054   25081574.8364   25081578.2414
     -3690.8544
 -10029735.67347  -7808913.70446  24073844.8274   24073843.9424   24073847.0434
     -2936.7314
 -18412027.19548 -14280670.52747  21995379.4594   21995379.0674   21995381.8984
      2790.5824
 -25598679.43849 -19943705.54948  20368806.1194   20368806.3474   20368807.8734
       348.7904
 -17610991.80048 -13683595.55747  21938524.0404   21938524.0214   21938526.5514
      1516.0564
 10  1  1  0 11  0.0000000  0 10G12G17G05G28G18G10G08G09G15G27
  -3702478.91647  -2826196.37046  25173281.1254   25173280.2444   25173284.6094
      3804.8044
 -10681448.39748  -8271508.52847  23462306.7064   23462306.8164   23462309.5014
      2445.7984
  -4649663.25747  -3609810.36946  23869576.2024   23869576.4634   23869579.5044
     -3601.3314
 -18271815.93348 -14189361.33847  22288694.9974   22288694.6124   22288695.9634
     -2196.8314
 -10507395.16047  -8177627.77646  23486566.2804   23486566.3884   23486567.9294
      1932.2514
   1035842.95847    823738.38246  25102644.2514   25102643.1004   25102647.4574
     -3689.1204
  -9941594.73047  -7740232.46046  24090618.2684   24090617.5774   24090621.3844
     -2938.7384
 -18495627.09248 -14345813.28047  21979470.9004   21979470.4114   21979473.2904
      2783.5674
 -25608902.72349 -19951671.75048  20366860.5684   20366860.7644   20366862.5054
       333.4814
 -17656379.51548 -13718962.60047  21929886.8934   21929887.2104   21929889.7034
      1510.4914
 10  1  1  0 11 30.0000000  0 10G12G17G05G28G18G10G08G09G15G27
  -3816578.46447  -2915105.11845  25151568.3674   25151567.4364   25151571.1144
      3802.1964
 -10754655.09148  -8328552.69547  23448375.9874   23448375.5014   23448377.2904
      2435.1204
  -4541567.82347  -3525580.15746  23890145.7824   23890146.3294   23890148.4074
     -3604.7384
 -18205730.98648 -14137866.56947  22301270.5154   22301270.3754   22301271.4404
     -2208.5224
 -10565113.57547  -8222603.16746  23475582.4354   23475583.2114   23475584.6584
      1915.7624
   1146498.30247    909963.29646  25123700.7474   25123699.7204   25123704.0204
     -3687.6124
  -9853392.97647  -7671503.83146  24107402.0254   24107401.4274   24107405.2244
     -2940.9214
 -18579009.43348 -14410786.50747  21963603.2854   21963603.6784   21963606.3594
      2775.6114
 -25618658.54849 -19959273.69948  20365004.1354   20365004.4994   20365005.9124
       317.3034
 -17701593.33448 -13754194.13947  21921283.1524   21921283.1804   21921285.6994
      1504.1224
 10  1  1  0 12  0.0000000  0 10G12G17G05G28G18G10G08G09G15G27
  -3930616.92047  -3003966.33345  25129867.6034   25129865.2074   25129871.4814
      3800.4594
 -10827563.92248  -8385364.76347  23434501.7054   23434500.8894   23434503.1284
      2425.3634
  -4433391.87947  -3441287.21646  23910731.6064   23910731.3014   23910734.0544
     -3607.1384
 -18139313.09248 -14086112.36447  22313909.5684   22313908.9464   22313911.1074
     -2219.4504
 -10622361.62247  -8267212.03446  23464689.0884   23464689.2414   23464691.3614
      1900.3214
   1257088.92147    996137.78346  25144745.2784   25144745.5614   25144750.2194
     -3684.9614
  -9765133.90247  -7602730.54446  24124197.2014   24124196.1454   24124200.0924
     -2942.7974
 -18662175.21748 -14475590.99547  21947777.5314   21947777.4404   21947780.5574
      2768.5514
 -25627947.89549 -19966512.15748  20363236.7034   20363236.7624   20363238.2854
       301.8784
 -17746635.61348 -13789292.00847  21912711.7444   21912711.4574   21912714.4994
      1498.6294
 10  1  1  0 12 30.0000000  0 10G12G17G05G28G18G10G08G09G15G27
  -4044593.52147  -3092779.25346  25108178.7804   25108179.6574   25108181.9584
      3798.0134
 -10900172.92748  -8441943.19447  23420684.9384   23420684.5714   23420687.6274
      2415.1694
  -4325139.39847  -3356934.62646  23931331.5474   23931332.0024   23931333.8544
     -3609.7434
 -18072565.20248 -14034101.01747  22326611.0584   22326610.5524   22326612.3184
     -2230.3814
 -10679138.18047  -8311453.51346  23453883.8064   23453884.2444   23453886.5614
      1884.8144
   1367611.54147   1082259.29546  25165778.0404   25165776.0514   25165781.1434
     -3682.8704
  -9676818.53147  -7533913.37846  24141003.5004   24141002.6424   24141006.9514
     -2944.7934
 -18745124.43948 -14540226.72547  21931992.9874   21931992.4314   21931995.4654
      2761.3504
 -25636770.68849 -19973387.06748  20361557.5994   20361557.9004   20361559.3334
       286.2474
 -17791507.33548 -13824256.97347  21904173.1064   21904172.5404   21904175.7424
      1492.8584
 10  1  1  0 13  0.0000000  0 10G12G17G05G28G18G10G08G09G15G27
  -4158504.63447  -3181541.12346  25086502.3674   25086502.6964   25086506.2174
      3796.2254
 -10972477.68948  -8498284.55447  23406925.1704   23406926.0144   23406928.1674
      2405.3694
  -4216811.50447  -3272523.27046  23951945.4434   23951944.9054   23951947.9044
     -3611.9414
 -18005487.93648 -13981833.01647  22339375.6334   22339374.7684   22339376.9824
     -2241.0504
 -10735439.82747  -8355324.93946  23443171.2414   23443170.3894   23443171.6204
      1869.1924
   1478065.46547   1168327.24946  25186796.8714   25186796.4484   25186799.1974
     -3680.1534
  -9588446.32347  -7465051.93246  24157820.2784   24157819.7454   24157822.6444
     -2946.3664
 -18827854.67448 -14604691.81747  21916249.5764   21916249.4674   21916251.8824
      2754.1774
 -25645124.23349 -19979896.32848  20359967.8694   20359968.2504   20359969.7964
       270.9444
 -17836206.94248 -13859087.82047  21895666.7864   21895666.6904   21895669.8204
      1487.4354
 10  1  1  0 13 30.0000000  0 10G12G17G05G28G18G10G08G09G15G27
  -4272349.68647  -3270251.55046  25064837.9234   25064837.6854   25064841.1554
      3793.5784
 -11044476.43348  -8554387.46747  23393224.4714   23393225.0474   23393227.1844
      2394.8814
  -4108412.26747  -3188056.33746  23972572.9484   23972573.5134   23972576.1454
     -3614.3954
 -17938084.47848 -13929310.84147  22352202.0864   22352201.6434   22352203.5794
     -2252.1764
 -10791266.16747  -8398825.99046  23432547.1254   23432546.4584   23432549.1864
      1853.0924
   1588447.11047   1254338.93945  25207801.0234   25207800.3614   25207804.9414
     -3677.8594
  -9500019.23147  -7396147.71946  24174647.0544   24174646.9394   24174649.2134
     -2948.5814
 -18910366.61248 -14668986.82047  21900548.3174   21900548.0394   21900550.8634
      2746.6964
 -25653008.94749 -19986040.26748  20358467.5034   20358467.5654   20358469.2244
       255.0694
 -17880735.78248 -13893785.61047  21887193.2294   21887192.9394   21887196.1534
      1481.5104
 10  1  1  0 14  0.0000000  0 10G12G17G05G28G18G10G08G09G15G27
  -4386124.83947  -3358907.50446  25043187.5094   25043187.2794   25043191.0274
      3790.4934
 -11116164.60048  -8610248.36947  23379582.7864   23379583.1344   23379584.5424
      2383.8134
  -3999942.80447  -3103534.67446  23993214.1434   23993214.2214   23993217.8754
     -3617.6764
 -17870355.24348 -13876534.81047  22365090.4844   22365089.8434   22365092.4014
     -2263.7234
 -10846613.95047  -8441954.12246  23422015.2754   23422015.1564   23422016.2034
      1836.2354
   1698755.89947   1340293.80546  25228792.2864   25228792.0464   25228795.4544
     -3676.3904
  -9411536.00747  -7327199.76246  24191484.7114   24191484.9054   24191487.4464
     -2951.1674
 -18992657.15248 -14733109.29947  21884888.8094   21884889.0214   21884891.3984
      2738.5394
 -25660422.02349 -19991816.69048  20357056.9974   20357057.1704   20357058.5624
       238.4804
 -17925092.04448 -13928348.91847  21878752.5634   21878752.2024   21878755.6564
      1474.8514
 10  1  1  0 14 30.0000000  0 10G12G17G05G28G18G10G08G09G15G27
  -4499829.24447  -3447508.33046  25021550.5374   25021550.5774   25021552.5074
      3788.8984
 -11187540.67748  -8665866.08247  23366000.5794   23366001.2764   23366002.6674
      2373.8704
  -3891407.30747  -3018961.56546  24013867.8514   24013867.3394   24013869.8264
     -3618.7594
 -17802303.53748 -13823507.51347  22378040.0684   22378039.6104   22378041.5884
     -2273.8834
 -10901482.18247  -8484708.59146  23411574.4914   23411572.5534   23411576.3914
      1821.0904
   1808988.29747   1426189.12745  25249768.9294   25249770.1384   25249770.8804
     -3673.6084
  -9322998.08247  -7258209.15946  24208332.7794   24208331.8574   24208336.1564
     -2952.0314
 -19074726.99448 -14797059.81347  21869271.0264   21869271.2964   21869273.8484
      2732.2734
 -25667363.71749 -19997225.80848  20355735.9054   20355736.1154   20355737.7094
       223.6034
 -17969277.03448 -13962778.77747  21870344.4304   21870344.4954   21870347.4824
      1470.0774
 10  1  1  0 15  0.0000000  0 10G12G17G05G28G18G10G08G09G15G27
  -4613460.77447  -3536052.37046  24999926.5544   24999926.6064   24999930.0994
      3786.4634
 -11258601.43048  -8721238.08547  23352477.9044   23352477.1404   23352480.4874
      2363.0654
  -3782808.40247  -2934339.05147  24034533.5124   24034533.9424   24034535.5224
     -3621.1514
 -17733931.16248 -13770230.33647  22391050.9134   22391049.9094   22391052.2514
     -2284.5784
 -10955869.25047  -8527088.12646  23401224.9174   23401223.9654   23401227.3414
      1804.6224
   1919141.76947   1512023.03145  25270731.4224   25270730.6594   25270735.1654
     -3670.4454
  -9234406.12847  -7189176.47846  24225191.2564   24225190.4604   24225193.6574
     -2954.3374
 -19156574.73448 -14860837.24147  21853696.4464   21853696.0744   21853698.7264
      2724.2374
 -25673832.73749 -20002266.60748  20354505.0804   20354505.0964   20354506.5424
       207.4874
 -18013290.79748 -13997075.20247  21861968.9754   21861968.8894   21861971.7974
      1464.1554
 10  1  1  0 15 30.0000000  0 10G12G17G05G28G18G10G08G09G15G27
  -4727018.60447  -3624538.95446  24978317.6954   24978317.2564   24978319.8094
      3783.2934
 -11329345.02648  -8776362.95547  23339016.1114   23339016.2054   23339017.5394
      2352.4074
  -3674149.68247  -2849669.93147  24055210.5934   24055211.4444   24055212.8894
     -3623.2514
 -17665240.94148 -13716705.48647  22404122.6264   22404121.6844   22404123.9474
     -2295.3074
 -11009773.99247  -8569091.83746  23390966.8664   23390966.9324   23390968.7854
      1788.4574
   2029213.15047   1597792.92245  25291676.6694   25291676.3994   25291680.8554
     -3668.1344
  -9145761.43447  -7120102.69746  24242060.0954   24242058.7674   24242062.7754
     -2955.8404
 -19238200.52648 -14924441.74047  21838163.4824   21838163.3634   21838165.3744
      2716.6814
 -25679828.91449 -20006938.95748  20353363.8954   20353364.1384   20353365.6474
       191.5834
 -18057134.40148 -14031239.04047  21853625.9564   21853625.5994   21853628.4724
      1458.1884
 10  1  1  0 16  0.0000000  0 10G12G17G05G28G18G10G08G09G15G27
  -4840498.23547  -3712964.60246  24956722.8284   24956721.7214   24956725.7054
      3781.0944
 -11399766.67848  -8831236.96247  23325614.9174   23325614.7194   23325617.8484
      2341.7744
  -3565432.07447  -2764954.91847  24075898.9604   24075899.0974   24075900.4594
     -3624.9344
 -17596233.58748 -13662933.52647  22417253.9974   22417253.6584   22417255.4744
     -2305.5414
 -11063193.12647  -8610717.11346  23380801.4614   23380800.4704   23380802.2594
      1772.3214
   2139201.82446   1683498.37545  25312607.0244   25312607.0214   25312611.4974
     -3664.6194
  -9057062.81747  -7050986.91446  24258938.9394   24258938.0744   24258941.7854
     -2957.8094
 -19319601.80748 -14987871.28647  21822673.3564   21822673.4104   21822676.0544
      2709.4504
 -25685349.57249 -20011240.77548  20352313.3384   20352313.5134   20352315.1034
       175.9354
 -18100805.95948 -14065268.81847  21845315.3484   21845315.4244   21845318.1844
      1452.7484
 10  1  1  0 16 30.0000000  0 10G12G17G05G28G18G10G08G09G15G27
  -4953900.11747  -3801329.68846  24935143.6814   24935143.9474   24935145.3014
      3778.4964
 -11469865.21848  -8885859.19547  23312275.8654   23312275.9844   23312277.7834
      2330.9944
  -3456660.04547  -2680197.49847  24096597.2924   24096597.4634   24096599.7494
     -3627.1624
 -17526912.56948 -13608917.14647  22430445.2514   22430444.9194   22430447.0624
     -2316.2504
 -11116126.38047  -8651963.80546  23370729.1864   23370728.7144   23370730.5444
      1755.7384
   2249104.00346   1769136.37745  25333520.4194   25333518.1064   25333523.5764
     -3662.4124
  -8968312.81347  -6981831.08146  24275827.5184   24275826.0894   24275831.1684
     -2959.8414
 -19400779.39148 -15051126.53547  21807225.4854   21807225.7984   21807228.3494
      2701.8554
 -25690395.42049 -20015172.60848  20351353.1124   20351353.3634   20351354.7584
       159.8774
 -18144307.13248 -14099165.82447  21837037.3774   21837037.0664   21837039.9174
      1446.8284
 10  1  1  0 17  0.0000000  0 10G12G17G05G28G18G10G08G09G15G27
  -5067218.40246  -3889629.64746  24913579.1514   24913579.9794   24913581.7364
      3776.1364
 -11539634.34848  -8940224.75347  23298999.2894   23299000.1964   23299001.0504
      2320.4044
  -3347832.76147  -2595397.02947  24117306.3244   24117307.4944   24117309.5544
     -3628.1704
 -17457276.27448 -13554655.10147  22443696.7444   22443696.4154   22443697.8074
     -2326.0174
 -11168568.35847  -8692827.68346  23360749.8734   23360747.7194   23360750.4684
      1740.2344
   2358921.06146   1854708.12045  25354418.5694   25354415.6294   25354418.5074
     -3658.8524
  -8879507.99347  -6912632.52046  24292726.4854   24292725.2254   24292729.3614
     -2960.8574
 -19481728.36848 -15114203.65047  21791821.8064   21791821.5194   21791824.1104
      2694.7524
 -25694961.77149 -20018730.81148  20350484.3404   20350484.5264   20350486.0904
       144.5204
 -18187634.41048 -14132927.33347  21828792.6584   21828792.4054   21828795.1204
      1441.6314
 10  1  1  0 17 30.0000000  0 10G12G17G05G28G18G10G08G09G15G27
  -5180456.75846  -3977867.25946  24892030.4964   24892029.9414   24892034.2264
      3772.4844
 -11609076.78248  -8994335.74547  23285784.4754   23285784.3244   23285787.1774
      2308.7854
  -3238958.67047  -2510560.08246  24138024.7644   24138024.3924   24138026.3084
     -3630.5164
 -17387332.76148 -13500153.66647  22457006.4594   22457005.9174   22457008.1294
     -2337.0804
 -11220523.11047  -8733311.89846  23350863.0934   23350862.1014   23350864.8994
      1723.0554
   2468644.83046   1940207.07445  25375297.5234   25375296.0764   25375297.3074
     -3655.9294
  -8790654.83047  -6843396.27646  24309634.5034   24309634.0894   24309637.3344
     -2963.3124
 -19562453.63048 -15177106.44447  21776460.2374   21776459.8534   21776462.4634
      2686.5814
 -25699053.41949 -20021919.11448  20349705.6324   20349705.8504   20349707.4024
       128.0044
 -18230793.53048 -14166557.81147  21820579.5204   21820579.3254   21820582.0414
      1435.2854
 10  1  1  0 18  0.0000000  0 10G12G17G05G28G18G10G08G09G15G27
  -5293609.59246  -4066038.20346  24870498.3524   24870498.0154   24870502.0174
      3770.1664
 -11678186.20748  -9048187.23147  23272633.5934   23272633.6874   23272635.1494
      2298.0954
  -3130037.32947  -2425686.33246  24158751.6914   24158751.1994   24158753.6274
     -3631.4204
 -17317080.74048 -13445411.83347  22470374.7964   22470374.5224   22470376.8714
     -2346.8384
 -11271985.74447  -8773412.65846  23341069.2074   23341068.7784   23341070.9694
      1706.9744
   2578276.39846   2025634.21545  25396158.7264   25396155.2694   25396165.0064
     -3652.3514
  -8701750.47147  -6774120.14646  24326552.3344   24326551.1974   24326554.9084
     -2964.1334
 -19642950.69548 -15239831.42047  21761141.7084   21761142.1964   21761144.6194
      2679.5154
 -25702666.27849 -20024734.33248  20349018.1714   20349018.3024   20349019.8614
       112.4874
 -18273781.21048 -14200054.69647  21812398.9874   21812398.5884   21812402.1394
      1430.0514
 10  1  1  0 18 30.0000000  0 10G12G17G05G28G18G10G08G09G15G27
  -5406675.09346  -4154141.16246  24848983.2894   24848983.1144   24848985.8664
      3767.5894
 -11746960.10748  -9101777.28147  23259546.3174   23259546.2004   23259548.0854
      2286.9044
  -3021071.67847  -2340778.03546  24179486.6014   24179486.7944   24179490.4264
     -3633.0184
 -17246522.31348 -13390431.24347  22483801.7564   22483801.4284   22483803.4564
     -2356.9914
 -11322954.77947  -8813128.77846  23331369.8784   23331370.3244   23331372.3114
      1690.6564
   2687812.94946   2110987.35045  25417003.2474   25417004.8754   25417007.5624
     -3649.1544
  -8612795.02747  -6704804.23246  24343480.2864   24343479.7784   24343483.8694
     -2965.7264
 -19723218.76848 -15302377.95747  21745867.5654   21745867.7564   21745869.9344
      2671.8134
 -25705799.43649 -20027175.75748  20348421.9234   20348422.1804   20348423.9154
        96.3864
 -18316597.68648 -14233418.17447  21804251.6104   21804251.0994   21804254.2964
      1424.3994
 10  1  1  0 19  0.0000000  0  9G12G17G05G28G18G08G09G15G27
  -5519652.61946  -4242175.57446  24827484.2284   24827483.9644   24827485.0644
      3764.7224
 -11815396.70048  -9155104.48647  23246523.3574   23246523.8634   23246525.6174
      2275.3824
  -2912065.46447  -2255838.13346  24200229.8454   24200229.6204   24200232.8454
     -3634.3174
 -17175660.20948 -13335214.02347  22497286.5684   22497285.9484   22497287.1754
     -2367.2014
 -11373429.30747  -8852459.58546  23321765.4684   23321764.4944   23321766.0804
      1674.1754
  -8523791.00747  -6635450.45446  24360417.2914   24360416.8924   24360418.7654
     -2967.5274
 -19803257.99848 -15364746.16647  21730636.6864   21730636.4324   21730638.9054
      2663.8694
 -25708452.96549 -20029243.44948  20347916.9794   20347917.2394   20347918.6444
        80.2774
 -18359243.79848 -14266648.90147  21796136.1144   21796135.9034   21796138.8084
      1418.5144
 10  1  1  0 19 30.0000000  0  9G12G17G05G28G18G08G09G15G27
  -5632539.52947  -4330139.33646  24806002.0434   24806002.3374   24806005.1834
      3761.0964
 -11883492.80248  -9208166.38347  23233565.1594   23233564.5774   23233566.9494
      2264.0774
  -2803021.04647  -2170868.47146  24220980.0404   24220980.1144   24220983.6304
     -3635.5614
 -17104496.66248 -13279761.91047  22510828.5124   22510827.9314   22510829.8084
     -2377.2564
 -11423407.19647  -8891403.39346  23312254.5244   23312253.5774   23312256.1144
      1657.4624
  -8434738.21547  -6566058.66946  24377363.3784   24377363.2144   24377366.3224
     -2969.2694
 -19883067.11648 -15426935.07747  21715449.4074   21715448.9554   21715451.9534
      2656.4324
 -25710625.67549 -20030936.47348  20347503.6474   20347503.7354   20347505.2624
        64.3114
 -18401719.21548 -14299746.62047  21788053.3004   21788053.3954   21788055.9994
      1412.8894
 10  1  1  0 20  0.0000000  0  9G12G17G05G28G18G08G09G15G27
  -5745333.19347  -4418030.47746  24784538.2394   24784538.3644   24784540.4684
      3758.3404
 -11951245.20448  -9260960.46147  23220672.1494   23220672.3624   23220674.3744
      2252.5834
  -2693940.65547  -2085870.78346  24241737.5324   24241737.5744   24241740.9064
     -3636.6274
 -17033033.25248 -13224076.13847  22524427.3954   22524427.3884   22524429.2534
     -2386.9844
 -11472886.79647  -8929958.92346  23302839.0704   23302838.8974   23302840.7044
      1641.0474
  -8345636.51347  -6496628.77946  24394318.8544   24394317.6494   24394322.7684
     -2970.6064
 -19962644.97048 -15488943.78347  21700306.1134   21700305.9434   21700309.1524
      2648.6064
 -25712316.15349 -20032253.73448  20347181.8144   20347182.0494   20347183.6974
        48.2604
 -18444023.42148 -14332710.92647  21780002.9994   21780003.1474   21780005.8874
      1407.2334
 10  1  1  0 20 30.0000000  0  9G12G17G05G28G18G08G09G15G27
  -5858032.36047  -4505847.96146  24763092.0244   24763092.3524   24763094.0634
      3755.8364
 -12018651.14448  -9313484.55847  23207845.4214   23207844.8704   23207847.3244
      2241.2534
  -2584827.08847  -2000847.23946  24262501.0234   24262502.0034   24262504.3624
     -3637.2554
 -16961271.92248 -13168158.22447  22538083.1274   22538082.5684   22538084.0094
     -2396.8224
 -11521866.11647  -8968124.62746  23293519.2864   23293518.3234   23293520.3074
      1624.6024
  -8256486.48847  -6427161.23546  24411283.2194   24411283.4504   24411285.1444
     -2971.8714
 -20041990.21548 -15550771.24047  21685207.4604   21685206.9784   21685210.8954
      2641.2404
 -25713523.66849 -20033194.66248  20346951.9844   20346952.2604   20346953.8294
        32.5224
 -18486156.51448 -14365541.90048  21771985.5724   21771985.1214   21771988.4244
      1401.8584
 10  1  1  0 21  0.0000000  0  9G12G17G05G28G18G08G09G15G27
  -5970637.79847  -4593592.45546  24741664.6164   24741665.5104   24741667.1534
      3751.8384
 -12085710.67848  -9365738.74047  23195084.5284   23195083.9814   23195086.2134
      2229.3944
  -2475686.38947  -1915802.55546  24283270.0664   24283271.1104   24283273.0214
     -3638.4364
 -16889217.97248 -13112012.28547  22551794.9054   22551794.5974   22551796.2454
     -2406.7074
 -11570346.64947  -9005901.68946  23284293.9704   23284292.7544   23284294.4054
      1607.4604
  -8167291.85347  -6357658.94046  24428256.6034   24428255.9464   24428257.5794
     -2973.9224
 -20121105.22948 -15612419.28747  21670152.3624   21670152.2414   21670154.4974
      2633.3524
 -25714250.46349 -20033761.00448  20346813.8614   20346813.8694   20346815.5024
        16.1494
 -18528121.83049 -14398242.13648  21763999.6844   21763999.2914   21764002.7824
      1395.9814
 10  1  1  0 21 30.0000000  0  9G12G17G05G28G18G08G09G15G27
  -6083130.86047  -4681249.38446  24720257.9044   24720258.7554   24720260.0824
      3748.7774
 -12152404.47648  -9417707.93447  23182392.6404   23182392.6834   23182394.6334
      2217.4464
  -2366505.16047  -1830726.26546  24304046.4864   24304046.3644   24304049.5404
     -3639.3814
 -16816857.31648 -13055627.36047  22565564.2804   22565564.2714   22565565.9164
     -2416.4934
 -11618311.03348  -9043276.54146  23275166.6604   23275166.1084   23275167.0104
      1591.1794
  -8078037.37547  -6288109.99546  24445241.7374   24445240.7464   24445244.1934
     -2975.1054
 -20199972.65948 -15673874.40947  21655144.4024   21655143.8604   21655146.9524
      2625.3924
 -25714479.24849 -20033939.28248  20346770.2104   20346770.4474   20346772.0834
         -.0504
 -18569902.96349 -14430798.85448  21756049.3204   21756049.0694   21756052.0194
      1390.3024
 10  1  1  0 22  0.0000000  0 10G12G17G22G05G28G18G08G09G15G27
  -6195535.03447  -4768837.00246  24698868.2344   24698867.9904   24698870.2984
      3745.5214
 -12218755.37748  -9469409.92747  23169766.5094   23169766.1844   23169769.1044
      2205.9334
  -2081883.17247  -1387335.06346  25533409.6444   25533409.8824   25533410.5154
      2801.8624
  -2257311.42247  -1745640.23946  24324825.3724   24324825.4644   24324828.4794
     -3639.9024
 -16744217.29648 -12999024.75547  22579387.3814   22579386.9444   22579389.5834
     -2425.9474
 -11665782.74147  -9080267.47446  23266131.9614   23266130.6034   23266132.8964
      1574.4894
  -7988748.11347  -6218533.97146  24462232.6634   24462231.8364   24462234.6354
     -2976.6784
 -20278617.32948 -15735155.95747  21640178.9594   21640178.4864   21640181.6354
      2617.8554
 -25714234.61549 -20033748.66648  20346816.7464   20346817.0724   20346818.7134
       -15.9274
 -18611525.22549 -14463231.77148  21748128.9094   21748128.6314   21748131.1264
      1384.8964
 10  1  1  0 22 30.0000000  0 10G12G17G22G05G28G18G08G09G15G27
  -6307838.07447  -4856345.90146  24677497.8674   24677496.6604   24677500.7074
      3741.5614
 -12284751.11748  -9520835.17247  23157208.2404   23157208.3504   23157210.5244
      2193.8034
  -2165772.14047  -1452703.12746  25517446.1804   25517445.5174   25517445.6164
      2791.4704
  -2148097.20647  -1660538.24846  24345608.5194   24345608.7044   24345611.6374
     -3640.7924
 -16671289.58248 -12942197.96647  22593265.0354   22593264.5034   22593266.1654
     -2435.7384
 -11712749.85147  -9116865.22846  23257194.6114   23257194.6224   23257196.4754
      1556.5064
  -7899414.53447  -6148923.41246  24479231.9574   24479231.1564   24479234.5274
     -2978.5234
 -20357027.88848 -15796255.09147  21625257.4494   21625257.1164   21625260.5284
      2609.6524
 -25713505.96749 -20033180.89548  20346955.5504   20346955.8884   20346957.3124
       -32.4934
 -18652978.45049 -14495532.98148  21740240.4454   21740240.3164   21740243.3124
      1378.7444
 10  1  1  0 23  0.0000000  0 10G12G17G22G05G28G18G08G09G15G27
  -6420041.17847  -4943776.91046  24656146.0644   24656146.2374   24656149.1374
      3737.9344
 -12350390.76948  -9571982.95047  23144717.5524   23144718.0684   23144719.1494
      2181.8014
  -2249370.37246  -1517844.62546  25501537.7184   25501536.6774   25501538.3184
      2781.4684
  -2038868.69247  -1575425.11346  24366393.9594   24366394.4644   24366396.7004
     -3641.5604
 -16598079.44548 -12885151.11247  22607196.5364   22607196.1784   22607197.5994
     -2445.3724
 -11759213.99347  -9153071.05646  23248353.1824   23248352.4924   23248355.0584
      1539.8864
  -7810039.88147  -6079280.82446  24496239.7404   24496238.4404   24496241.8064
     -2980.0614
 -20435206.08848 -15857173.17547  21610380.7844   21610380.5604   21610383.3014
      2601.6174
 -25712294.74349 -20032237.09148  20347185.9324   20347186.2414   20347187.8774
       -48.8454
 -18694265.61349 -14527704.78848  21732383.8954   21732383.5144   21732386.4624
      1373.1134
 10  1  1  0 23 30.0000000  0 10G12G17G22G05G28G18G08G09G15G27
  -6532132.61247  -5031120.84646  24634815.9874   24634815.6764   24634818.0164
      3734.5694
 -12415662.60148  -9622844.11347  23132296.6964   23132296.6264   23132298.4594
      2169.6804
  -2332665.96746  -1582750.28546  25485687.6934   25485687.3724   25485687.9544
      2771.5144
  -1929618.68847  -1490295.24946  24387183.2294   24387183.5264   24387186.2594
     -3641.8784
 -16524579.19248 -12827878.18547  22621182.9204   22621182.6554   22621184.1554
     -2454.8054
 -11805164.11947  -9188876.33846  23239609.5214   23239609.2444   23239610.8224
      1523.1914
  -7720615.52847  -6009599.51946  24513256.2334   24513254.3304   24513259.7824
     -2981.4564
 -20513141.80248 -15917902.29647  21595550.0484   21595549.8844   21595552.4214
      2593.8964
 -25710591.08549 -20030909.57148  20347510.2094   20347510.5334   20347511.9544
       -64.9374
 -18735377.49949 -14559740.01248  21724560.3144   21724560.0884   21724563.1284
      1367.5584
 10  1  1  0 24  0.0000000  0 11G12G17G22G05G28G18G10G08G09G15G27
  -6644116.00847  -5118380.69346  24613506.2824   24613505.6994   24613507.0684
      3730.9434
 -12480569.33548  -9673420.78247  23119944.8244   23119945.3194   23119946.8454
      2157.4294
  -2415661.89346  -1647422.38646  25469893.1524   25469893.4704   25469891.1314
      2761.6154
  -1820355.66047  -1405155.22446  24407975.1374   24407975.7024   24407977.7464
     -3642.0724
 -16450796.41448 -12770385.11747  22635223.7564   22635222.7464   22635224.3584
     -2464.2244
 -11850603.88648  -9224283.96146  23230962.4644   23230962.2884   23230963.3084
      1506.2244
  -1045450.394 7                  25644967.785
     -3609.609
  -7631146.96047  -5939883.78846  24530281.8444   24530281.8584   24530284.0784
     -2982.7374
 -20590839.30048 -15978445.79647  21580765.0424   21580764.5434   21580767.0744
      2585.8974
 -25708399.40249 -20029201.77048  20347927.2024   20347927.6574   20347928.9694
       -81.1784
 -18776319.22849 -14591642.63748  21716769.3984   21716769.3464   21716772.2894
      1361.8624
 10  1  1  0 24 30.0000000  0 11G12G17G22G05G28G18G10G08G09G15G27
  -6755988.18247  -5205553.84446  24592217.5314   24592216.8114   24592219.7484
      3726.9934
 -12545107.03848  -9723709.89947  23107664.1434   23107664.6474   23107666.3164
      2145.0794
  -2498354.54146  -1711858.25246  25454158.1434   25454157.5574   25454158.0884
      2751.2224
  -1711081.16447  -1320006.25746  24428769.6664   24428770.0054   24428772.7144
     -3642.4524
 -16376732.12748 -12712672.68547  22649317.5524   22649316.1324   22649318.0704
     -2473.4794
 -11895530.97547  -9259292.09746  23222412.2214   23222412.3084   23222414.3274
      1489.2674
   -937235.92547   -799955.01946  25665560.3224   25665559.2444   25665563.1504
     -3605.2664
  -7541633.68746  -5870133.21846  24547315.0734   24547314.4874   24547318.3814
     -2984.1464
 -20668296.03848 -16038801.69047  21566025.4344   21566025.4244   21566027.4504
      2577.8234
 -25705718.02749 -20027112.39348  20348437.5684   20348437.8004   20348439.2544
       -97.5254
 -18817089.51849 -14623411.67848  21709010.9074   21709010.6694   21709014.0774
      1356.1204
 10  1  1  0 25  0.0000000  0 11G12G17G22G05G28G18G10G08G09G15G27
  -6867749.06147  -5292640.21446  24570950.0404   24570950.8174   24570951.8904
      3723.2804
 -12609274.72148  -9773710.68047  23095453.3324   23095453.1184   23095455.2864
      2132.3294
  -2580743.04647  -1776057.04246  25438479.6144   25438480.7204   25438480.6324
      2741.1294
  -1601799.73447  -1234851.87946  24449565.9104   24449565.5114   24449568.7794
     -3642.8804
 -16302390.28248 -12654743.97947  22663464.1744   22663464.0984   22663466.0694
     -2482.9614
 -11939945.60847  -9293900.90346  23213960.8174   23213960.2944   23213962.5754
      1471.6264
   -829147.16347   -715730.00646  25686128.6554   25686128.0924   25686132.6324
     -3600.9474
  -7452077.92546  -5800349.53246  24564357.4724   24564357.4954   24564361.5764
     -2985.9254
 -20745513.37148 -16098971.02647  21551331.3574   21551331.1074   21551333.9794
      2569.6974
 -25702547.75649 -20024642.05848  20349040.9044   20349041.1804   20349042.4644
      -114.0294
 -18857690.28449 -14655048.61848  21701284.9894   21701284.5594   21701287.7614
      1350.2914
 10  1  1  0 25 30.0000000  0 10G12G17G22G05G28G18G08G09G15G27
  -6979396.49447  -5379638.25446  24549703.7814   24549704.0564   24549706.9574
      3719.0424
 -12673070.09448  -9823421.35047  23083313.5614   23083313.5174   23083314.4624
      2119.9254
  -2662825.52047  -1840017.39146  25422859.9294   25422857.7334   25422859.6254
      2730.3904
  -1492513.90547  -1149694.10246  24470361.2554   24470362.0274   24470363.8234
     -3643.3324
 -16227772.92848 -12596600.59047  22677663.6014   22677663.5814   22677665.0564
     -2492.1514
 -11983846.31347  -9328109.24846  23205607.4624   23205606.5444   23205608.5884
      1454.4574
  -7362480.77146  -5730533.59146  24581407.0974   24581407.3694   24581409.8574
     -2988.1084
 -20822490.06848 -16158952.84847  21536683.1304   21536682.9084   21536685.6834
      2561.5504
 -25698887.99949 -20021790.30248  20349737.3374   20349737.4284   20349738.9884
      -130.4974
 -18898121.64549 -14686553.55748  21693591.0244   21693590.4624   21693594.0204
      1344.5444
 10  1  1  0 26  0.0000000  0 10G12G17G22G05G28G18G08G09G15G27
  -7090927.55847  -5466545.56346  24528480.5904   24528480.4014   24528483.7014
      3715.8644
 -12736488.82148  -9872838.53547  23071245.1264   23071245.3774   23071246.5214
      2107.8474
  -2744598.12947  -1903736.35046  25407300.5494   25407300.0434   25407300.3804
      2720.4064
  -1383225.26247  -1064534.12646  24491159.0994   24491159.9004   24491162.1274
     -3642.7504
 -16152881.14548 -12538243.35447  22691915.0384   22691914.3394   22691916.2104
     -2501.0184
 -12027230.84847  -9361915.40146  23197351.9754   23197350.2584   23197351.8544
      1437.3274
  -7272841.08346  -5660684.53746  24598464.7464   24598464.9564   24598466.9324
     -2988.4874
 -20899224.39048 -16218745.81447  21522080.9704   21522080.6544   21522082.9104
      2553.8524
 -25694737.37549 -20018556.05348  20350527.1044   20350527.2844   20350528.7654
      -146.5034
 -18938382.24149 -14717925.43448  21685929.6364   21685929.5134   21685932.2894
      1339.2754
 10  1  1  0 26 30.0000000  0 10G12G17G22G05G28G18G08G09G15G27
  -7202340.85947  -5553361.09046  24507278.8384   24507278.7254   24507281.3264
      3711.6624
 -12799529.07048  -9921960.79747  23059248.9694   23059248.8404   23059250.7344
      2094.7624
  -2826059.67547  -1967212.87546  25391797.1094   25391797.6564   25391798.7364
      2709.8964
  -1273937.37847   -979374.74746  24511955.1294   24511955.5234   24511958.4044
     -3643.0334
 -16077717.44548 -12479674.24547  22706218.1504   22706216.8864   22706219.4184
     -2510.1944
 -12070098.32447  -9395318.63046  23189193.9734   23189193.4254   23189195.3274
      1420.0034
  -7183160.31446  -5590803.45846  24615530.0004   24615530.9424   24615533.1644
     -2989.7854
 -20975715.92148 -16278349.58847  21507524.7844   21507525.2084   21507527.5324
      2545.3784
 -25690095.13449 -20014938.72648  20351410.4274   20351410.5864   20351412.1324
      -163.1794
 -18978472.87949 -14749164.88048  21678300.7424   21678301.0594   21678303.3314
      1333.2584
 10  1  1  0 27  0.0000000  0 10G12G17G22G05G28G18G08G09G15G27
  -7313634.01947  -5640083.00146  24486100.1274   24486101.4434   24486101.9854
      3707.4394
 -12862187.90948  -9970785.86347  23047325.5214   23047325.5834   23047327.5044
      2082.1294
  -2907207.12247  -2030444.66946  25376356.5194   25376357.1284   25376354.5204
      2699.7584
  -1164652.39947   -894217.62846  24532751.6294   24532752.7734   24532753.8134
     -3642.9704
 -16002283.53948 -12420894.57347  22720572.8814   22720572.2384   22720574.9264
     -2519.2244
 -12112446.82647  -9428317.48246  23181135.1784   23181134.1694   23181134.7164
      1402.8744
  -7093438.30046  -5520890.22946  24632604.7734   24632603.2014   24632606.2264
     -2991.7504
 -21051963.33348 -16337763.14247  21493015.7104   21493015.3554   21493018.3054
      2537.4474
 -25684960.34949 -20010937.60048  20352387.5474   20352387.7804   20352389.2084
      -179.5024
 -19018393.20749 -14780271.61748  21670704.0614   21670704.1364   21670706.5374
      1327.6234
 10  1  1  0 27 30.0000000  0 10G12G17G22G05G28G18G08G09G15G27
  -7424805.20447  -5726709.88046  24464945.8694   24464946.6334   24464947.9264
      3703.4244
 -12924462.77548 -10019311.72747  23035474.8664   23035475.6734   23035477.2754
      2069.1494
  -2988038.16847  -2093429.95746  25360973.0624   25360973.6334   25360975.2964
      2689.0224
  -1055373.18047   -809065.01046  24553546.8034   24553547.3914   24553550.2684
     -3642.5954
 -15926582.07748 -12361906.42847  22734978.1374   22734977.6104   22734979.1114
     -2527.9194
 -12154275.14947  -9460910.97146  23173174.1324   23173175.5444   23173177.0014
      1385.5504
  -7003675.73046  -5450945.40346  24649685.5314   24649684.3844   24649686.6834
     -2992.7904
 -21127965.74148 -16396985.78347  21478552.8094   21478552.6954   21478554.7564
      2529.1734
 -25679332.71849 -20006552.43648  20353458.3994   20353458.6314   20353460.2004
      -195.9834
 -19058143.19849 -14811245.61348  21663139.8984   21663139.8524   21663142.6754
      1321.9004
 10  1  1  0 28  0.0000000  0 10G12G17G22G05G28G18G08G09G15G27
  -7535852.39047  -5813240.13046  24443813.4224   24443813.3324   24443817.2244
      3699.6794
 -12986351.00848 -10067536.31647  23023697.9714   23023697.9894   23023700.8674
      2056.6674
  -3068550.30146  -2156166.68946  25345653.4984   25345652.4154   25345653.8464
      2678.5394
   -946102.64247   -723919.12846  24574340.1754   24574340.8124   24574343.8524
     -3642.0494
 -15850614.86248 -12302711.20947  22749434.3014   22749434.0904   22749435.2804
     -2536.3734
 -12195582.01048  -9493098.15546  23165315.5204   23165315.6714   23165315.4974
      1368.2854
  -6913872.44246  -5380968.84346  24666774.4264   24666773.8814   24666777.4084
     -2993.5004
 -21203722.22248 -16456016.79047  21464136.9054   21464136.4324   21464139.4024
      2521.2854
 -25673211.70849 -20001782.82248  20354623.3274   20354623.5474   20354624.9874
      -212.0444
 -19097722.95049 -14842086.96348  21655608.1174   21655607.8464   21655611.0224
      1316.7304
 10  1  1  0 28 30.0000000  0 10G12G17G22G05G28G18G08G09G15G27
  -7646775.76947  -5899673.87446  24422706.2914   24422706.0464   24422707.8574
      3695.1164
 -13047851.74948 -10115458.96747  23011994.9204   23011995.1734   23011996.1834
      2043.3154
  -3148743.29546  -2218654.74046  25330394.4034   25330393.3764   25330391.5074
      2667.5044
   -836845.32347   -638783.58246  24595131.4454   24595131.7824   24595134.0094
     -3642.1724
 -15774385.88548 -12243312.00647  22763939.9794   22763939.8244   22763942.3184
     -2545.6354
 -12236368.25548  -9524879.63946  23157554.1524   23157552.7454   23157554.7254
      1350.3194
  -6824031.53146  -5310962.94846  24683870.6914   24683870.1034   24683873.9524
     -2995.1974
 -21279233.77048 -16514856.93847  21449767.3924   21449767.2424   21449769.7254
      2512.8224
 -25666598.34449 -19996629.55848  20355881.7664   20355881.9614   20355883.5784
      -228.9424
 -19137134.45149 -14872797.20948  21648108.4154   21648108.2804   21648110.8914
      1310.7464
 10  1  1  0 29  0.0000000  0 10G12G17G22G05G28G18G08G09G15G27
  -7757569.70847  -5986006.82146  24401623.0294   24401622.5294   24401624.8814
      3691.2534
 -13108958.84348 -10163074.87447  23000366.5044   23000366.3654   23000368.5234
      2030.5434
  -3228611.42546  -2280889.67745  25315193.7264   25315194.4974   25315194.6344
      2656.4364
   -727600.05247   -553657.41346  24615920.1294   24615921.0344   24615924.0154
     -3641.3544
 -15697893.51448 -12183707.56147  22778496.1634   22778495.5634   22778497.8274
     -2554.0094
 -12276628.69548  -9556251.42046  23149893.7324   23149891.9464   23149893.8504
      1333.4434
  -6734149.96847  -5240925.37946  24700974.8474   24700973.7064   24700977.9214
     -2996.6104
 -21354495.71848 -16573502.59947  21435445.8334   21435445.9284   21435448.7704
      2504.7324
 -25659488.51149 -19991089.43348  20357234.6554   20357234.8864   20357236.4784
      -245.1214
 -19176373.99949 -14903373.46348  21640641.2584   21640640.7744   21640643.9964
      1305.2994
 10  1  1  0 29 30.0000000  0  9G12G17G05G28G18G08G09G15G27
  -7868233.98247  -6072238.64346  24380563.9694   24380563.9164   24380566.3384
      3686.2214
 -13169671.53848 -10210383.46447  22988813.4134   22988813.9184   22988815.0304
      2017.1854
   -618371.55747   -468544.31946  24636705.7634   24636705.7234   24636708.1734
     -3640.4854
 -15621141.92348 -12123901.12847  22793101.4134   22793101.1904   22793102.9754
     -2562.6844
 -12316363.96048  -9587213.98146  23142331.2684   23142330.1854   23142333.0464
      1315.7814
  -6644229.92847  -5170857.82546  24718085.6034   24718085.4684   24718089.2044
     -2997.7844
 -21429508.96148 -16631954.46947  21421170.9824   21421171.1624   21421173.4134
      2496.3364
 -25651883.37349 -19985163.35848  20358681.9444   20358682.0774   20358683.7044
      -261.7654
 -19215443.46149 -14933817.18548  21633206.8444   21633207.0484   21633209.1504
      1299.4754
 10  1  1  0 30  0.0000000  0  9G12G17G05G28G18G08G09G15G27
  -7978766.78847  -6158368.11046  24359530.2574   24359529.9604   24359532.1504
      3682.6634
 -13229987.18148 -10257382.66147  22977335.6774   22977336.1824   22977337.9514
      2004.4504
   -509162.35547   -383446.25946  24657487.1634   24657488.3384   24657491.5424
     -3639.5544
 -15544133.09148 -12063894.24747  22807755.9484   22807754.8374   22807757.3304
     -2570.6754
 -12355572.70048  -9617766.25646  23134869.4494   23134869.7354   23134872.1804
      1298.4954
  -6554271.37947  -5100760.27046  24735203.9504   24735203.4894   24735207.9844
     -2998.6974
 -21504272.63148 -16690211.86047  21406943.8104   21406943.3334   21406946.8184
      2488.2644
 -25643782.42949 -19978850.93648  20360223.5444   20360223.7944   20360225.2024
      -277.8644
 -19254342.89649 -14964128.42748  21625804.3534   21625803.8384   21625806.9304
      1294.2424
 10  1  1  0 30 30.0000000  0  9G12G17G05G28G18G08G09G15G27
  -8089167.80647  -6244394.83046  24338521.2794   24338521.4344   24338523.7474
      3677.4784
 -13289905.18648 -10304072.00247  22965933.4854   22965933.1404   22965935.9004
      1990.0414
   -399976.93847   -298366.74546  24678264.8984   24678264.9724   24678267.6114
     -3639.4344
 -15466870.92948 -12003689.96847  22822458.6094   22822458.3204   22822459.4194
     -2580.1164
 -12394255.80048  -9647908.94746  23127509.7304   23127508.3124   23127509.7044
      1280.3124
  -6464276.84647  -5030634.67746  24752330.1174   24752328.7424   24752332.7524
     -3001.0914
 -21578787.58848 -16748275.45047  21392764.0984   21392764.0974   21392767.0284
      2479.0814
 -25635187.20249 -19972153.36348  20361859.1474   20361859.4014   20361860.8884
      -295.2814
 -19293073.97349 -14994308.48648  21618434.1394   21618433.6024   21618436.6234
      1287.7074
 10  1  1  0 31  0.0000000  0  9G12G17G05G28G18G08G09G15G27
  -8199431.70247  -6330314.72546  24317538.6754   24317538.7334   24317541.3964
      3673.6494
 -13349419.46148 -10350446.75747  22954608.2154   22954608.0934   22954611.4394
      1977.3144
   -290815.15847   -213305.64246  24699037.7984   24699038.4274   24699041.0224
     -3637.9684
 -15389354.17348 -11943287.30747  22837209.1154   22837209.2694   22837210.8164
     -2587.8994
 -12432408.62348  -9677638.43546  23120248.5484   23120248.7384   23120251.6544
      1263.0824
  -6374243.67147  -4960478.94846  24769462.7844   24769463.1624   24769466.4014
     -3001.5314
 -21653049.71748 -16806142.03547  21378632.6104   21378632.1164   21378635.0664
      2471.4624
 -25626093.44749 -19965067.32548  20363589.6084   20363589.8264   20363591.2344
      -311.2124
 -19331633.49549 -15024354.85848  21611096.5264   21611096.2444   21611099.3114
      1282.6744
 10  1  1  0 31 30.0000000  0 10G12G17G22G05G28G18G08G09G15G27
  -8309561.45747  -6416130.09546  24296581.2594   24296581.1244   24296583.5544
      3668.9934
 -13408531.90448 -10396508.39447  22943359.6234   22943359.9304   22943361.4344
      1963.7474
  -1292619.81747   -996379.11546  25240141.7834   25240143.1904   25240141.8054
      2601.7014
   -181683.59647   -128268.08846  24719804.2094   24719804.9744   24719805.8414
     -3637.4174
 -15311589.15048 -11882691.19047  22852007.4474   22852007.1744   22852008.5074
     -2596.2484
 -12470033.76248  -9706956.73546  23113088.8144   23113087.9294   23113088.1874
      1245.4064
  -6284176.83747  -4890297.00346  24786602.2324   24786601.4164   24786605.4834
     -3002.5604
 -21727062.23948 -16863814.10647  21364548.4014   21364548.0304   21364550.8464
      2462.9214
 -25616505.31849 -19957596.05848  20365414.0294   20365414.3114   20365415.8844
      -327.8124
 -19370025.56849 -15054270.75348  21603790.6774   21603790.4094   21603793.2514
      1277.0594
 10  1  1  0 32  0.0000000  0 10G12G17G22G05G28G18G08G09G15G27
  -8419551.16747  -6501836.34446  24275651.3844   24275651.1574   24275653.6974
      3664.3434
 -13467236.29148 -10442252.06847  22932188.7214   22932188.4274   22932190.0334
      1949.9634
  -1370501.98247  -1057066.46346  25225319.7894   25225320.3724   25225320.0714
      2590.1864
    -72580.82647    -43252.96646  24740565.7584   24740566.9654   24740570.1014
     -3635.9434
 -15233574.43148 -11821900.50647  22866853.1584   22866852.7704   22866855.0304
     -2604.4984
 -12507126.82548  -9735860.44046  23106031.3294   23106030.2484   23106032.3044
      1227.5554
  -6194072.65447  -4820085.96646  24803748.1544   24803747.4354   24803751.3424
     -3003.7574
 -21800820.37348 -16921287.96247  21350513.0734   21350512.9124   21350515.5664
      2454.4724
 -25606418.50549 -19949736.20948  20367333.6174   20367333.9674   20367335.2184
      -344.4114
 -19408246.50549 -15084053.29948  21596517.2674   21596517.0604   21596520.1344
      1271.3754
 10  1  1  0 32 30.0000000  0 10G12G17G22G05G28G18G08G09G15G27
  -8529391.63947  -6587426.26946  24254749.8514   24254749.9534   24254751.7574
      3658.0544
 -13525522.95748 -10487670.24547  22921096.7504   22921097.5554   22921098.6994
      1935.2744
  -1448036.56747  -1117483.01046  25210565.0144   25210566.0534   25210566.1624
      2578.1424
     36497.50647     41743.11246  24761323.0854   24761323.9504   24761326.2344
     -3636.1974
 -15155305.02848 -11760911.36847  22881747.6054   22881747.4604   22881747.8664
     -2613.7834
 -12543679.39548  -9764342.95646  23099074.4514   23099073.9064   23099074.9254
      1208.7714
  -6103924.32547  -4749840.49946  24820902.4684   24820901.9854   24820906.3154
     -3006.4854
 -21874316.10148 -16978557.34847  21336526.7604   21336527.0254   21336529.5384
      2444.8964
 -25595824.62749 -19941481.24648  20369349.5484   20369349.6934   20369351.1774
      -362.1264
 -19446288.91749 -15113696.73048  21589278.0264   21589277.4154   21589280.7984
      1264.4924
 10  1  1  0 33  0.0000000  0 10G12G17G22G05G28G18G08G09G15G27
  -8639097.19547  -6672911.08246  24233873.6934   24233873.1824   24233875.4464
      3653.8074
 -13583405.26248 -10532773.32747  22910082.3964   22910082.1334   22910084.1404
      1922.3934
  -1525237.78747  -1177639.79946  25195874.8254   25195875.9944   25195875.6814
      2567.5844
    145532.18947    126705.17846  24782071.2414   24782071.3864   24782075.1314
     -3633.6944
 -15076799.04148 -11699737.86747  22896686.8124   22896685.8084   22896687.2934
     -2621.0204
 -12579706.64648  -9792416.16146  23092218.6024   23092218.8224   23092221.9654
      1191.7744
  -6013748.82047  -4679573.87046  24838062.8084   24838061.7174   24838065.3564
     -3006.3104
 -21947564.64748 -17035634.12047  21322588.2894   21322588.6504   21322591.2774
      2437.2864
 -25584739.95849 -19932843.84648  20371458.9124   20371459.1674   20371460.6224
      -377.8744
 -19484169.31749 -15143213.92348  21582069.8744   21582069.8434   21582072.4334
      1259.7764
 10  1  1  0 33 30.0000000  0 10G12G17G22G05G28G18G08G09G15G27
  -8748656.90547  -6758282.22746  24213024.7024   24213024.7334   24213026.7584
      3649.5634
 -13640871.78548 -10577552.43447  22899146.7094   22899147.2624   22899148.7424
      1908.2924
  -1602093.85047  -1237527.63446  25181248.2544   25181247.5794   25181251.2044
      2555.8884
    254529.58947    211638.19946  24802813.5874   24802813.1284   24802816.1774
     -3633.1164
 -14998049.42448 -11638374.53047  22911672.0654   22911672.5144   22911673.8344
     -2629.3384
 -12615198.30648  -9820072.00446  23085464.6664   23085463.9694   23085466.0284
      1173.9064
  -5923537.46147  -4609279.31946  24855229.2914   24855229.3254   24855232.8664
     -3007.8804
 -22020555.98348 -17092510.47647  21308698.5664   21308698.4404   21308701.0474
      2428.3964
 -25573154.92949 -19923816.55648  20373663.4794   20373663.7614   20373665.2284
      -394.7864
 -19521878.30049 -15172597.53848  21574894.0294   21574893.7044   21574896.9894
      1253.7944
 10  1  1  0 34  0.0000000  0 10G12G17G22G05G28G18G08G09G15G27
  -8858071.23947  -6843540.13846  24192203.8204   24192204.3474   24192207.0064
      3644.1624
 -13697922.83648 -10622007.79247  22888290.1824   22888290.5024   22888292.4854
      1894.2504
  -1678605.41147  -1297147.01546  25166688.8204   25166692.4474   25166687.9604
      2543.7254
    363484.85147    296538.37446  24823545.9404   24823546.7884   24823550.1194
     -3631.6044
 -14919060.96248 -11576825.08347  22926703.2404   22926702.9834   22926705.2614
     -2637.5054
 -12650155.83748  -9847311.63946  23078812.9354   23078811.2554   23078813.8044
      1155.8604
  -5833292.56047  -4538958.61946  24872402.1644   24872401.7844   24872405.4344
     -3009.1864
 -22093291.43748 -17149187.43647  21294857.3054   21294856.8984   21294859.7034
      2419.5614
 -25561071.88149 -19914401.19748  20375962.7104   20375963.0564   20375964.5954
      -411.6914
 -19559418.46649 -15201849.61648  21567750.2194   21567750.1054   21567752.7814
      1247.9394
 10  1  1  0 34 30.0000000  0 10G12G17G22G05G28G18G08G09G15G27
  -8967335.97347  -6928681.44046  24171411.7354   24171411.6664   24171413.1764
      3639.7154
 -13754553.62948 -10666135.67347  22877513.7674   22877513.8624   22877516.0354
      1880.4264
  -1754767.89447  -1356494.43046  25152197.2784   25152195.7364   25152199.5344
      2532.4284
    472397.61747    381405.43246  24844271.9994   24844273.2774   24844275.9794
     -3629.8204
 -14839833.60348 -11515089.48347  22941779.4244   22941779.7074   22941780.8014
     -2644.8914
 -12684576.04948  -9874132.60746  23072263.2394   23072262.9694   23072264.4654
      1138.2434
  -5743013.11247  -4468611.00446  24889582.0154   24889580.7804   24889584.5254
     -3010.1754
 -22165767.83448 -17205662.53647  21281065.7364   21281065.3704   21281067.9634
      2411.4264
 -25548488.00049 -19904595.58048  20378357.4894   20378357.7524   20378359.2634
      -427.9864
 -19596787.57849 -15230968.39648  21560639.0464   21560639.0934   21560642.0504
      1242.6124
 10  1  1  0 35  0.0000000  0 10G12G17G22G05G28G18G08G09G15G27
  -9076449.79047  -7013705.18746  24150647.3384   24150647.4774   24150650.0924
      3633.5754
 -13810761.68848 -10709934.15547  22866817.5594   22866817.9644   22866819.9484
      1865.4304
  -1830579.44947  -1415568.33545  25137768.0524   25137766.6284   25137768.2684
      2519.8044
    581264.64147    466236.84846  24864989.1614   24864988.6424   24864992.0394
     -3629.2414
 -14760369.61848 -11453169.49847  22956901.0774   22956900.1844   22956901.7474
     -2653.7054
 -12718457.95848  -9900534.08146  23065814.8224   23065815.3394   23065814.8664
      1119.4174
  -5652699.58247  -4398236.83146  24906768.1514   24906767.5834   24906770.7824
     -3011.6894
 -22237984.93848 -17261935.59647  21267322.9994   21267322.8444   21267324.9954
      2401.7984
 -25535403.12849 -19894399.58048  20380847.3344   20380847.6214   20380849.1174
      -445.5174
 -19633985.79649 -15259954.01748  21553560.7914   21553560.4574   21553563.3384
      1236.1254
 10  1  1  0 35 30.0000000  0 10G12G17G22G05G28G18G08G09G15G27
  -9185412.02647  -7098610.79046  24129912.3724   24129912.2564   24129915.9824
      3629.5644
 -13866545.98548 -10753402.43147  22856202.4504   22856201.9244   22856204.1974
      1852.4744
  -1906038.42547  -1474367.58445  25123411.5604   25123412.2454   25123408.2454
      2509.2234
    690082.34647    551029.83746  24885696.5264   24885696.2834   24885699.0624
     -3626.7644
 -14680672.30648 -11391067.70847  22972067.1934   22972066.0794   22972068.3474
     -2660.4264
 -12751801.99248  -9926516.46346  23059469.8674   23059469.3394   23059471.4264
      1102.3714
  -5562353.88647  -4327837.59746  24923959.7484   24923959.3544   24923962.1354
     -3011.9904
 -22309943.07148 -17318006.86547  21253630.2414   21253629.6754   21253632.4514
      2394.2504
 -25521817.92349 -19883813.71048  20383432.6534   20383432.7654   20383434.4094
      -461.1624
 -19671014.55049 -15288807.58448  21546514.3064   21546514.2604   21546517.1794
      1231.4854
 10  1  1  0 36  0.0000000  0 10G12G17G22G05G28G18G08G09G15G27
  -9294220.11647  -7183396.28646  24109207.0424   24109206.2314   24109209.6144
      3623.9904
 -13921903.68048 -10796538.29247  22845668.4164   22845667.9044   22845670.5464
      1837.6984
  -1981142.73547  -1532890.40045  25109118.8934   25109117.4704   25109115.8814
      2497.2954
    798848.70047    635782.80446  24906393.7434   24906394.4134   24906396.5504
     -3624.6644
 -14600743.49048 -11328785.51847  22987276.7634   22987276.9504   22987277.6014
     -2668.2254
 -12784606.42848  -9952078.36246  23053227.3804   23053226.6894   23053229.9344
      1084.3384
  -5471975.36947  -4257412.77746  24941158.5924   24941158.0384   24941163.0804
     -3013.5154
 -22381640.46648 -17373874.96247  21239986.3414   21239986.0974   21239988.8054
      2385.3294
 -25507731.69949 -19872837.43948  20386113.1114   20386113.3784   20386114.8704
      -478.0484
 -19707873.09849 -15317528.52048  21539500.5414   21539500.2474   21539503.3064
      1225.6134
 10  1  1  0 36 30.0000000  0 10G12G17G22G05G28G18G08G09G15G27
  -9402873.60047  -7268061.31946  24088531.4184   24088531.2734   24088533.2414
      3619.1344
 -13976833.46348 -10839340.72047  22835215.2034   22835215.4674   22835217.2794
      1823.9644
  -2055891.23847  -1591136.00246  25094896.1304   25094896.4574   25094888.9884
      2485.6904
    907559.67147    720492.60546  24927080.7724   24927081.3494   24927083.9824
     -3622.7014
 -14520585.69648 -11266324.90147  23002530.6754   23002530.4594   23002531.8744
     -2675.8554
 -12816871.68948  -9977220.13646  23047087.9424   23047087.9414   23047088.2954
      1066.3234
  -5381566.09147  -4186963.98045  24958362.6514   24958363.3384   24958368.5784
     -3014.2034
 -22453077.26148 -17429539.98847  21226392.1664   21226392.0694   21226394.8234
      2376.9054
 -25493145.26549 -19861471.39248  20388888.7534   20388889.1084   20388890.5634
      -494.6234
 -19744562.66549 -15346117.78848  21532518.5014   21532518.5774   21532520.9794
      1220.2434
 10  1  1  0 37  0.0000000  0 10G12G17G22G05G28G18G08G09G15G27
  -9511364.80947  -7352599.90746  24067886.0594   24067887.0634   24067888.7124
      3613.6574
 -14031327.35148 -10881803.48247  22824845.5364   22824845.5824   22824847.2154
      1809.1634
  -2130276.43947  -1649098.47646  25080737.2124   25080734.5164   25080737.1474
      2473.2784
   1016218.00747    805161.42946  24947757.8684   24947759.3094   24947761.2534
     -3621.2464
 -14440196.10348 -11203683.65447  23017828.1844   23017827.9424   23017829.2864
     -2683.5324
 -12848591.14748 -10001936.60046  23041051.2364   23041049.9764   23041052.4964
      1048.4134
  -5291121.10647  -4116487.35045  24975574.0314   24975572.1224   24975575.3614
     -3015.4514
 -22524247.16648 -17484997.05247  21212848.9834   21212848.6984   21212851.6434
      2367.9334
 -25478052.96549 -19849711.16248  20391760.7764   20391761.0064   20391762.6674
      -511.5224
 -19781077.51349 -15374570.90748  21525570.3884   21525569.7944   21525573.0854
      1214.2574
 10  1  1  0 37 30.0000000  0 10G12G17G22G05G28G18G08G09G15G27
  -9619699.54147  -7437016.56046  24047270.5454   24047270.1474   24047272.9814
      3608.5164
 -14085390.63648 -10923930.70247  22814557.6514   22814557.6994   22814559.2474
      1795.0224
  -2204303.34547  -1706781.83246  25066654.0124   25066653.6924   25066648.8464
      2461.4194
   1124813.70147    889781.41646  24968422.7904   24968423.6614   24968426.0544
     -3618.9734
 -14359584.40148 -11140869.34147  23033167.9374   23033167.4084   23033169.4134
     -2690.9904
 -12879771.72148 -10026233.14946  23035118.5944   23035118.3214   23035119.8854
      1030.4254
  -5200648.15846  -4045988.96045  24992791.1824   24992792.5164   24992794.3144
     -3016.6344
 -22595156.98048 -17540251.44247  21199355.3904   21199355.2014   21199358.0524
      2359.3094
 -25462461.76149 -19837562.17948  20394727.6984   20394727.9304   20394729.4194
      -528.0554
 -19817425.42749 -15402893.95148  21518653.1674   21518653.0184   21518655.8494
      1208.6964
 10  1  1  0 38  0.0000000  0 10G12G17G22G05G28G18G08G09G15G27
  -9727872.64047  -7521307.28446  24026685.9014   24026687.0514   24026687.6614
      3602.8994
 -14139017.60548 -10965717.94747  22804352.5534   22804352.7344   22804355.1134
      1780.2854
  -2277966.34347  -1764181.55246  25052634.3114   25052636.6934   25052628.0034
      2448.9134
   1233347.32347    974353.03746  24989076.7494   24989076.4484   24989078.7594
     -3616.3824
 -14278749.22448 -11077880.90747  23048550.3824   23048549.6214   23048551.6304
     -2698.0764
 -12910408.87448 -10050106.25347  23029288.1084   23029287.6374   23029289.4744
      1012.2164
  -5110144.29146  -3975466.47045  25010012.8944   25010011.6824   25010015.2224
     -3016.8834
 -22665801.90048 -17595299.42147  21185912.1304   21185912.0554   21185914.8084
      2350.4254
 -25446367.98549 -19825021.57948  20397790.2474   20397790.3824   20397792.1044
      -544.8584
 -19853602.84149 -15431084.13248  21511768.9264   21511768.6504   21511771.8474
      1203.1734
 10  1  1  0 38 30.0000000  0 10G12G17G22G05G28G18G08G09G15G27
  -9835882.56547  -7605470.85746  24006132.6214   24006131.9134   24006134.6744
      3597.7464
 -14192206.14648 -11007163.55447  22794231.2784   22794230.9514   22794233.1214
      1765.5134
  -2351263.58147  -1821296.29446  25038687.3974   25038685.6854   25038687.6994
      2436.9974
   1341816.81647   1058874.68946  25009717.2304   25009718.1274   25009720.7114
     -3614.6824
 -14197692.65248 -11014719.94647  23063975.1054   23063974.0024   23063977.6684
     -2705.6404
 -12940501.72248 -10073555.23347  23023562.5554   23023561.6694   23023563.1474
       993.9164
  -5019609.86846  -3904920.19145  25027241.7754   25027240.3214   25027244.7584
     -3018.5344
 -22736181.47548 -17650140.63847  21172519.2194   21172519.0474   21172521.6944
      2341.5914
 -25429771.33549 -19812089.13048  20400948.4494   20400948.8424   20400950.3914
      -561.6234
 -19889609.86749 -15459141.54148  21504916.8724   21504916.7534   21504919.6954
      1197.4034
 10  1  1  0 39  0.0000000  0 10G12G17G22G05G28G18G08G09G15G27
  -9943724.95947  -7689503.88746  23985610.6254   23985609.7524   23985612.6044
      3591.5394
 -14244951.17848 -11048263.57847  22784194.3254   22784194.7694   22784196.7164
      1750.3654
  -2424190.42947  -1878122.46646  25024809.4434   25024809.2554   25024811.3744
      2424.5294
   1450221.40747   1143345.77746  25030346.5674   25030345.8574   25030349.4104
     -3612.7284
 -14116414.23748 -10951386.12147  23079441.8294   23079441.6914   23079443.3454
     -2713.2244
 -12970047.36348 -10096577.81647  23017939.0704   23017938.3484   23017940.7644
       975.3824
  -4929043.40446  -3834348.91045  25044475.4194   25044474.5624   25044481.4364
     -3019.3944
 -22806292.28348 -17704772.42347  21159177.4904   21159177.7844   21159180.4324
      2332.1694
 -25412669.50949 -19798763.03548  20404202.9014   20404203.0684   20404204.7774
      -578.8574
 -19925443.97349 -15487064.21548  21498097.8254   21498097.8274   21498100.7304
      1191.1924
 10  1  1  0 39 30.0000000  0 10G12G17G22G05G28G18G08G09G15G27
 -10051402.54447  -7773408.50346  23965120.5744   23965120.3534   23965122.6274
      3586.5944
 -14297255.43248 -11089020.12447  22774241.0254   22774241.3164   22774243.4214
      1736.2594
  -2496749.76147  -1934662.17646  25011000.3224   25011000.7424   25010998.0054
      2412.4554
   1558553.60947   1227760.45046  25050961.0784   25050961.3444   25050964.1314
     -3609.4214
 -14034921.34248 -10887885.15847  23094949.5334   23094948.0204   23094950.0644
     -2719.6554
 -12999049.73748 -10119177.07647  23012420.7854   23012420.6664   23012422.1144
       957.9154
  -4838449.95946  -3763756.63445  25061714.1314   25061715.6404   25061716.8074
     -3019.7404
 -22876138.29649 -17759197.88047  21145886.4964   21145886.0304   21145889.1354
      2323.9934
 -25395067.45949 -19785047.15948  20407552.4234   20407552.7264   20407554.1964
      -594.9484
 -19961110.03549 -15514855.94948  21491310.9304   21491310.5424   21491313.7184
      1186.3394
 10  1  1  0 40  0.0000000  0 10G12G17G22G05G28G18G08G09G15G27
 -10158907.93347  -7857178.92046  23944662.4384   23944662.7544   23944664.4244
      3579.7304
 -14349111.14748 -11129427.17347  22764373.3584   22764373.0274   22764375.2344
      1720.3254
  -2568933.53947  -1990909.29146  24997265.9374   24997266.6794   24997271.6724
      2399.1294
   1666816.68247   1312121.24146  25071562.8464   25071564.1974   25071565.5994
     -3608.3414
 -13953210.19648 -10824214.15647  23110498.6404   23110497.8344   23110499.6104
     -2728.0094
 -13027502.51048 -10141348.06447  23007006.2224   23007004.7754   23007006.7134
       938.4414
  -4747824.35446  -3693139.27045  25078960.3094   25078962.0074   25078965.3574
     -3022.2924
 -22945712.78249 -17813411.75347  21132646.7004   21132646.4244   21132649.3964
      2313.8694
 -25376958.56249 -19770936.33748  20410998.5664   20410998.6184   20411000.3014
      -612.8434
 -19996602.27349 -15542512.22848  21484556.9214   21484556.5424   21484559.4134
      1179.3744
 10  1  1  0 40 30.0000000  0 10G12G17G22G05G28G18G08G09G15G27
 -10266246.04047  -7940819.01246  23924236.7204   23924236.3254   23924239.6774
      3574.6754
 -14400522.15948 -11169487.69647  22754589.9084   22754590.9774   22754591.9304
      1705.6394
  -2640746.18547  -2046867.22546  24983600.8434   24983601.5774   24983603.5764
      2386.9244
   1775001.85047   1396421.34146  25092149.8654   25092150.6884   25092150.9744
     -3605.2794
 -13871289.25848 -10760379.65647  23126087.6934   23126087.5374   23126089.1614
     -2734.8364
 -13055410.93748 -10163094.90147  23001694.8294   23001695.3244   23001697.1824
       920.5014
  -4657173.41846  -3622502.15745  25096210.2244   25096210.7404   25096212.0994
     -3023.2384
 -23015021.06849 -17867418.20148  21119458.2264   21119457.8694   21119460.6754
      2305.1354
 -25358349.34549 -19756435.65548  20414539.6684   20414539.8694   20414541.6144
      -629.2504
 -20031927.04849 -15570038.02348  21477834.8894   21477834.7104   21477837.6344
      1174.0414
 10  1  1  0 41  0.0000000  0 10G12G17G22G05G28G18G08G09G15G27
 -10373408.56247  -8024322.25146  23903844.6284   23903844.7924   23903846.2944
      3569.6094
 -14451480.30248 -11209195.33547  22744892.9284   22744893.2224   22744895.4864
      1691.6814
  -2712179.52147  -2102529.59146  24970008.5754   24970008.7644   24970004.4384
      2375.1774
   1883112.23347   1480663.23346  25112722.2934   25112723.9684   25112724.4844
     -3602.1794
 -13789154.94448 -10696378.90047  23141717.0254   23141717.1084   23141719.4784
     -2740.7134
 -13082768.56248 -10184412.54947  22996489.6474   22996489.2154   22996490.0834
       903.3874
  -4566491.63546  -3551840.98945  25113466.3214   25113468.5064   25113467.0314
     -3022.6944
 -23084056.57649 -17921212.09148  21106320.8324   21106320.7674   21106323.7364
      2297.1434
 -25339233.47849 -19741540.17948  20418177.2564   20418177.4384   20418179.1584
      -645.0734
 -20067078.56149 -15597428.80648  21471145.8124   21471145.8164   21471148.2764
      1169.3764
 10  1  1  0 41 30.0000000  0 10G12G17G22G05G28G18G08G09G15G27
 -10480398.44647  -8107691.00646  23883484.5504   23883485.8184   23883486.9594
      3563.5834
 -14501987.80448 -11248551.82447  22735281.6414   22735282.0774   22735283.5204
      1676.0624
  -2783235.70847  -2157898.03546  24956484.6394   24956483.9584   24956482.0294
      2362.0714
   1991140.79347   1564841.24546  25133279.9484   25133279.9064   25133281.8654
     -3599.2834
 -13706813.27948 -10632216.55947  23157386.0654   23157385.1974   23157387.4734
     -2748.0294
 -13109578.72848 -10205303.58947  22991388.1634   22991388.4984   22991389.0584
       884.4964
  -4475783.772 6  -3481159.53045  25130728.092                    25130728.7184
     -3024.488
 -23152822.44449 -17974795.88048  21093235.6214   21093234.9514   21093238.0524
      2287.7444
 -25319615.22249 -19726253.23348  20421910.4244   20421910.7154   20421912.3964
      -662.2694
 -20102060.88349 -15624687.75648  21464488.9874   21464488.7244   21464492.0054
      1163.2884
 10  1  1  0 42  0.0000000  0  9G12G17G22G05G28G18G09G15G27
 -10587210.42947  -8190921.08846  23863159.5684   23863159.4404   23863161.7784
      3557.2834
 -14552039.38848 -11287553.04747  22725757.4094   22725757.7494   22725759.5524
      1660.5434
  -2853909.51047  -2212968.56146  24943037.0824   24943037.4684   24943034.5634
      2349.0274
   2099088.20247   1648956.09946  25153821.6814   25153821.3724   25153823.6834
     -3597.2544
 -13624263.06148 -10567891.71547  23173095.2534   23173093.1584   23173096.2884
     -2755.3074
 -13135837.70848 -10225765.12347  22986390.7884   22986390.8954   22986393.4614
       865.7854
 -23221314.42749 -18028166.24348  21080201.3804   21080201.0734   21080204.1044
      2278.2164
 -25299491.53149 -19710572.43948  20425739.8504   20425740.2614   20425741.6654
      -679.4694
 -20136870.67249 -15651812.26148  21457864.8534   21457864.6834   21457867.5674
      1157.1874
 10  1  1  0 42 30.0000000  0  9G12G17G22G05G28G18G09G15G27
 -10693845.80247  -8274013.58546  23842866.8964   23842866.3184   23842868.7194
      3551.4914
 -14601635.60648 -11326199.44647  22716319.6754   22716319.7894   22716321.6764
      1645.3994
  -2924201.88247  -2267741.83046  24929660.9794   24929658.8634   24929659.2484
      2336.2404
   2206949.10547   1733003.56546  25174346.7004   25174346.2264   25174349.7364
     -3593.8904
 -13541509.72048 -10503408.59247  23188842.4784   23188842.8614   23188844.5594
     -2762.0604
 -13161547.72848 -10245798.90447  22981497.0414   22981498.1584   22981499.4394
       847.4784
 -23289534.80249 -18081324.98048  21067219.8574   21067219.5584   21067222.4104
      2269.4854
 -25278864.72049 -19694499.60548  20429664.9434   20429665.1904   20429666.8764
      -696.1344
 -20171510.84449 -15678804.60148  21451272.8664   21451272.6574   21451275.5554
      1151.7314
 10  1  1  0 43  0.0000000  0  9G12G17G22G05G28G18G09G15G27
 -10800299.14747  -8356964.22146  23822609.6984   23822609.9484   23822611.7104
      3545.2044
 -14650770.66848 -11364486.48847  22706969.5084   22706969.9394   22706971.4654
      1629.9304
  -2994107.22147  -2322213.55046  24916356.1954   24916357.2064   24916359.0364
      2323.4954
   2314724.81946   1816984.61545  25194855.9484   25194856.2034   25194859.3514
     -3591.4514
 -13458551.61448 -10438765.91647  23204628.7444   23204629.2574   23204630.5134
     -2768.9704
 -13186704.60448 -10265401.66346  22976710.4774   22976710.8584   22976711.5294
       829.1774
 -23357479.20449 -18134268.65748  21054290.2764   21054290.1414   21054292.3414
      2260.1944
 -25257731.38049 -19678032.07448  20433686.6354   20433686.9064   20433688.5334
      -713.0144
 -20205977.78149 -15705661.95148  21444713.9464   21444713.9854   21444716.8674
      1145.8354
 10  1  1  0 43 30.0000000  0  9G12G17G22G05G28G18G09G15G27
 -10906571.63647  -8439773.93546  23802386.6184   23802386.4574   23802388.4664
      3538.9314
 -14699445.19048 -11402414.68347  22697707.0814   22697706.7464   22697708.8964
      1614.2304
  -3063626.02147  -2376384.06946  24903127.7524   24903127.1974   24903128.4694
      2310.1864
   2422409.27046   1900894.50645  25215347.4244   25215346.9974   25215351.2834
     -3588.5324
 -13375393.57748 -10373967.45047  23220453.5734   23220454.0894   23220454.1534
     -2775.8154
 -13211310.56948 -10284575.14647  22972028.6364   22972028.5984   22972029.4254
       810.3974
 -23425149.40549 -18186998.67448  21041413.2474   21041413.0864   21041415.2094
      2250.5954
 -25236094.57549 -19661172.23148  20437803.8464   20437804.0884   20437805.7334
      -730.0804
 -20240274.35849 -15732386.54348  21438187.5834   21438187.3074   21438190.5804
      1139.9784
 10  1  1  0 44  0.0000000  0  9G12G17G22G05G28G18G09G15G27
 -11012661.95947  -8522441.69246  23782198.9144   23782197.7934   23782201.0534
      3532.9124
 -14747657.76648 -11439982.92847  22688532.5174   22688532.0164   22688533.2894
      1599.3104
  -3132757.21647  -2430252.53446  24889972.9974   24889974.4804   24889975.0484
      2297.6804
   2529999.68346   1984731.18646  25235822.1654   25235822.0094   25235822.5494
     -3585.0964
 -13292038.45448 -10309015.39947  23236315.4054   23236314.5444   23236316.2224
     -2782.1714
 -13235365.60648 -10303319.33347  22967451.0434   22967449.4074   22967453.1654
       792.4224
 -23492544.74749 -18239514.51348  21028588.2584   21028588.0294   21028590.4044
      2241.7774
 -25213954.52649 -19643920.25048  20442017.1174   20442017.3274   20442018.9484
      -746.5444
 -20274401.06349 -15758978.78448  21431693.4954   21431693.2184   21431696.5124
      1134.6004
 10  1  1  0 44 30.0000000  0  9G12G17G22G05G28G18G09G15G27
 -11118564.35147  -8604963.02246  23762046.1784   23762045.8154   23762047.7584
      3526.8544
 -14795401.90648 -11477186.14747  22679447.1114   22679446.8274   22679448.9534
      1583.7314
  -3201494.44847  -2483814.02346  24876892.9604   24876894.2694   24876892.6284
      2284.9744
   2637497.76346   2068495.88245  25256277.5114   25256277.6564   25256277.9734
     -3581.2734
 -13208483.85048 -10243907.91947  23252214.9924   23252213.4224   23252218.0394
     -2788.3874
 -13258864.73548 -10321630.34947  22962979.2654   22962979.2144   22962981.6394
       774.3074
 -23559660.57649 -18291812.55048  21015816.3314   21015816.3854   21015818.4964
      2232.6794
 -25191306.71249 -19626272.61048  20446326.8634   20446327.0824   20446328.6224
      -763.2774
 -20308353.75049 -15785435.42348  21425232.6264   21425232.5014   21425235.5284
      1128.8784
 10  1  1  0 45  0.0000000  0  9G12G17G22G05G28G18G09G15G27
 -11224280.87047  -8687339.50146  23741928.6054   23741929.1364   23741930.9804
      3521.2274
 -14842679.50048 -11514025.82547  22670450.2354   22670450.0534   22670453.0284
      1568.3744
  -3269839.70746  -2537070.09146  24863888.0064   24863885.8864   24863884.1444
      2271.4614
   2744896.80446   2152183.42645  25276715.1294   25276715.0564   25276717.2694
     -3577.4474
 -13124735.92948 -10178649.80747  23268152.1704   23268150.2424   23268153.3964
     -2794.3874
 -13281811.78648 -10339511.17447  22958612.9354   22958613.4324   22958615.3634
       755.9034
 -23626499.62749 -18343894.91348  21003097.4444   21003097.5704   21003099.8584
      2223.8224
 -25168155.51349 -19608232.72348  20450732.4284   20450732.6134   20450734.2084
      -779.8284
 -20342136.29749 -15811759.48148  21418803.9034   21418803.7664   21418806.5564
      1123.6104
 10  1  1  0 45 30.0000000  0  9G12G17G22G05G28G18G09G15G27
 -11329806.90147  -8769567.57346  23721847.2994   23721847.0674   23721850.5024
      3514.0904
 -14889486.18148 -11550498.55447  22661543.1704   22661543.3124   22661545.7994
      1552.3084
  -3337787.93546  -2590016.74946  24850956.5664   24850954.3114   24850959.7244
      2257.9194
   2852197.03846   2235793.96646  25297133.5914   25297132.8454   25297136.1644
     -3575.3214
 -13040794.29748 -10113240.73947  23284125.5154   23284124.7604   23284127.0894
     -2801.1434
 -13304203.20548 -10356959.04647  22954352.9414   22954350.8314   22954353.6434
       736.8804
 -23693058.44649 -18395758.91648  20990431.7394   20990431.6234   20990434.3024
      2213.7894
 -25144497.99649 -19589798.29948  20455234.1534   20455234.4664   20455236.0754
      -797.1344
 -20375745.79149 -15837948.69848  21412408.2724   21412408.0664   21412410.8864
      1117.2924
 10  1  1  0 46  0.0000000  0  9G12G17G22G05G28G18G09G15G27
 -11435142.42047  -8851647.19446  23701803.3194   23701803.8974   23701804.8554
      3508.4784
 -14935821.12048 -11586603.68747  22652725.8884   22652725.6534   22652728.1934
      1537.0324
  -3405338.98347  -2642653.94046  24838102.5044   24838104.0634   24838105.2244
      2245.4774
   2959394.34046   2319324.23846  25317532.1144   25317532.2104   25317535.0494
     -3571.1504
 -12956662.35948 -10047683.37347  23300135.3394   23300133.6454   23300137.7374
     -2806.7044
 -13326039.97248 -10373974.74047  22950197.0194   22950195.6514   22950198.8604
       719.0424
 -23759337.28849 -18447404.76248  20977819.3744   20977819.0204   20977821.7894
      2204.9954
 -25120335.68649 -19570970.53148  20459832.1694   20459832.3164   20459833.9764
      -813.5084
 -20409183.53549 -15864004.08548  21406045.2614   21406045.1184   21406047.9094
      1112.1834
 10  1  1  0 46 30.0000000  0  9G12G17G22G05G28G18G09G15G27
 -11540286.60547  -8933577.70746  23681794.9404   23681795.5154   23681797.5744
      3501.8224
 -14981683.14648 -11622340.33047  22643998.8224   22643998.9594   22644001.1044
      1521.0334
  -3472491.57346  -2694980.68346  24825325.2494   24825325.2434   24825322.0614
      2231.9594
   3066485.45346   2402771.86146  25337911.5494   25337911.5474   25337915.6754
     -3567.7274
 -12872343.16548  -9981980.11647  23316180.6764   23316179.6354   23316183.0054
     -2813.6124
 -13347322.78048 -10390558.75146  22946146.7664   22946144.1114   22946147.1054
       700.4114
 -23825336.28749 -18498832.54248  20965259.6954   20965259.5624   20965262.5654
      2195.6134
 -25095669.61649 -19551750.22448  20464526.0734   20464526.1734   20464527.7564
      -830.5024
 -20442450.77349 -15889926.60948  21399714.7784   21399714.3214   21399717.4024
      1106.3504
 10  1  1  0 47  0.0000000  0  9G12G17G22G05G28G18G09G15G27
 -11645234.39547  -9015355.17846  23661823.8094   23661824.0154   23661826.2174
      3495.1584
 -15027067.08848 -11657704.43447  22635362.2094   22635362.0834   22635364.6284
      1505.1974
  -3539240.94447  -2746993.18546  24812625.1034   24812626.5014   24812621.5764
      2218.7004
   3173470.54546   2486136.86146  25358269.5004   25358270.1894   25358273.2594
     -3564.0924
 -12787835.80848  -9916130.20847  23332262.0014   23332261.5174   23332264.0394
     -2819.7204
 -13368048.09348 -10406708.36247  22942201.6314   22942202.0144   22942204.0214
       682.0284
 -23891051.73949 -18550039.38448  20952754.7784   20952754.2434   20952757.3024
      2185.9854
 -25070497.16849 -19532135.33348  20469315.9764   20469316.4164   20469317.9774
      -847.3194
 -20475544.30049 -15915713.77248  21393417.3254   21393417.0234   21393420.0954
      1100.4264
 10  1  1  0 47 30.0000000  0  9G12G17G22G05G28G18G09G15G27
 -11749986.25447  -9096980.00646  23641890.2684   23641890.2334   23641892.3924
      3487.7354
 -15071972.74548 -11692695.85447  22626817.3944   22626817.7544   22626819.3074
      1488.4304
  -3605586.69146  -2798691.17546  24799995.8594   24799992.3104   24799993.4634
      2204.3024
   3280345.35047   2569415.90246  25378607.3644   25378608.8014   25378610.1864
     -3560.8334
 -12703144.13547  -9850136.69646  23348378.2034   23348378.7844   23348381.2304
     -2826.6934
 -13388216.95948 -10422424.36047  22938365.2714   22938364.4804   22938366.2344
       662.5074
 -23956484.23549 -18601025.72748  20940303.0064   20940302.7254   20940305.9224
      2175.7884
 -25044819.48849 -19512126.75648  20474202.3274   20474202.4574   20474204.1234
      -864.7634
 -20508465.65649 -15941366.77348  21387152.4834   21387151.9234   21387155.3574
      1093.9074
 10  1  1  0 48  0.0000000  0  9G12G17G22G05G28G18G09G15G27
 -11854541.12647  -9178451.30146  23621994.4064   23621994.3524   23621996.2544
      3481.9204
 -15116398.81548 -11727313.56647  22618363.1844   22618363.6154   22618364.8034
      1473.0934
  -3671527.62146  -2850073.74946  24787447.5234   24787447.1184   24787447.2894
      2191.2564
   3387107.13147   2652606.89646  25398924.3374   25398923.7114   25398925.5524
     -3557.1164
 -12618270.56948  -9784001.45747  23364528.9354   23364529.0404   23364531.5774
     -2831.7574
 -13407829.96448 -10437707.23147  22934632.0414   22934632.0244   22934633.1554
       644.4204
 -24021633.58449 -18651791.43748  20927905.8844   20927905.3284   20927908.0914
      2166.8464
 -25018637.47949 -19491725.19748  20479184.4924   20479184.7274   20479186.4444
      -881.0574
 -20541215.44049 -15966886.08148  21380920.5754   21380920.3964   21380923.1614
      1088.8424
 10  1  1  0 48 30.0000000  0  9G12G17G22G05G28G18G09G15G27
 -11958907.72947  -9259775.92946  23602133.5994   23602133.9644   23602135.8964
      3475.2164
 -15160354.05548 -11761564.39947  22609998.7344   22609999.2114   22610001.7954
      1456.8184
  -3737072.53347  -2901147.71846  24774976.5134   24774976.6274   24774977.0904
      2177.7714
   3493742.83246   2735699.63246  25419215.4094   25419216.1784   25419219.3524
     -3552.3994
 -12533228.03548  -9717734.54647  23380712.2334   23380710.8774   23380713.8674
     -2837.4944
 -13426897.15048 -10452564.78747  22931003.2974   22931004.2684   22931004.6714
       626.2224
 -24086509.40149 -18702344.00948  20915560.3194   20915560.1764   20915562.9944
      2157.4444
 -24991962.22649 -19470939.29148  20484260.7334   20484261.0034   20484262.7734
      -897.8194
 -20573804.11749 -15992279.85648  21374718.8764   21374718.6444   21374721.6594
      1083.2284
 10  1  1  0 49  0.0000000  0  9G12G17G22G05G28G18G09G15G27
 -12063057.82847  -9340931.84247  23582314.5744   23582314.3524   23582316.8904
      3468.6684
 -15203809.86948 -11795426.06747  22601729.1934   22601729.4744   22601731.4034
      1440.6564
  -3802192.78347  -2951890.77946  24762584.0544   24762583.7604   24762583.9324
      2163.9644
   3600276.06647   2818712.50846  25439488.4764   25439489.6004   25439491.3914
     -3548.8624
 -12447992.14747  -9651316.96947  23396931.7684   23396931.6284   23396934.6994
     -2843.8574
 -13445391.59848 -10466976.06547  22927483.9594   22927484.6764   22927484.4804
       607.2124
 -24151084.24749 -18752662.05848  20903272.1344   20903272.0124   20903274.8514
      2147.9584
 -24964766.99249 -19449748.20348  20489435.7094   20489436.0734   20489437.8434
      -914.7594
 -20606205.26549 -16017527.50248  21368553.4444   21368553.4074   21368556.1284
      1077.1734
 10  1  1  0 49 30.0000000  0 10G12G17G22G05G28G18G26G09G15G27
 -12167007.73248  -9421931.75747  23562534.0684   23562534.0844   23562536.2594
      3461.3734
 -15246782.22848 -11828911.01647  22593552.0834   22593551.5164   22593554.5654
      1424.0784
  -3866904.60846  -3002315.61246  24750270.3534   24750269.8304   24750271.5184
      2150.0904
   3706686.65347   2901629.82946  25459738.1984   25459738.3904   25459741.4904
     -3545.2084
 -12362582.74548  -9584764.18646  23413184.7624   23413184.2694   23413185.5844
     -2850.1624
 -13463331.05448 -10480954.86447  22924070.2434   22924069.4124   22924071.6424
       588.4954
  -1680359.99546  -1301612.89045  24914848.5424   24914845.7974   24914850.3394
      3824.0904
 -24215375.23649 -18802758.91548  20891037.9064   20891038.1534   20891040.8654
      2138.1084
 -24937069.73249 -19428165.93048  20494706.3004   20494706.7274   20494708.6194
      -931.7994
 -20638436.67649 -16042642.88548  21362419.8864   21362419.5384   21362422.7644
      1071.3274
 10  1  1  0 50  0.0000000  0 10G12G17G22G05G28G18G26G09G15G27
 -12270749.68248  -9502769.63547  23542792.0354   23542791.9064   23542794.7294
      3453.9884
 -15289263.26348 -11862013.11147  22585467.9214   22585467.8204   22585469.9464
      1407.3624
  -3931199.90047  -3052415.84746  24738035.9514   24738035.4114   24738035.4084
      2135.3414
   3812977.94447   2984454.17146  25479964.5574   25479964.4924   25479966.7944
     -3541.6264
 -12276996.14848  -9518073.32546  23429471.4954   23429471.0784   23429472.6034
     -2856.3864
 -13480709.13848 -10494496.24447  22920763.3134   22920763.6004   22920765.0964
       569.3254
  -1795051.00147  -1390982.38046  24893024.6694   24893026.3344   24893027.5574
      3821.5944
 -24279375.22249 -18852629.01048  20878859.1474   20878859.0844   20878861.8334
      2127.9764
 -24908864.92749 -19406188.16448  20500073.5984   20500073.7104   20500075.6714
      -949.1734
 -20670492.25449 -16067621.25048  21356319.8784   21356319.7574   21356322.6614
      1065.0024
 10  1  1  0 50 30.0000000  0 10G12G17G22G05G28G18G26G09G15G27
 -12374290.27947  -9583450.60747  23523088.9974   23523090.0424   23523091.4824
      3447.6884
 -15331259.35248 -11894737.32547  22577476.5814   22577476.2684   22577478.4974
      1391.4384
  -3995085.04547  -3102196.51746  24725878.7654   24725879.5084   24725878.8544
      2121.8724
   3919139.51047   3067177.43446  25500165.5284   25500166.4104   25500168.7844
     -3536.7994
 -12191242.43148  -9451252.23846  23445789.7224   23445789.4814   23445791.1594
     -2861.4914
 -13497533.96748 -10507606.49246  22917561.8324   22917562.0334   22917562.4344
       551.3454
  -1909702.13747  -1480320.99645  24871206.2524   24871208.0134   24871209.1654
      3820.5814
 -24343091.86849 -18902278.32048  20866734.3524   20866733.9284   20866737.1794
      2118.8614
 -24880161.06849 -19383821.52548  20505535.7984   20505536.0854   20505537.8774
      -965.4104
 -20702380.23649 -16092469.02848  21350252.0304   21350251.8534   21350254.2564
      1059.7924
 10  1  1  0 51  0.0000000  0  9G12G17G22G28G18G26G09G15G27
 -12477618.65147  -9663966.23247  23503426.3954   23503426.1974   23503428.8674
      3440.8734
 -15372759.32648 -11927074.96347  22569579.4394   22569579.9704   22569581.6924
      1375.2104
  -4058549.28247  -3151649.19446  24713800.1904   24713799.9974   24713800.9474
      2108.7654
 -12105314.44048  -9384295.36347  23462141.1704   23462141.0874   23462141.5844
     -2866.8404
 -13513795.84048 -10520278.08446  22914468.0774   22914467.2404   22914469.2054
       532.7324
  -2024302.51747  -1569619.96646  24849398.1394   24849398.5514   24849402.5564
      3819.6644
 -24406514.93849 -18951698.87948  20854665.2884   20854664.9044   20854667.5024
      2109.4264
 -24850949.05049 -19361058.92248  20511094.7044   20511094.7314   20511096.8484
      -981.8374
 -20734091.26049 -16117178.91448  21344217.6584   21344217.2604   21344219.7944
      1054.3784
 10  1  1  0 51 30.0000000  0  9G12G17G22G28G18G26G09G15G27
 -12580738.25447  -9744319.14847  23483803.0874   23483804.3654   23483805.5524
      3433.9294
 -15413766.60248 -11959028.67647  22561776.0694   22561776.2174   22561778.0684
      1358.7014
  -4121595.52547  -3200776.13946  24701802.8974   24701803.4104   24701805.1414
      2094.7144
 -12019219.47148  -9317208.37547  23478524.7684   23478524.9624   23478527.1384
     -2872.5824
 -13529499.63348 -10532514.81346  22911479.2754   22911479.2024   22911480.7424
       514.3104
  -2138854.82046  -1658881.49745  24827599.7314   24827601.4814   24827600.9204
      3817.4924
 -24469648.71749 -19000894.01248  20842651.4474   20842650.9874   20842653.8944
      2099.6114
 -24821234.33349 -19337904.60348  20516749.1904   20516749.4224   20516751.1994
      -998.7804
 -20765630.36949 -16141754.83948  21338215.7514   21338215.5154   21338218.3454
      1048.3804
 10  1  1  0 52  0.0000000  0  9G12G17G22G28G18G26G09G15G27
 -12683645.70447  -9824506.76747  23464220.6154   23464220.4844   23464223.1554
      3426.6694
 -15454277.70148 -11990595.75447  22554066.9274   22554067.2754   22554068.7264
      1342.0054
  -4184220.53247  -3249574.83546  24689888.1144   24689888.4244   24689887.2914
      2080.7624
 -11932957.76948  -9249991.47346  23494939.5044   23494939.2834   23494941.8164
     -2878.1164
 -13544643.54648 -10544315.27847  22908597.9444   22908598.0964   22908598.9384
       495.5704
  -2253355.59247  -1748102.91246  24805810.7714   24805811.0754   24805815.4294
      3815.6294
 -24532490.40149 -19049861.54048  20830692.7144   20830692.7634   20830695.3154
      2089.9784
 -24791015.46049 -19314357.43748  20522499.6704   20522499.8704   20522501.6204
     -1015.6414
 -20796995.93749 -16166195.53748  21332247.0214   21332246.7714   21332249.7154
      1042.6804
 10  1  1  0 52 30.0000000  0  9G12G17G22G28G18G26G09G15G27
 -12786338.89147  -9904527.42447  23444678.7374   23444679.0074   23444680.4004
      3419.7674
 -15494290.25448 -12021774.36147  22546453.0504   22546453.1684   22546454.8934
      1325.5444
  -4246421.71347  -3298043.31646  24678050.0444   24678049.4774   24678051.0914
      2066.3754
 -11846530.50347  -9182645.54746  23511386.2344   23511385.2884   23511388.9334
     -2883.5404
 -13559226.84748 -10555678.88646  22905822.5154   22905821.0314   22905824.5434
       477.0134
  -2367802.13146  -1837282.02046  24784032.1804   24784034.1404   24784035.8404
      3814.6384
 -24595038.65149 -19098600.41048  20818790.2824   20818789.9874   20818792.7534
      2080.2224
 -24760291.87349 -19290416.98148  20528346.2394   20528346.3924   20528348.0344
     -1032.2574
 -20828187.09349 -16190500.32948  21326311.5004   21326311.3834   21326314.0634
      1037.0164
 10  1  1  0 53  0.0000000  0  9G12G17G22G28G18G26G09G15G27
 -12888816.42848  -9984380.05647  23425178.5424   23425178.8514   23425180.1104
      3412.7274
 -15533802.53848 -12052563.14147  22538933.9634   22538934.0364   22538935.9144
      1309.3164
  -4308197.49347  -3346180.29546  24666295.7334   24666295.2834   24666294.9134
      2052.6474
 -11759940.64347  -9115172.93046  23527863.9704   23527863.0794   23527865.9434
     -2888.7274
 -13573249.86648 -10566605.93347  22903154.2304   22903153.8494   22903156.4004
       458.5824
  -2482192.55447  -1926417.44646  24762266.2584   24762265.9824   24762270.0534
      3812.7974
 -24657292.68549 -19147110.03448  20806943.5734   20806943.5984   20806946.4424
      2070.7724
 -24729064.12749 -19266083.67948  20534288.6494   20534288.8674   20534290.5574
     -1048.8334
 -20859204.08649 -16214669.41048  21320409.2284   21320409.1914   21320411.8474
      1031.4884
 10  1  1  0 53 30.0000000  0  9G12G17G22G28G18G26G09G15G27
 -12991077.99848 -10064064.38447  23405718.4044   23405718.7864   23405719.3574
      3405.4824
 -15572814.53348 -12082962.08747  22531510.1334   22531510.4144   22531511.8334
      1292.5134
  -4369548.00847  -3393985.89946  24654621.2184   24654621.9964   24654621.0994
      2038.4454
 -11673191.62747  -9047576.29146  23544371.7684   23544370.3574   23544373.4184
     -2893.7084
 -13586714.05948 -10577097.52247  22900592.0954   22900591.1974   22900591.9164
       439.9514
  -2596526.71946  -2015508.97145  24740507.5204   24740507.7604   24740510.9504
      3811.0224
 -24719253.26949 -19195390.98748  20795152.9584   20795152.7374   20795155.3784
      2060.8084
 -24697334.40649 -19241359.22748  20540326.5624   20540326.9924   20540328.5494
     -1065.5724
 -20890048.61649 -16238704.10548  21314539.6724   21314539.4854   21314542.4574
      1025.6754
 10  1  1  0 54  0.0000000  0  9G12G17G22G28G18G26G09G15G27
 -13093118.02447 -10143576.08147  23386300.5714   23386300.7234   23386302.1064
      3397.9494
 -15611320.17948 -12112966.47447  22524183.0974   22524182.7494   22524185.0464
      1275.4824
  -4430466.88447  -3441455.17046  24643027.3744   24643027.3954   24643027.8754
      2024.0074
 -11586280.96947  -8979853.70946  23560910.1024   23560910.3444   23560911.8254
     -2899.2514
 -13599614.81948 -10587150.08047  22898136.7694   22898135.6574   22898137.7954
       421.1654
  -2710797.77646  -2104551.43446  24718763.6754   24718765.0524   24718765.7274
      3808.4814
 -24780914.99149 -19243439.06848  20783419.4004   20783419.1294   20783421.7164
      2050.7954
 -24665098.41649 -19216240.28048  20546460.8344   20546461.1574   20546462.9594
     -1082.6604
 -20920716.01249 -16262600.77748  21308703.8654   21308703.6594   21308706.9454
      1019.6764
 10  1  1  0 54 30.0000000  0  9G12G17G22G28G18G26G09G15G27
 -13194939.21048 -10222917.25847  23366924.7934   23366924.4444   23366926.4604
      3390.3814
 -15649322.11548 -12142578.36347  22516950.9424   22516951.2844   22516952.8584
      1258.2794
  -4490957.14947  -3488590.46946  24631516.9234   24631517.7244   24631518.8644
      2009.1334
 -11499215.30147  -8912010.33446  23577477.8444   23577477.8134   23577478.2594
     -2904.6634
 -13611956.70148 -10596767.13747  22895788.4204   22895787.8434   22895788.4484
       402.2034
  -2825008.53446  -2193546.78146  24697028.9364   24697029.1044   24697031.4414
      3806.4184
 -24842281.67649 -19291257.25348  20771741.5834   20771741.7164   20771744.0534
      2040.7124
 -24632361.44049 -19190730.95248  20552690.5444   20552690.9354   20552692.3514
     -1099.5494
 -20951210.57949 -16286362.76748  21302900.8094   21302900.8164   21302903.6294
      1013.6094
 10  1  1  0 55  0.0000000  0  8G12G17G22G28G18G09G15G27
 -13296536.09047 -10302083.64347  23347591.2504   23347592.7174   23347594.5294
      3382.9504
 -15686814.67048 -12171793.32947  22509816.4784   22509816.5554   22509818.7454
      1241.3674
  -4551012.72247  -3535387.02446  24620089.4704   24620089.1604   24620090.2004
      1994.8144
 -11411992.89747  -8844044.83246  23594076.2814   23594074.7324   23594078.0574
     -2909.8614
 -13623735.77148 -10605945.64147  22893546.8104   22893546.6014   22893547.7294
       383.5524
 -24903348.56949 -19338841.84348  20760120.9784   20760121.1054   20760123.4494
      2030.6664
 -24599119.84649 -19164828.41548  20559016.2464   20559016.5844   20559018.1514
     -1116.4034
 -20981528.50549 -16309987.12048  21297131.7394   21297131.4974   21297134.3784
      1007.6894
 10  1  1  0 55 30.0000000  0  8G12G17G22G28G18G09G15G27
 -13397912.32847 -10381078.12047  23328300.1834   23328299.8814   23328303.2334
      3375.1744
 -15723801.84048 -12200614.49047  22502778.0954   22502778.4584   22502780.3304
      1224.3114
  -4610637.86947  -3581848.18046  24608741.8774   24608742.2094   24608743.4874
      1980.0914
 -11324620.73147  -8775962.62346  23610702.3904   23610702.0914   23610703.8734
     -2914.9384
 -13634957.26548 -10614689.67247  22891412.1234   22891411.0074   22891412.4134
       364.4764
 -24964120.16349 -19386196.32848  20748556.5224   20748556.1424   20748559.1274
      2020.5484
 -24565378.91049 -19138536.78348  20565436.8844   20565436.9864   20565438.7854
     -1133.2164
 -21011674.93349 -16333477.84348  21291394.9224   21291394.6644   21291397.5794
      1001.8514
 10  1  1  0 56  0.0000000  0  8G12G17G22G28G18G09G15G27
 -13499060.44848 -10459894.82347  23309052.2954   23309052.1194   23309054.3084
      3367.7854
 -15760275.46648 -12229035.48847  22495837.3294   22495837.5514   22495839.7454
      1207.4004
  -4669823.92747  -3627967.20746  24597481.7944   24597482.5294   24597481.2394
      1965.5774
 -11237094.98747  -8707760.75046  23627358.2194   23627357.5944   23627359.0134
     -2920.0504
 -13645614.70548 -10622994.18047  22889383.9064   22889381.4604   22889384.6064
       345.9874
 -25024589.21249 -19433315.05748  20737049.5814   20737049.2844   20737052.2474
      2010.7574
 -24531133.46049 -19111852.02148  20571953.5734   20571953.8904   20571955.6664
     -1149.6864
 -21041643.51449 -16356829.97748  21285692.0914   21285691.9694   21285694.8594
       996.0374
 10  1  1  0 56 30.0000000  0  8G12G17G22G28G18G09G15G27
 -13599982.69048 -10538535.52147  23289847.7074   23289847.1744   23289850.3004
      3360.3114
 -15796238.21348 -12257058.39947  22488993.9864   22488994.2504   22488995.7474
      1190.4084
  -4728573.89947  -3673746.37246  24586300.2674   24586300.3734   24586300.2654
      1951.0504
 -11149421.96747  -8639444.11846  23644041.6194   23644040.7674   23644042.2224
     -2924.9714
 -13655712.49848 -10630862.59447  22887461.2554   22887460.9224   22887462.6844
       327.1814
 -25084758.89849 -19480200.51348  20725599.6584   20725599.3794   20725602.1224
      2000.7194
 -24496387.45649 -19084777.21748  20578565.5014   20578565.8044   20578567.4714
     -1166.4604
 -21071438.42549 -16380046.78548  21280022.3494   21280022.2014   21280025.0464
       990.2844
 10  1  1  0 57  0.0000000  0  8G12G17G22G28G18G09G15G27
 -13700674.16348 -10616996.39647  23270686.7174   23270686.7404   23270688.1144
      3352.9334
 -15831685.17748 -12284679.40147  22482248.5594   22482248.7584   22482250.5264
      1173.3484
  -4786882.66547  -3719181.79346  24575204.3394   24575204.4344   24575204.9324
      1936.4204
 -11061600.20147  -8571011.57446  23660753.6564   23660753.2284   23660754.3234
     -2929.4784
 -13665247.46948 -10638292.43247  22885648.1014   22885646.5974   22885648.9464
       308.8884
 -25144625.14949 -19526849.53248  20714207.4394   20714207.3144   20714209.7074
      1990.7434
 -24461138.21049 -19057310.27648  20585273.1344   20585273.3704   20585275.1304
     -1183.0324
 -21101056.33649 -16403125.67248  21274386.4184   21274386.2654   21274389.2044
       984.8464
 10  1  1  0 57 30.0000000  0  8G12G17G22G28G18G09G15G27
 -13801135.71948 -10695278.12347  23251569.2724   23251569.3594   23251572.3474
      3344.6964
 -15866616.93048 -12311898.93247  22475601.0774   22475601.1824   22475603.3354
      1155.5374
  -4844750.85147  -3764273.90246  24564192.5434   24564192.2934   24564191.5464
      1921.2124
 -10973634.07947  -8502466.55146  23677492.6464   23677491.4754   23677494.7484
     -2934.3914
 -13674222.21348 -10645285.75747  22883938.5814   22883938.0174   22883940.1314
       289.7634
 -25204189.36549 -19573263.19548  20702872.6574   20702872.5884   20702875.2524
      1980.2304
 -24425388.58849 -19029453.43248  20592076.0144   20592076.2854   20592078.1794
     -1200.1544
 -21130499.20149 -16426068.15948  21268783.4554   21268783.3014   21268785.9224
       978.3694
 10  1  1  0 58  0.0000000  0  9G12G17G22G28G18G26G09G15G27
 -13901364.96248 -10773378.80947  23232496.2094   23232496.0194   23232497.6454
      3336.9734
 -15901031.82148 -12338715.72047  22469052.1724   22469052.2334   22469054.1664
      1138.3574
  -4902176.31147  -3809021.02846  24553264.6814   24553264.3024   24553266.4324
      1906.6404
 -10885524.85947  -8433810.01246  23694259.3654   23694260.3994   23694262.0854
     -2939.5184
 -13682636.03548 -10651841.98847  22882338.9764   22882338.5864   22882339.6744
       270.9204
  -1434271.11547  -1112822.83346  24545263.4384   24545262.2264   24545265.7624
      3789.3914
 -25263450.01649 -19619440.31648  20691595.8444   20691595.4474   20691598.6064
      1970.1414
 -24389138.66749 -19001206.74648  20598974.2744   20598974.2824   20598976.1974
     -1216.8464
 -21159766.48049 -16448873.83048  21263214.0824   21263213.7804   21263216.5044
       972.4444
 10  1  1  0 58 30.0000000  0  9G12G17G22G28G18G26G09G15G27
 -14001359.79248 -10851296.83047  23213468.3364   23213468.3834   23213470.1604
      3329.1934
 -15934926.55448 -12365127.18647  22462602.0724   22462602.5824   22462604.3104
      1121.1194
  -4959156.16547  -3853420.89846  24542420.0464   24542419.1964   24542421.4634
      1891.9804
 -10797273.59447  -8365042.79546  23711053.3774   23711052.6694   23711054.5164
     -2944.0464
 -13690487.82048 -10657960.28547  22880845.2354   22880845.3254   22880845.2264
       252.4094
  -1547902.48647  -1201366.71545  24523638.4924   24523639.0154   24523641.5074
      3786.0694
 -25322404.89149 -19665379.16748  20680376.9214   20680377.0274   20680379.7204
      1960.0004
 -24352387.65849 -18972569.59948  20605967.6964   20605968.0374   20605969.7344
     -1233.3504
 -21188856.95749 -16471541.73148  21257678.2714   21257678.1734   21257680.6884
       966.7234
 10  1  1  0 59  0.0000000  0  9G12G17G22G28G18G26G09G15G27
 -14101120.71148 -10929032.58347  23194484.3064   23194483.9564   23194485.8444
      3321.5124
 -15968301.40348 -12391133.55647  22456251.1564   22456251.2204   22456253.0994
      1103.7454
  -5015691.08047  -3897474.14846  24531663.2564   24531663.8614   24531663.0694
      1876.8914
 -10708884.56047  -8296168.21446  23727873.2144   23727872.6994   23727873.3794
     -2948.8324
 -13697780.48348 -10663642.88847  22879456.1814   22879456.0254   22879457.6024
       233.6274
  -1661453.07546  -1289847.64145  24502031.2234   24502031.6994   24502031.1884
      3783.5614
 -25381055.42549 -19711080.87248  20669216.2634   20669216.0094   20669218.7094
      1949.8254
 -24315138.75949 -18943544.48648  20613055.8974   20613056.0984   20613057.9654
     -1250.0584
 -21217772.88349 -16494073.61848  21252175.7244   21252175.6194   21252178.3974
       960.8394
 10  1  1  0 59 30.0000000  0  9G12G17G22G28G18G26G09G15G27
 -14200642.14348 -11006581.73047  23175546.0954   23175546.1884   23175547.8004
      3313.0594
 -16001152.27548 -12416731.62747  22450000.1394   22450000.5284   22450001.8474
      1086.0094
  -5071775.95947  -3941176.59746  24520991.6084   24520991.9724   24520991.6344
      1861.6254
 -10620355.81347  -8227184.78346  23744719.4764   23744719.8954   23744720.4784
     -2953.5014
 -13704509.86748 -10668886.56747  22878176.1544   22878175.5814   22878177.8124
       214.7174
  -1774916.91047  -1378261.08945  24480439.6914   24480440.8864   24480445.0104
      3780.4934
 -25439397.15349 -19756541.95148  20658114.2324   20658113.9654   20658116.4664
      1939.3214
 -24277387.91349 -18914128.24748  20620239.6574   20620239.8044   20620241.8214
     -1266.9264
 -21246510.08249 -16516466.23748  21246707.2564   21246707.1834   21246709.8524
       954.6844
                            4  1
RINEX FILE SPLICE; other post-header comments skipped       COMMENT
 10  1  1  1  0  0.0000000  0  9G12G17G22G28G18G26G09G15G27
 -14299926.55848 -11083946.17147  23156652.6854   23156652.4484   23156654.3184
      3306.1904
 -16033481.38748 -12441923.14047  22443848.1484   22443848.5854   22443850.2544
      1069.5264
  -5127412.71147  -3984529.96346  24510402.3364   24510402.0304   24510404.2514
      1847.9804
 -10531693.24947  -8158097.07046  23761591.4344   23761590.4234   23761593.1244
     -2957.1134
 -13710680.27348 -10673694.68247  22877001.8654   22877001.1404   22877003.3984
       196.9324
  -1888295.62146  -1466608.14245  24458863.5524   24458865.1454   24458866.7384
      3778.6594
 -25497432.86249 -19801764.57248  20647070.3464   20647070.1834   20647073.0254
      1930.0734
 -24239139.89849 -18884324.60448  20627518.1434   20627518.3324   20627520.0764
     -1282.6304
 -21275072.28949 -16538722.50248  21241272.0694   21241272.0494   21241274.7484
       949.7534
 10  1  1  1  0 30.0000000  0  9G12G17G22G28G18G26G09G15G27
 -14398967.38548 -11161120.81147  23137805.5684   23137805.3424   23137807.2754
      3297.6964
 -16065281.42648 -12466702.38047  22437796.6454   22437797.0884   22437799.0804
      1051.7224
  -5182594.56747  -4027528.78446  24499904.6244   24499904.4834   24499906.1904
      1832.6534
 -10442893.90747  -8088902.78346  23778489.5084   23778488.8854   23778492.1524
     -2961.6044
 -13716286.85248 -10678063.45847  22875936.0304   22875934.1274   22875935.8234
       177.9764
  -2001581.90147  -1554883.13145  24437304.6334   24437304.9484   24437307.2494
      3775.2224
 -25555156.69449 -19846744.17448  20636085.8674   20636085.7984   20636088.1944
      1919.4804
 -24200390.13349 -18854129.98648  20634891.9254   20634892.2354   20634894.0594
     -1299.5384
 -21303454.30549 -16560838.35848  21235871.2244   21235871.1114   21235873.7964
       943.5594
 10  1  1  1  1  0.0000000  0  9G12G17G22G28G18G26G09G15G27
 -14497768.08248 -11238108.33847  23119004.6194   23119004.1704   23119006.8744
      3288.8064
 -16096556.53148 -12491072.57947  22431845.2604   22431845.3744   22431847.4594
      1033.3174
  -5237325.29947  -4070176.12746  24489487.2464   24489487.9494   24489487.9154
      1816.2474
 -10353964.80147  -8019607.36246  23795412.3664   23795411.1424   23795412.6664
     -2966.8114
 -13721334.95948 -10681997.05447  22874973.0964   22874973.7754   22874976.5294
       158.5094
  -2114778.83047  -1643088.59046  24415766.7834   24415765.9394   24415767.8324
      3771.3094
 -25612572.77649 -19891483.96648  20625159.7334   20625159.4214   20625162.3804
      1908.3534
 -24161144.39349 -18823548.88848  20642360.1774   20642360.4484   20642362.2044
     -1316.8714
 -21331661.32249 -16582817.84648  21230503.7194   21230503.3304   21230506.1974
       936.8934
 10  1  1  1  1 30.0000000  0  9G12G17G22G28G18G26G09G15G27
 -14596326.61248 -11314907.18647  23100249.4314   23100249.7154   23100251.8534
      3280.6944
 -16127304.83048 -12515032.28147  22425993.8484   22425994.2694   22425995.6564
      1015.7954
  -5291602.97647  -4112470.42446  24479159.5814   24479159.5224   24479160.7314
      1801.1124
 -10264907.51047  -7950212.07546  23812359.2654   23812358.4124   23812359.3864
     -2971.3494
 -13725824.56148 -10685495.45947  22874119.3844   22874119.3264   22874120.9844
       139.9544
  -2227883.50047  -1731222.11946  24394244.1064   24394244.5874   24394245.0924
      3767.8224
 -25669679.83149 -19935982.96748  20614292.7924   20614292.4854   20614295.3294
      1897.8334
 -24121402.81249 -18792581.42648  20649922.7964   20649923.1134   20649924.7574
     -1333.5164
 -21359692.64049 -16604660.42848  21225169.4944   21225169.0684   21225172.0534
       930.8884
 10  1  1  1  2  0.0000000  0  9G12G17G22G28G18G26G09G15G27
 -14694637.15548 -11391512.76547  23081541.6624   23081541.6214   23081543.7124
      3273.2274
 -16157520.23248 -12538576.74347  22420244.2314   22420243.9684   22420246.1094
       998.7284
  -5345421.22647  -4154406.73646  24468918.0974   24468917.7784   24468918.8164
      1786.5904
 -10175719.34347  -7880714.80646  23829331.3034   23829330.4044   23829332.6324
     -2974.3734
 -13729751.06248 -10688555.08247  22873373.3954   22873372.3354   22873374.3314
       122.0694
  -2340889.08347  -1819278.37746  24372739.8184   24372740.0504   24372740.8864
      3765.6714
 -25726472.16949 -19980236.73348  20603485.6594   20603485.3864   20603488.0984
      1888.2484
 -24081161.72149 -18761224.73448  20657580.3814   20657580.5754   20657582.4604
     -1349.2994
 -21387543.38549 -16626362.30448  21219869.6304   21219869.1924   21219872.1364
       925.7804
 10  1  1  1  2 30.0000000  0  9G12G17G22G28G18G26G09G15G27
 -14792699.67448 -11467925.10247  23062880.6264   23062881.0754   23062882.8414
      3264.6614
 -16187203.16048 -12561706.29047  22414595.8604   22414596.2364   22414597.8684
       980.5394
  -5398780.37647  -4195985.27646  24458764.6984   24458762.4574   24458763.6834
      1770.9064
 -10086404.53147  -7811118.85746  23846327.2194   23846326.4284   23846328.9374
     -2979.5314
 -13733116.59648 -10691177.59247  22872732.7774   22872732.1844   22872733.5784
       102.7544
  -2453795.18847  -1907257.20546  24351254.1364   24351255.5874   24351258.0234
      3761.8664
 -25782950.56849 -20024245.86848  20592738.1174   20592738.1884   20592740.2424
      1877.3264
 -24040423.09049 -18729480.34948  20665332.6734   20665332.9504   20665334.6914
     -1366.3814
 -21415215.18249 -16647924.73948  21214603.7394   21214603.3544   21214606.4804
       919.2874
 10  1  1  1  3  0.0000000  0  9G12G17G22G28G18G26G09G15G27
 -14890514.77248 -11544144.63747  23044267.1954   23044266.6654   23044269.9384
      3255.9914
 -16216354.10348 -12584421.30347  22409048.5434   22409048.8164   22409050.3654
       962.5664
  -5451680.98647  -4237206.58146  24448699.1714   24448698.7184   24448697.6614
      1755.3194
  -9996966.06147  -7741426.55346  23863346.5364   23863346.6654   23863349.7994
     -2983.2044
 -13735923.31348 -10693364.64547  22872198.3584   22872198.4144   22872200.2064
        84.0974
  -2566601.42447  -1995158.19946  24329786.4364   24329785.3054   24329790.5984
      3758.3124
 -25839116.25049 -20068011.32648  20582050.0554   20582049.7724   20582052.5964
      1866.7764
 -23999189.60949 -18697350.36448  20673179.0894   20673179.2414   20673181.2134
     -1382.8474
 -21442709.73449 -16669349.06348  21209371.9014   21209371.4864   21209374.5364
       913.3034
 10  1  1  1  3 30.0000000  0  9G12G17G22G28G18G26G09G15G27
 -14988080.74748 -11620170.05847  23025700.7714   23025700.6914   23025703.7634
      3247.9344
 -16244971.21048 -12606720.34247  22403602.7064   22403602.9374   22403604.7434
       944.9414
  -5504120.97947  -4278068.91746  24438718.0414   24438718.2494   24438719.0134
      1740.2024
  -9907405.96647  -7671639.47446  23880389.7514   23880389.5874   23880389.6534
     -2987.3444
 -13738171.59848 -10695116.56747  22871770.5974   22871769.6684   22871771.8334
        65.5434
  -2679305.18647  -2082979.28345  24308340.6224   24308343.2124   24308343.9694
      3755.2464
 -25894967.74449 -20111531.96348  20571421.9784   20571421.5084   20571424.2224
      1856.3624
 -23957461.20649 -18664834.72848  20681119.6064   20681119.8364   20681122.0114
     -1399.2354
 -21470026.39249 -16690634.76948  21204173.5304   21204173.5644   21204176.4674
       907.4374
 10  1  1  1  4  0.0000000  0  9G12G17G22G28G18G26G09G15G27
 -15085392.97448 -11695997.75747  23007183.0794   23007184.0964   23007186.5174
      3239.2264
 -16273050.36248 -12628600.19447  22398259.4874   22398259.4874   22398261.3694
       926.6484
  -5556096.29547  -4318569.15746  24428827.4714   24428828.5294   24428828.8864
      1724.4074
  -9817722.81147  -7601756.49146  23897455.4044   23897454.4254   23897457.9624
     -2991.9274
 -13739858.86048 -10696431.33647  22871448.1304   22871448.3404   22871451.8294
        46.7104
  -2791901.28846  -2170716.50345  24286912.9544   24286913.3594   24286914.6814
      3751.3954
 -25950501.39849 -20154804.93948  20560854.0934   20560853.9074   20560856.9994
      1845.4814
 -23915236.02449 -18631931.99548  20689154.9154   20689155.2224   20689157.0054
     -1416.0164
 -21497162.22749 -16711779.57448  21199009.8484   21199009.5564   21199012.5084
       901.2164
 10  1  1  1  4 30.0000000  0  9G12G17G22G28G18G26G09G15G27
 -15182454.76748 -11771630.30847  22988712.5864   22988713.7674   22988715.8214
      3231.3104
 -16300595.06748 -12650063.59547  22393017.8514   22393017.9834   22393019.8414
       909.3864
  -5607609.88747  -4358709.66446  24419023.8114   24419023.5464   24419024.6104
      1709.5354
  -9727923.95647  -7531783.36546  23914544.0224   23914543.4864   23914545.0684
     -2995.1114
 -13740989.97848 -10697312.73247  22871234.8364   22871233.3884   22871234.6554
        28.5114
  -2904392.24747  -2258371.84246  24265506.9694   24265509.7664   24265512.1024
      3747.7634
 -26005721.44549 -20197833.54148  20550346.2114   20550346.1444   20550348.6244
      1835.5154
 -23872520.00449 -18598646.78748  20697283.5734   20697283.9284   20697285.6874
     -1431.9194
 -21524122.03949 -16732787.21848  21193879.5174   21193879.5494   21193882.0244
       895.8294
 10  1  1  1  5  0.0000000  0  9G12G17G22G28G18G26G09G15G27
 -15279258.78448 -11847061.99247  22970291.2794   22970291.8104   22970292.6404
      3222.4604
 -16327598.30048 -12671105.07047  22387879.5594   22387879.1584   22387881.8334
       890.9924
  -5658654.77047  -4398484.89246  24409311.7744   24409310.8644   24409310.6124
      1693.5084
  -9638005.38247  -7461716.94646  23931654.8794   23931653.6564   23931655.6064
     -2999.1984
 -13741559.69348 -10697756.68147  22871126.1094   22871125.4784   22871126.8044
         9.7514
  -3016769.79646  -2345938.81346  24244121.3774   24244121.8124   24244125.6864
      3744.1714
 -26060620.60349 -20240612.10348  20539899.3624   20539898.9654   20539901.6354
      1824.7174
 -23829307.43649 -18564974.65848  20705506.6554   20705506.8304   20705508.8844
     -1448.7114
 -21550899.59349 -16753652.84048  21188783.8944   21188783.6354   21188786.6634
       889.4364
 10  1  1  1  5 30.0000000  0  9G12G17G22G28G18G26G09G15G27
 -15375807.22148 -11922294.52247  22951918.7294   22951919.3564   22951920.7584
      3214.3674
 -16354062.22948 -12691726.29847  22382843.4574   22382843.2634   22382845.6064
       873.3734
  -5709233.02547  -4437896.51646  24399688.0554   24399687.5184   24399686.0154
      1678.4524
  -9547972.73647  -7391561.64546  23948787.3964   23948787.2944   23948788.7024
     -3002.5284
 -13741572.32648 -10697766.53847  22871123.2714   22871123.1454   22871124.7704
        -8.5064
  -3129035.12946  -2433418.28046  24222759.2684   24222759.7974   24222763.1514
      3740.6804
 -26115201.92049 -20283142.99648  20529512.6624   20529512.3474   20529515.3424
      1814.4634
 -23785602.76349 -18530919.07248  20713823.2514   20713823.7084   20713825.2834
     -1464.5944
 -21577498.23249 -16774379.05148  21183722.3294   21183722.1044   21183724.7624
       883.9894
 10  1  1  1  6  0.0000000  0  9G12G17G22G28G18G26G09G15G27
 -15472096.15248 -11997324.82447  22933595.3794   22933596.0094   22933598.8094
      3205.0014
 -16379983.15948 -12711924.41347  22377910.7904   22377910.7724   22377912.9644
       854.6454
  -5759340.42147  -4476941.24246  24390154.5874   24390152.8984   24390151.1384
      1662.1334
  -9457825.17147  -7321316.79846  23965942.0414   23965941.0734   23965943.0614
     -3007.2384
 -13741025.67048 -10697340.59647  22871226.7444   22871226.5714   22871228.3554
       -27.7654
  -3241183.75147  -2520806.75745  24201417.8584   24201420.3484   24201420.0094
      3736.3634
 -26169461.71149 -20325423.35248  20519187.2944   20519187.1944   20519189.6954
      1803.0784
 -23741404.07049 -18496478.53248  20722234.0424   20722234.3224   20722236.0844
     -1481.8034
 -21603915.25549 -16794963.73948  21178695.4044   21178695.1304   21178697.8114
       877.1864
 10  1  1  1  6 30.0000000  0  9G12G17G22G28G18G26G09G15G27
 -15568126.32348 -12072153.52347  22915321.9344   22915321.5434   22915324.5524
      3196.8524
 -16405362.25248 -12731700.31947  22373081.2334   22373081.3844   22373083.7414
       837.0994
  -5808978.38647  -4515620.17746  24380705.6474   24380705.8954   24380707.6354
      1646.7754
  -9367566.75947  -7250985.58446  23983117.3844   23983116.5694   23983119.5954
     -3010.4814
 -13739922.64548 -10696481.10647  22871437.2574   22871437.5384   22871437.5004
       -46.0924
  -3353215.44446  -2608104.13946  24180096.9594   24180097.0774   24180100.6324
      3732.4794
 -26223401.50849 -20367454.36248  20508922.9244   20508922.8244   20508925.3294
      1792.8174
 -23696714.75049 -18461655.68848  20730738.1554   20730738.4804   20730740.2624
     -1497.7804
 -21630152.88149 -16815408.64148  21173702.4414   21173702.3334   21173705.4964
       871.7554
 10  1  1  1  7  0.0000000  0  9G12G17G22G28G18G26G09G15G27
 -15663902.36348 -12146784.19647  22897096.5444   22897097.3214   22897099.1094
      3187.8464
 -16430204.35548 -12751057.79047  22368353.9824   22368353.8674   22368355.4364
       818.5754
  -5858151.37747  -4553936.81746  24371347.6014   24371349.8904   24371348.3314
      1630.9504
  -9277205.52747  -7180574.23946  24000312.5314   24000312.0724   24000314.0094
     -3014.2364
 -13738269.69548 -10695193.10647  22871752.9224   22871751.3134   22871754.0274
       -64.9054
  -3465133.93646  -2695313.31046  24158800.6554   24158802.2114   24158805.6174
      3728.3954
 -26277025.93249 -20409239.62548  20498718.7374   20498718.3554   20498721.0994
      1781.7424
 -23651541.65249 -18426455.87348  20739334.2054   20739334.4804   20739336.5684
     -1514.3204
 -21656216.88449 -16835718.25448  21168742.7454   21168742.7214   21168745.4494
       865.4704
 10  1  1  1  7 30.0000000  0  9G12G17G22G28G18G26G09G15G27
 -15759407.70848 -12221203.94147  22878922.6644   22878922.1094   22878923.9084
      3178.7674
 -16454492.92248 -12769983.93647  22363732.0664   22363732.3704   22363733.9604
       800.2084
  -5906842.34747  -4591877.83646  24362085.3234   24362084.1774   24362083.0064
      1614.8164
  -9186728.40947  -7110072.59346  24017530.1274   24017529.8054   24017531.4814
     -3017.8404
 -13736052.31448 -10693465.28747  22872174.3504   22872172.7204   22872176.0314
       -83.5634
  -3576921.63546  -2782420.55046  24137528.1384   24137527.8494   24137531.3574
      3724.1354
 -26330319.11749 -20450766.77948  20488577.1914   20488577.1494   20488579.8464
      1770.8054
 -23605870.30349 -18390867.81248  20748025.2544   20748025.4344   20748027.3624
     -1530.8234
 -21682091.83749 -16855880.55148  21163818.8654   21163818.4394   21163821.5624
       859.1994
 10  1  1  1  8  0.0000000  0  9G12G17G22G28G18G26G09G15G27
 -15854650.81048 -12295419.33347  22860798.5434   22860798.1864   22860800.7374
      3170.1694
 -16478236.63548 -12788485.52747  22359213.8394   22359214.1134   22359216.3034
       782.1524
  -5955060.72847  -4629450.60046  24352908.7184   24352906.9044   24352907.7074
      1599.2494
  -9096147.07647  -7039489.74046  24034767.0474   24034765.7024   24034768.0454
     -3021.1954
 -13733280.62648 -10691305.54847  22872701.6574   22872700.4694   22872703.7354
      -101.9424
  -3688586.08347  -2869431.76546  24116280.8324   24116281.0404   24116281.1464
      3719.6544
 -26383290.44749 -20492043.14148  20478497.1204   20478497.1034   20478499.6534
      1760.1384
 -23559711.12449 -18354899.62348  20756809.0094   20756809.4464   20756811.3214
     -1546.9954
 -21707787.52949 -16875903.16448  21158929.1794   21158928.8884   21158931.8204
       853.2964
 10  1  1  1  8 30.0000000  0  9G12G17G22G28G18G26G09G15G27
 -15949626.92048 -12369426.68147  22842724.8324   22842725.1994   22842727.5104
      3161.0644
 -16501431.38948 -12806559.34747  22354799.9664   22354800.3074   22354802.0224
       763.6444
  -6002801.55547  -4666651.23146  24343821.9394   24343822.7724   24343821.8004
      1583.0044
  -9005459.96747  -6968824.47346  24052024.5184   24052024.0594   24052025.2574
     -3024.9994
 -13729952.17248 -10688711.94547  22873335.2894   22873334.2534   22873336.2144
      -120.4684
  -3800121.65747  -2956342.57146  24095056.3514   24095055.3694   24095058.6844
      3715.5714
 -26435935.40249 -20533065.18248  20468479.2644   20468479.1444   20468481.5834
      1749.1654
 -23513061.86449 -18318549.55448  20765686.1264   20765686.5154   20765688.2754
     -1563.4364
 -21733300.53149 -16895783.42248  21154074.0844   21154073.9384   21154077.0914
       847.1344
 10  1  1  1  9  0.0000000  0  9G12G17G22G28G18G26G09G15G27
 -16044337.76448 -12443227.31547  22824701.7974   22824702.0994   22824703.4974
      3152.3104
 -16524079.16048 -12824206.94447  22350489.9154   22350490.2034   22350492.1754
       745.4734
  -6050066.50347  -4703481.07046  24334828.2584   24334828.7974   24334828.5394
      1567.0754
  -8914672.06947  -6898080.65946  24069300.4444   24069300.4374   24069302.3074
     -3028.2074
 -13726070.83148 -10685687.53547  22874074.4264   22874072.2084   22874074.0284
      -138.9114
  -3911529.19547  -3043153.61346  24073854.2444   24073853.2584   24073859.0164
      3711.3524
 -26488256.28449 -20573834.69548  20458522.7394   20458522.7854   20458525.2424
      1738.3914
 -23465926.51949 -18281820.71148  20774655.7244   20774655.8624   20774657.7434
     -1579.5704
 -21758633.79149 -16915523.61548  21149253.3594   21149253.0394   21149256.0494
       841.0634
 10  1  1  1  9 30.0000000  0  9G12G17G22G28G18G26G09G15G27
 -16138778.43148 -12516817.44247  22806730.2794   22806730.0544   22806733.4244
      3143.3144
 -16546175.21348 -12841424.63347  22346285.6344   22346285.4404   22346287.7694
       727.3544
  -6096850.69647  -4739936.28946  24325925.3204   24325925.5734   24325926.5694
      1551.2404
  -8823781.68847  -6827257.00546  24086596.8384   24086596.3914   24086597.4724
     -3031.4074
 -13721633.80148 -10682230.11146  22874917.8834   22874917.1174   22874919.8374
      -157.3234
  -4022802.75947  -3129860.25046  24052680.9564   24052681.4644   24052684.1554
      3706.3344
 -26540248.13949 -20614347.82748  20448629.1274   20448628.9464   20448631.2764
      1727.4644
 -23418302.38149 -18244710.99848  20783718.3044   20783718.6754   20783720.3334
     -1595.7484
 -21783783.48449 -16935120.77748  21144467.3984   21144467.1544   21144470.2064
       835.1364
 10  1  1  1 10  0.0000000  0  9G12G17G22G28G18G26G09G15G27
 -16232948.55948 -12590196.73647  22788810.2814   22788810.7574   22788812.8784
      3134.6924
 -16567719.78348 -12858212.59447  22342185.7364   22342185.9154   22342187.8764
       709.0114
  -6143153.98747  -4776016.77846  24317114.4704   24317114.4914   24317113.5774
      1535.6104
  -8732792.24947  -6756356.13546  24103911.2094   24103910.8564   24103911.6444
     -3034.2724
 -13716642.88348 -10678341.09346  22875867.5044   22875867.5604   22875869.1964
      -175.2284
  -4133941.32947  -3216461.69146  24031531.5634   24031530.6204   24031534.4464
      3702.5674
 -26591911.55949 -20654605.03648  20438797.7774   20438797.6354   20438800.2594
      1716.8784
 -23370191.66549 -18207222.12948  20792873.4104   20792873.6634   20792875.6884
     -1611.5734
 -21808750.44049 -16954575.54548  21139716.5834   21139716.2814   21139719.1834
       829.3184
 10  1  1  1 10 30.0000000  0  9G12G17G22G28G18G26G09G15G27
 -16326848.02948 -12663365.13147  22770941.7464   22770941.7204   22770944.4594
      3125.9334
 -16588712.90848 -12874570.86447  22338191.0184   22338191.3064   22338192.7874
       691.1004
  -6188976.82247  -4811722.90146  24308397.4984   24308396.0084   24308395.9064
      1519.8694
  -8641706.74947  -6685380.40246  24121244.4184   24121243.8604   24121245.2384
     -3037.2744
 -13711100.12247 -10674022.06646  22876922.1454   22876921.5414   22876923.5394
      -193.5624
  -4244943.44647  -3302956.80546  24010410.0194   24010409.9424   24010411.8124
      3698.3214
 -26643246.89749 -20694606.59948  20429028.9734   20429028.9274   20429031.7964
      1706.0634
 -23321596.44749 -18169355.72948  20802120.6824   20802120.9574   20802122.7844
     -1627.4664
 -21833535.54649 -16973888.61448  21135000.0244   21134999.9034   21135002.6414
       823.5964
 10  1  1  1 11  0.0000000  0  9G12G17G22G28G18G26G09G15G27
 -16420468.59948 -12736316.21447  22753126.7684   22753127.2714   22753129.0304
      3116.3364
 -16609146.78948 -12890493.35847  22334302.4544   22334302.9334   22334304.5254
       672.1394
  -6234310.71647  -4847048.03346  24299767.4724   24299767.8864   24299767.1114
      1502.9964
  -8550519.75947  -6614325.60946  24138596.8274   24138596.5074   24138596.8294
     -3040.9874
 -13704998.97548 -10669267.92947  22878082.6414   22878082.7744   22878084.2854
      -212.5654
  -4355799.68847  -3389338.27146  23989314.2334   23989314.0274   23989316.6124
      3693.3214
 -26694246.62749 -20734346.64948  20419324.2084   20419324.0254   20419326.5034
      1694.6734
 -23272510.58849 -18131107.00648  20811461.2714   20811461.5614   20811463.5904
     -1644.0304
 -21858131.57349 -16993054.34748  21130319.7014   21130319.3384   21130322.2964
       817.0374
 10  1  1  1 11 30.0000000  0  9G12G17G22G28G18G26G09G15G27
 -16513821.12748 -12809058.42847  22735362.2014   22735362.4704   22735364.2914
      3107.7194
 -16629032.47348 -12905988.68247  22330518.2524   22330518.2714   22330519.7074
       653.9924
  -6279166.51647  -4882000.62046  24291231.9554   24291231.6434   24291231.6084
      1487.5764
  -8459245.80247  -6543203.06146  24155965.3594   24155964.8904   24155966.7024
     -3043.7824
 -13698352.37248 -10664088.76647  22879348.3334   22879348.0194   22879348.4334
      -230.3874
  -4466520.15847  -3475613.93546  23968245.0784   23968243.9264   23968247.0324
      3688.9414
 -26744921.91949 -20773833.88548  20409681.0894   20409680.9424   20409683.3004
      1683.9794
 -23222947.36549 -18092486.31248  20820893.0184   20820893.2474   20820895.0364
     -1659.8044
 -21882550.72949 -17012082.25848  21125672.7064   21125672.6744   21125675.5374
       811.2024
 10  1  1  1 12  0.0000000  0  9G12G17G22G28G18G26G09G15G27
 -16606895.30848 -12881583.75847  22717650.5874   22717650.5904   22717652.1554
      3097.5514
 -16648359.77548 -12921048.90947  22326840.3624   22326840.3424   22326842.2284
       634.6294
  -6323533.86047  -4916572.58146  24282789.5594   24282789.0284   24282791.0854
      1470.6184
  -8367877.27247  -6472006.81446  24173351.6564   24173352.2294   24173352.6194
     -3047.3454
 -13691152.14448 -10658478.20046  22880718.1894   22880717.2994   22880720.7024
      -249.7424
  -4577093.02646  -3561774.61246  23947203.0974   23947201.8844   23947205.5524
      3682.6404
 -26795262.32649 -20813060.17848  20400101.5144   20400101.3064   20400104.3104
      1672.0804
 -23172898.40149 -18053487.12348  20830417.0864   20830417.1734   20830419.1744
     -1676.6934
 -21906783.39849 -17030964.85648  21121061.4904   21121061.1444   21121064.0134
       804.3544
 10  1  1  1 12 30.0000000  0  9G12G17G22G28G18G26G09G15G27
 -16699690.15848 -12953891.44347  22699992.6194   22699993.1824   22699995.1984
      3088.7134
 -16667128.77948 -12935674.09347  22323268.7084   22323268.4964   22323270.2244
       616.6074
  -6367412.71247  -4950763.89446  24274439.7924   24274440.4984   24274438.4754
      1454.7004
  -8276416.93547  -6400739.01846  24190756.3854   24190755.5594   24190757.1104
     -3049.9084
 -13683400.03548 -10652437.61347  22882193.3464   22882192.8034   22882196.0634
      -267.2884
  -4687516.93747  -3647819.19846  23926190.1154   23926189.0644   23926192.9264
      3678.1664
 -26845268.15649 -20852025.75848  20390585.8124   20390585.6634   20390588.3304
      1661.3624
 -23122365.74149 -18014111.02848  20840033.0094   20840033.4044   20840035.1864
     -1692.3294
 -21930830.50849 -17049702.85848  21116485.5154   21116485.2814   21116487.8984
       798.6474
 10  1  1  1 13  0.0000000  0  9G12G17G22G28G18G26G09G15G27
 -16792207.99148 -13025983.25847  22682387.1794   22682386.3694   22682389.0724
      3079.7354
 -16685342.12148 -12949866.29947  22319802.6734   22319802.9334   22319804.6354
       598.2384
  -6410805.14847  -4984576.20546  24266181.6834   24266180.6474   24266182.2894
      1438.6524
  -8184870.01547  -6329403.77246  24208177.1154   24208176.3234   24208178.0714
     -3052.5104
 -13675100.28648 -10645970.27947  22883772.8084   22883771.8714   22883773.8194
      -285.3944
  -4797792.68647  -3733748.35846  23905205.7624   23905205.5804   23905208.2844
      3673.7464
 -26894942.00049 -20890732.64948  20381133.1454   20381132.7154   20381135.2144
      1650.6074
 -23071354.05149 -17974361.66448  20849740.2964   20849740.4194   20849742.5484
     -1707.9794
 -21954695.06449 -17068298.61248  21111944.2444   21111943.8984   21111946.6204
       792.7524
 10  1  1  1 13 30.0000000  0  9G12G17G22G28G18G26G09G15G27
 -16884444.39148 -13097855.75447  22664834.9254   22664834.9664   22664836.4424
      3070.3374
 -16702995.46848 -12963622.14247  22316443.3954   22316443.0364   22316445.6344
       579.5974
  -6453706.90747  -5018006.15446  24258017.9874   24258017.8944   24258018.0124
      1422.1114
  -8093235.24847  -6258000.06346  24225614.6544   24225613.6504   24225617.3614
     -3055.2214
 -13666250.54548 -10639074.38847  22885457.0964   22885456.9754   22885458.0034
      -303.8094
  -4907914.97747  -3819557.94446  23884249.9324   23884249.9964   23884253.9154
      3668.6644
 -26944279.38349 -20929177.35748  20371744.4754   20371744.4024   20371747.0264
      1639.4754
 -23019860.74649 -17934237.01348  20859539.1214   20859539.4154   20859541.2554
     -1723.9274
 -21978373.85549 -17086749.61248  21107438.0714   21107438.1324   21107440.7854
       786.6964
 10  1  1  1 14  0.0000000  0  9G12G17G22G28G18G26G09G15G27
 -16976398.82548 -13169508.53547  22647336.0654   22647336.7534   22647337.8674
      3059.6224
 -16720089.12248 -12976941.86147  22313190.6914   22313190.9364   22313192.4934
       559.6594
  -6496118.20147  -5051053.94146  24249945.1664   24249946.8414   24249947.6814
      1404.7974
  -8001515.40547  -6186530.05846  24243068.6014   24243067.8704   24243069.7204
     -3059.5314
 -13656852.59748 -10631751.31247  22887245.5984   22887244.9884   22887247.6164
      -323.2334
  -5017882.09247  -3905246.60846  23863322.7704   23863323.5584   23863326.3764
      3662.3484
 -26993280.52749 -20967360.06748  20362419.9604   20362419.7994   20362422.4644
      1626.9744
 -22967888.36249 -17893739.05548  20869429.1054   20869429.3004   20869431.4314
     -1741.2134
 -22001867.51149 -17105056.35148  21102967.5904   21102967.3384   21102970.2784
       779.1614
 10  1  1  1 14 30.0000000  0  9G12G17G22G28G18G26G09G15G27
 -17068070.25048 -13240940.79847  22629891.5934   22629891.6414   22629894.2914
      3050.7264
 -16736622.55348 -12989825.04647  22310044.3134   22310044.1204   22310046.5184
       541.5764
  -6538037.58047  -5083718.39046  24241972.4424   24241971.0634   24241972.5134
      1388.9294
  -7909712.68047  -6114995.46346  24260537.8194   24260536.6224   24260538.6994
     -3061.5564
 -13646907.62848 -10624002.01047  22889138.8574   22889136.9004   22889139.1574
      -340.7884
  -5127691.73347  -3990812.57146  23842428.1174   23842427.7294   23842431.1264
      3657.6804
 -27041945.07549 -21005280.49148  20353159.5394   20353159.1104   20353162.0564
      1616.3564
 -22915437.39049 -17852868.17148  20879410.2084   20879410.5984   20879412.5734
     -1756.3974
 -22025175.78649 -17123218.64248  21098532.1224   21098532.0184   21098534.8424
       773.7034
 10  1  1  1 15  0.0000000  0  9G12G17G22G28G18G26G09G15G27
 -17159454.86148 -13312149.56247  22612501.5514   22612502.2494   22612504.6984
      3041.7164
 -16752592.50448 -13002269.14947  22307005.4404   22307005.7404   22307007.4904
       523.4194
  -6579461.68547  -5115996.94346  24234086.4794   24234088.2324   24234087.7054
      1373.0114
  -7817826.02247  -6043395.46546  24278023.5984   24278023.1774   24278025.3344
     -3063.9614
 -13636414.04048 -10615825.19047  22891134.2404   22891133.1244   22891135.9094
      -358.6184
  -5237339.03947  -4076252.05046  23821562.8264   23821562.4424   23821565.9774
      3652.6994
 -27090269.35349 -21042935.76648  20343963.5164   20343963.1104   20343966.1814
      1605.5724
 -22862506.74549 -17811623.51648  20889482.6894   20889482.9344   20889484.7724
     -1771.9174
 -22048295.93549 -17141234.33948  21094132.5284   21094132.3794   21094135.3554
       767.8944
 10  1  1  1 15 30.0000000  0  9G12G17G22G28G18G26G09G15G27
 -17250556.93048 -13383138.17947  22595166.0984   22595166.1414   22595167.3054
      3031.1894
 -16768002.72348 -13014277.10047  22304073.1234   22304073.1284   22304075.0204
       503.5644
  -6620394.43947  -5147892.59446  24226299.6744   24226299.8084   24226299.1024
      1355.5004
  -7725862.55947  -5971735.62946  24295523.4284   24295523.5264   24295525.6184
     -3067.5004
 -13625377.93948 -10607225.64347  22893234.9594   22893233.2884   22893235.9354
      -377.6344
  -5346826.50747  -4161566.97646  23800728.4724   23800728.2894   23800732.2174
      3646.3164
 -27138257.45449 -21080329.08748  20334831.7544   20334831.3484   20334834.2254
      1593.1304
 -22809102.54149 -17770009.85548  20899645.0134   20899645.5554   20899647.3374
     -1788.8514
 -22071232.83349 -17159107.24248  21089767.7764   21089767.0994   21089770.4814
       760.7374
 10  1  1  1 16  0.0000000  0  9G12G17G22G28G18G26G09G15G27
 -17341368.12248 -13453900.13547  22577885.4984   22577885.1474   22577886.7344
      3022.5404
 -16782846.30848 -13025843.51547  22301248.5314   22301248.5144   22301250.2444
       485.7544
  -6660828.28347  -5179399.49746  24218606.3304   24218604.7864   24218604.6104
      1339.8814
  -7633817.57447  -5900012.26846  24313039.2784   24313039.8594   24313040.8244
     -3069.2204
 -13613793.91748 -10598199.15047  22895439.5714   22895437.2394   22895440.4904
      -394.8964
  -5456145.29747  -4246750.46446  23779924.6424   23779925.0534   23779928.3064
      3641.9004
 -27185901.98449 -21117454.68648  20325765.3564   20325765.2474   20325767.6384
      1582.8374
 -22755219.61049 -17728023.15948  20909898.6974   20909899.0254   20909900.6944
     -1803.6434
 -22093979.85449 -17176832.19248  21085439.0324   21085439.0564   21085441.8944
       755.4174
 10  1  1  1 16 30.0000000  0  9G12G17G22G28G18G26G09G15G27
 -17431891.95048 -13524438.16547  22560659.3254   22560659.5984   22560660.6244
      3012.7684
 -16797127.37748 -13036971.60947  22298530.5704   22298530.8564   22298532.7394
       466.7164
  -6700767.27047  -5210520.79046  24211001.8784   24211004.3744   24211005.7944
      1323.3934
  -7541697.83147  -5828230.65946  24330568.6854   24330567.4634   24330569.6514
     -3071.4064
 -13601667.70948 -10588750.17247  22897747.3804   22897746.8074   22897748.0064
      -412.8714
  -5565297.89547  -4331804.43446  23759153.2224   23759153.1924   23759156.6844
      3635.9834
 -27233206.78549 -21154315.56348  20316763.4544   20316763.2944   20316765.8494
      1571.1774
 -22700863.81149 -17685667.99348  20920242.2694   20920242.4984   20920244.6114
     -1819.7264
 -22116541.68949 -17194412.83748  21081145.5594   21081145.4114   21081148.3394
       749.0924
 10  1  1  1 17  0.0000000  0  9G12G17G22G28G18G26G09G15G27
 -17522126.19048 -13594750.54947  22543488.4004   22543488.1034   22543490.0604
      3002.9254
 -16810844.33748 -13047660.13847  22295920.5544   22295920.8134   22295922.0544
       447.9034
  -6740209.23347  -5241254.79746  24203499.1214   24203497.9504   24203497.7564
      1306.8394
  -7449504.12747  -5756391.42146  24348112.8064   24348112.3754   24348115.6074
     -3074.1674
 -13588999.34148 -10578878.72247  22900156.9674   22900156.9844   22900158.8124
      -431.2804
  -5674280.85247  -4416726.21446  23738414.8844   23738414.4354   23738419.1724
      3630.2814
 -27280170.13349 -21190910.37048  20307826.7244   20307826.6144   20307828.8564
      1559.7544
 -22646035.28849 -17642944.47048  20930675.7004   20930676.0204   20930677.8694
     -1835.5224
 -22138916.96049 -17211848.10948  21076887.9044   21076887.6684   21076890.4694
       742.7534
 10  1  1  1 17 30.0000000  0  9G12G17G22G28G18G26G09G15G27
 -17612066.63248 -13664833.98847  22526372.8074   22526372.8264   22526374.4864
      2993.4094
 -16823993.38448 -13057906.14147  22293418.2554   22293418.3504   22293420.2274
       429.0284
  -6779150.13847  -5271598.35946  24196088.5054   24196089.3804   24196090.5834
      1289.9094
  -7357234.99847  -5684493.40946  24365671.1214   24365670.2994   24365671.8214
     -3076.6164
 -13575786.57848 -10568583.07447  22902671.3224   22902670.2404   22902673.0264
      -449.3874
  -5783088.30147  -4501511.22446  23717709.2374   23717709.3274   23717710.8104
      3624.3464
 -27326787.99349 -21227235.97248  20298955.6674   20298955.4294   20298957.8314
      1548.4044
 -22590732.10749 -17599851.08848  20941199.6194   20941199.8834   20941201.7864
     -1851.1114
 -22161102.11949 -17229135.24048  21072666.1194   21072665.6694   21072668.7804
       736.6304
 10  1  1  1 18  0.0000000  0  9G12G17G22G28G18G26G09G15G27
 -17701713.52648 -13734688.69547  22509313.3874   22509313.6184   22509316.0324
      2983.4654
 -16836575.15048 -13067710.10547  22291023.8974   22291024.3994   22291025.8824
       409.8944
  -6817590.68947  -5301552.05946  24188774.2964   24188772.9424   24188773.5674
      1273.2584
  -7264893.81747  -5612539.24346  24383243.0984   24383243.3374   24383244.1454
     -3079.2254
 -13562032.38048 -10557865.52946  22905288.8374   22905288.2074   22905291.1574
      -467.4964
  -5891719.48547  -4586158.91146  23697038.6984   23697039.3034   23697041.4884
      3617.6994
 -27373061.17249 -21263292.98748  20290150.0134   20290149.7654   20290152.6514
      1536.6924
 -22534957.25249 -17556390.16648  20951813.3264   20951813.3514   20951815.2754
     -1866.9654
 -22183098.47049 -17246275.24748  21068480.4914   21068480.3144   21068482.9434
       730.0524
 10  1  1  1 18 30.0000000  0  9G12G17G22G28G18G26G09G15G27
 -17791067.67648 -13804315.29547  22492309.9124   22492310.6324   22492312.2144
      2973.2794
 -16848591.04148 -13077073.12547  22288737.4154   22288737.2594   22288739.4504
       390.6884
  -6855531.85847  -5331116.60546  24181554.7754   24181552.5604   24181555.7904
      1256.1774
  -7172484.29847  -5540531.82246  24400827.7934   24400826.9734   24400828.9794
     -3081.5994
 -13547739.58348 -10546728.28346  22908007.9624   22908008.8744   22908010.1284
      -485.7254
  -6000173.79247  -4670668.76746  23676399.4944   23676399.8804   23676402.8764
      3611.8544
 -27418990.89449 -21299082.36948  20281409.8864   20281409.5704   20281412.2644
      1524.9694
 -22478713.55149 -17512563.90748  20962516.0004   20962516.0704   20962518.1444
     -1882.8754
 -22204907.81849 -17263269.53748  21064330.1064   21064329.8324   21064332.6644
       723.5814
 10  1  1  1 19  0.0000000  0  9G12G17G22G28G18G26G09G15G27
 -17880124.64748 -13873710.32447  22475363.3754   22475363.6604   22475364.8234
      2963.3854
 -16860037.42748 -13085992.37947  22286559.2954   22286559.7894   22286561.3964
       371.8994
  -6892969.37047  -5360288.67946  24174430.9344   24174429.2294   24174430.2334
      1239.2354
  -7080004.98347  -5468470.00646  24418425.6144   24418425.4614   24418427.0264
     -3083.9984
 -13532906.41748 -10535169.98947  22910832.0884   22910830.7224   22910833.9394
      -503.3744
  -6108445.43447  -4755036.26646  23655795.4944   23655795.2454   23655798.5834
      3605.6914
 -27464572.79949 -21334600.73048  20272735.9174   20272735.6734   20272738.4114
      1513.3934
 -22421998.93749 -17468370.70748  20973308.3304   20973308.6684   20973310.6064
     -1898.5164
 -22226526.55249 -17280115.29948  21060216.2294   21060216.0814   21060219.2314
       717.3134
 10  1  1  1 19 30.0000000  0  9G12G17G22G28G18G26G09G15G27
 -17968884.72548 -13942874.00447  22458472.7644   22458472.6374   22458474.3584
      2953.5124
 -16870915.28848 -13094468.62247  22284489.0404   22284489.9244   22284491.5134
       353.0114
  -6929903.90847  -5389068.85146  24167401.1294   24167401.7314   24167401.0434
      1222.5944
  -6987459.33947  -5396356.50846  24436036.8514   24436035.9424   24436039.1564
     -3086.2134
 -13517535.45948 -10523192.64247  22913756.8254   22913756.6634   22913758.4804
      -521.4964
  -6216533.60147  -4839260.79346  23635228.4804   23635229.1774   23635231.2804
      3599.6424
 -27509807.45249 -21369848.50348  20264128.0524   20264127.9354   20264130.3244
      1501.8114
 -22364816.47049 -17423812.94348  20984189.7734   20984190.0334   20984192.3354
     -1914.0464
 -22247955.99049 -17296813.55748  21056138.5834   21056138.3664   21056141.1864
       710.9734
 10  1  1  1 20  0.0000000  0  9G12G17G22G28G18G26G09G15G27
 -18057344.91448 -14011804.01147  22441639.1004   22441639.2964   22441641.9264
      2943.0514
 -16881222.00748 -13102499.82347  22282528.0284   22282528.1244   22282530.0074
       333.4194
  -6966332.88747  -5417455.05946  24160469.7564   24160467.9594   24160470.5844
      1205.4304
  -6894847.44447  -5324191.38546  24453660.2884   24453659.2104   24453661.5924
     -3088.8814
 -13501626.08448 -10510795.73147  22916783.5064   22916783.4574   22916784.6124
      -539.9054
  -6324433.83747  -4923338.87646  23614695.6774   23614695.4984   23614697.7684
      3592.9324
 -27554692.48349 -21404823.84748  20255586.6834   20255586.5604   20255589.0864
      1489.7904
 -22307165.50849 -17378890.12148  20995160.4784   20995160.8174   20995163.0804
     -1930.0074
 -22269193.97349 -17313362.63448  21052096.8784   21052096.7064   21052099.6714
       704.2204
 10  1  1  1 20 30.0000000  0  9G12G17G22G28G18G26G09G15G27
 -18145505.40148 -14080500.47447  22424863.0564   22424863.2854   22424864.7954
      2933.6434
 -16890958.38348 -13110086.59147  22280675.2784   22280675.2174   22280677.0784
       314.9214
  -7002256.57747  -5445447.54746  24153632.6384   24153632.2604   24153633.6544
      1188.9024
  -6802172.04947  -5251976.80446  24471295.9354   24471294.8794   24471296.7374
     -3090.2624
 -13485180.57348 -10497981.06946  22919913.9454   22919913.2604   22919915.1424
      -557.3394
  -6432145.11147  -5007269.71446  23594199.4454   23594200.1794   23594201.1384
      3587.1984
 -27599228.07949 -21439526.90348  20247111.8624   20247111.7224   20247114.1034
      1478.6024
 -22249049.03149 -17333604.55648  21006219.8914   21006220.0684   21006221.9894
     -1945.0654
 -22290241.45949 -17329763.26748  21048091.7924   21048091.4534   21048094.2114
       698.3184
 10  1  1  1 21  0.0000000  0  9G12G17G22G28G18G26G09G15G27
 -18233366.80148 -14148963.89547  22408143.6314   22408143.7254   22408145.2984
      2923.7374
 -16900126.05548 -13117230.21747  22278930.8734   22278930.8734   22278932.3964
       296.0384
  -7037676.57847  -5473047.53746  24146892.9794   24146892.5804   24146892.0024
      1172.3814
  -6709436.97247  -5179715.72546  24488942.8824   24488942.7004   24488943.8844
     -3092.1394
 -13468202.32548 -10484751.29147  22923144.3214   22923143.2244   22923146.4114
      -574.7944
  -6539666.80847  -5091052.82546  23573738.5674   23573738.1784   23573741.7004
      3580.9704
 -27643415.52749 -21473958.67048  20238703.3144   20238703.0474   20238705.5174
      1467.1034
 -22190469.47149 -17287958.14948  21017366.9834   21017367.2724   21017369.3024
     -1960.3354
 -22311100.43549 -17346017.00648  21044122.5134   21044122.2924   21044125.0774
       692.1304
 10  1  1  1 21 30.0000000  0  9G12G17G22G28G18G26G09G15G27
 -18320923.59548 -14217189.95447  22391481.8514   22391481.9944   22391484.0724
      2913.3194
 -16908720.09948 -13123926.85947  22277295.2894   22277295.1334   22277297.0384
       276.9344
  -7072587.30447  -5500250.70446  24140249.5734   24140249.2404   24140250.2274
      1155.2964
  -6616639.51647  -5107406.01046  24506601.5164   24506601.1354   24506602.6344
     -3094.2054
 -13450688.12248 -10471103.86846  22926477.7834   22926477.1904   22926478.6484
      -592.8134
  -6646992.00547  -5174682.81146  23553315.0084   23553314.4704   23553318.2284
      3574.5604
 -27687249.47149 -21508114.98748  20230361.9484   20230361.8134   20230364.3604
      1455.2274
 -22131423.98749 -17241948.68548  21028603.1164   21028603.5064   21028605.4244
     -1976.0054
 -22331766.05649 -17362120.08748  21040189.8524   21040189.6524   21040192.3954
       685.6524
 10  1  1  1 22  0.0000000  0 10G12G17G22G30G28G18G26G09G15G27
 -18408178.72448 -14285180.93547  22374877.4364   22374878.2004   22374879.5724
      2903.8814
 -16916744.40548 -13130179.55047  22275768.0544   22275768.0624   22275770.3854
       258.5604
  -7106991.95447  -5527059.53346  24133703.9324   24133701.8024   24133702.2284
      1138.9484
  -3306279.22346  -2531291.32545  25442896.2514   25442896.9314   25442899.6984
      3707.9294
  -6523785.52147  -5035052.25546  24524271.3724   24524270.7854   24524273.0114
     -3095.4134
 -13432643.54648 -10457043.16046  22929910.6644   22929910.7994   22929912.0764
      -609.6944
  -6754122.21847  -5258160.84346  23532927.8154   23532927.8744   23532931.0934
      3568.5044
 -27730733.14549 -21541998.36448  20222087.1954   20222087.0104   20222089.8004
      1444.0984
 -22071918.00249 -17195580.38948  21039926.6044   21039926.9214   21039928.6584
     -1990.6604
 -22352242.16349 -17378075.49048  21036293.4634   21036293.4064   21036295.7714
       679.9004
 10  1  1  1 22 30.0000000  0  9G12G17G22G28G18G26G09G15G27
 -18495125.74448 -14352931.83847  22358332.1394   22358331.8754   22358333.5304
      2893.2224
 -16924192.67848 -13135983.38947  22274350.7154   22274350.8014   22274353.0214
       238.8614
  -7140884.81747  -5553469.55746  24127253.4264   24127252.5994   24127253.2594
      1121.2224
  -6430871.76847  -4962651.93846  24541952.4354   24541951.5024   24541953.3174
     -3098.2544
 -13414064.45448 -10442565.96046  22933446.1814   22933444.8094   22933448.0304
      -628.0164
  -6861049.44547  -5341480.72246  23512580.3664   23512579.9544   23512583.0044
      3560.9814
 -27773860.32949 -21575603.95348  20213880.4924   20213880.4774   20213882.7554
      1431.7214
 -22011947.75249 -17148850.32448  21051338.5894   21051339.0194   21051340.7264
     -2006.5824
 -22372523.21949 -17393878.90648  21032434.1264   21032433.8634   21032436.6584
       672.9284
 10  1  1  1 23  0.0000000  0  9G12G17G22G28G18G26G09G15G27
 -18581768.35848 -14420445.54547  22341844.5884   22341845.0514   22341847.1784
      2882.6874
 -16931069.65248 -13141342.05847  22273042.2394   22273042.3624   22273044.4084
       219.3434
  -7174269.67247  -5579483.72846  24120899.4124   24120900.3294   24120901.4954
      1104.0484
  -6337904.65547  -4890210.03846  24559643.6044   24559643.7564   24559645.5914
     -3100.1184
 -13394957.03948 -10427677.07346  22937082.8674   22937082.8474   22937084.3334
      -646.2074
  -6967776.26447  -5424644.46646  23492271.7254   23492271.7464   23492274.3174
      3553.9224
 -27816635.04349 -21608934.88848  20205740.8104   20205740.4694   20205743.0094
      1419.5384
 -21951519.44349 -17101763.33348  21062837.6834   21062837.9734   21062839.9544
     -2022.2344
 -22392613.43549 -17409533.61948  21028610.9784   21028610.7894   21028613.8714
       666.1214
 10  1  1  1 23 30.0000000  0  9G12G17G22G28G18G26G09G15G27
 -18668103.39948 -14487719.57247  22325415.6164   22325416.1274   22325417.6664
      2872.4694
 -16937372.85548 -13146253.62847  22271842.6524   22271843.2934   22271844.7314
       200.3554
  -7207143.76047  -5605099.90146  24114646.9834   24114644.5654   24114645.0704
      1087.1804
  -6244883.68547  -4817726.17146  24577344.9704   24577344.8964   24577347.3154
     -3101.9154
 -13375320.67548 -10412376.00946  22940819.7254   22940818.2794   22940821.2924
      -663.5044
  -7074298.00647  -5507648.40146  23472000.7834   23472000.9514   23472003.4644
      3547.0854
 -27859054.19849 -21641988.76648  20197668.5844   20197668.2804   20197671.0664
      1407.8854
 -21890632.53449 -17054318.99248  21074424.0774   21074424.3244   21074426.4234
     -2037.3314
 -22412510.77749 -17425038.03748  21024824.7144   21024824.5354   21024827.2564
       659.9034
 10  1  1  1 24  0.0000000  0  9G12G17G22G28G18G26G09G15G27
 -18754128.36448 -14554751.98947  22309045.3534   22309045.8864   22309047.5634
      2862.5604
 -16943100.52848 -13150716.73347  22270752.9314   22270753.2074   22270754.4764
       181.4614
  -7239505.32847  -5630316.71446  24108487.8594   24108485.2194   24108486.6724
      1070.2714
  -6151809.13247  -4745200.54046  24595056.2574   24595055.5684   24595057.0734
     -3103.2524
 -13355155.26148 -10396662.71846  22944656.4464   22944656.3474   22944657.7574
      -680.7574
  -7180610.58247  -5590489.33546  23451770.3744   23451770.3274   23451773.5004
      3540.2914
 -27901115.65549 -21674763.92048  20189664.3984   20189664.2714   20189666.8274
      1396.2564
 -21829286.57649 -17006516.95048  21086097.9044   21086098.1204   21086100.0794
     -2052.2704
 -22432213.48449 -17440390.79348  21021075.3584   21021075.0444   21021077.7804
       653.6664
 10  1  1  1 24 30.0000000  0  9G12G17G22G28G18G26G09G15G27
 -18839843.87148 -14621543.26447  22292734.5744   22292734.5784   22292736.3814
      2851.9894
 -16948254.13948 -13154732.52047  22269771.9354   22269772.1804   22269773.8254
       162.2024
  -7271355.17347  -5655134.77346  24102425.8114   24102425.6444   24102425.0694
      1052.9904
  -6058684.45246  -4672635.86346  24612777.1044   24612776.2114   24612779.0074
     -3104.7384
 -13334463.85548 -10380539.57246  22948593.6324   22948593.6594   22948595.1704
      -698.3614
  -7286713.23847  -5673166.71346  23431579.0664   23431578.6974   23431581.3184
      3533.0354
 -27942820.38349 -21707261.10148  20181728.3904   20181728.2274   20181731.1374
      1384.2024
 -21767484.96349 -16958359.85548  21097858.4404   21097858.4174   21097860.4344
     -2067.6524
 -22451722.75649 -17455592.82148  21017362.8764   21017362.5944   21017365.5404
       647.0424
 10  1  1  1 25  0.0000000  0  9G12G17G22G28G18G26G09G15G27
 -18925246.55348 -14688090.79347  22276482.9044   22276482.7464   22276484.5354
      2841.3124
 -16952831.09448 -13158298.96747  22268901.2084   22268901.2534   22268903.1464
       142.7514
  -7302689.98547  -5679551.51846  24096463.3984   24096461.6354   24096463.1434
      1035.5664
  -5965509.12947  -4600031.71546  24630508.0214   24630506.6934   24630509.0574
     -3106.6844
 -13313245.61548 -10364005.88646  22952630.9464   22952630.4224   22952632.2894
      -716.0884
  -7392601.08847  -5755676.71246  23411429.9594   23411428.7724   23411431.8464
      3525.7154
 -27984165.08849 -21739477.74948  20173860.7364   20173860.4674   20173863.0394
      1372.0414
 -21705226.69249 -16909846.91848  21109705.6294   21109705.8584   21109707.7644
     -2083.0674
 -22471035.90749 -17470642.03048  21013687.7764   21013687.2094   21013690.2574
       640.3274
 10  1  1  1 25 30.0000000  0  9G12G17G22G28G18G26G09G15G27
 -19010339.04748 -14754396.61247  22260290.1034   22260290.0714   22260292.2114
      2831.6444
 -16956834.96548 -13161418.85647  22268139.0194   22268139.3354   22268141.3724
       124.3154
  -7333513.48247  -5703569.82446  24090597.5204   24090596.7504   24090597.9384
      1019.1844
  -5872288.68947  -4527392.42246  24648246.4154   24648246.1354   24648248.5354
     -3107.8514
 -13291505.82648 -10347065.82946  22956769.0504   22956768.5724   22956769.7264
      -732.8144
  -7498275.43147  -5838020.35246  23391320.9914   23391319.7074   23391324.3654
      3519.4524
 -28025152.62549 -21771416.08448  20166061.0494   20166060.8344   20166063.3584
      1360.7254
 -21642517.10749 -16860982.31248  21121638.8624   21121639.1314   21121641.3034
     -2097.3734
 -22490156.69649 -17485541.34548  21010049.1794   21010048.7254   21010051.7634
       634.5514
 10  1  1  1 26  0.0000000  0  9G12G17G22G28G18G26G09G15G27
 -19095114.15348 -14820455.11747  22244158.0984   22244157.9194   22244160.2044
      2820.5734
 -16960259.34848 -13164087.19247  22267487.6424   22267487.9654   22267489.6854
       104.6154
  -7363818.59347  -5727184.20146  24084832.7164   24084830.9654   24084830.1784
      1001.6704
  -5779018.77847  -4454714.56246  24665995.8594   24665993.7804   24665995.6154
     -3109.4794
 -13269239.78348 -10329715.69146  22961006.1474   22961005.6554   22961005.6994
      -750.9724
  -7603727.43447  -5920190.72246  23371254.0694   23371254.7904   23371256.8274
      3511.4884
 -28065776.05049 -21803070.69348  20158330.7044   20158330.5534   20158333.0924
      1348.1294
 -21579351.70649 -16811762.52648  21133658.8514   21133659.2314   21133660.9974
     -2113.0404
 -22509078.67749 -17500285.74648  21006448.3174   21006447.9704   21006451.0104
       627.5114
 10  1  1  1 26 30.0000000  0 10G12G17G22G30G28G18G26G09G15G27
 -19179577.05748 -14886270.33947  22228085.4694   22228085.7514   22228087.3284
      2810.2774
 -16963110.65848 -13166308.98047  22266945.0314   22266945.0744   22266946.6594
        85.4834
  -7393611.43547  -5750399.39046  24079161.4724   24079160.5064   24079160.2344
       984.5984
  -1331475.56417                  25252804.532
      3690.759
  -5685707.83147  -4382004.73746  24683751.7464   24683750.6004   24683752.5264
     -3110.8844
 -13246455.90547 -10311962.02046  22965341.1874   22965340.8064   22965342.4404
      -767.9354
  -7708961.33447  -6002191.16846  23351228.6664   23351228.9504   23351230.7034
      3504.3424
 -28106041.12949 -21834446.07348  20150668.3844   20150668.4784   20150671.0104
      1336.2364
 -21515738.10349 -16762193.48948  21145764.2054   21145764.3224   21145766.6894
     -2127.8804
 -22527808.08349 -17514880.08848  21002884.4104   21002884.0504   21002886.8384
       621.0614
 10  1  1  1 27  0.0000000  0 10G12G17G22G30G28G18G26G09G15G27
 -19263718.88748 -14951835.36647  22212073.4354   22212073.7194   22212075.8884
      2799.1844
 -16965380.33848 -13168077.54847  22266512.9794   22266513.1204   22266514.7234
        65.7404
  -7422882.97847  -5773208.37046  24073590.5804   24073589.3184   24073590.4694
       966.7054
  -1442160.908 7                  25231742.932
      3688.113
  -5592349.00547  -4309257.59646  24701517.2754   24701517.1814   24701518.9224
     -3112.7624
 -13223147.22648 -10293799.42946  22969776.6284   22969777.1904   22969777.9604
      -785.7654
  -7813966.32947  -6084013.23846  23331246.9664   23331247.9914   23331249.5104
      3496.0164
 -28145939.05649 -21865535.35848  20143076.1624   20143075.9654   20143078.7054
      1323.5964
 -21451669.78349 -16712270.12548  21157956.1154   21157956.4204   21157958.4284
     -2143.3804
 -22546336.45449 -17529317.77848  20999358.4344   20999358.4174   20999361.2594
       613.9934
 10  1  1  1 27 30.0000000  0 10G12G17G22G30G28G18G26G09G15G27
 -19347547.06948 -15017155.99947  22196121.4114   22196121.6644   22196123.6364
      2788.2584
 -16967076.54148 -13169399.24947  22266190.2474   22266190.1414   22266192.6954
        46.2524
  -7451641.58747  -5795617.69046  24068119.7504   24068117.3394   24068117.1054
       949.3834
  -1552784.03147  -1150880.35745  25210691.2624   25210689.5804   25210694.0354
      3685.5394
  -5498952.42047  -4236481.03846  24719290.6384   24719290.4974   24719292.1854
     -3114.7894
 -13199323.69448 -10275235.66646  22974310.8314   22974310.2424   22974311.5774
      -803.3624
  -7918748.11647  -6165661.39446  23311307.4324   23311307.0154   23311309.2694
      3488.2344
 -28185477.10849 -21896344.22748  20135552.3894   20135552.2764   20135554.9574
      1311.2274
 -21387156.80749 -16662000.27948  21170232.4164   21170232.6114   21170234.7814
     -2158.5134
 -22564671.72149 -17543605.00148  20995869.2764   20995869.1954   20995872.3074
       607.2684
 10  1  1  1 28  0.0000000  0 10G12G17G22G30G28G18G26G09G15G27
 -19431056.45348 -15082228.23247  22180230.3854   22180230.4644   22180232.2684
      2778.5364
 -16968195.20848 -13170270.92447  22265977.5064   22265977.5954   22265979.3284
        27.7154
  -7479882.31247  -5817623.42746  24062742.0684   24062742.9834   24062744.4784
       932.9614
  -1663339.92447  -1237027.83945  25189652.1414   25189652.9894   25189655.0884
      3684.4494
  -5405515.78947  -4163673.27346  24737070.8744   24737070.3734   24737073.2434
     -3115.1684
 -13174983.04048 -10256268.95146  22978942.5114   22978941.5024   22978943.6794
      -819.9604
  -8023299.97547  -6247130.37246  23291411.5564   23291411.4674   23291414.2254
      3481.3394
 -28224650.55449 -21926868.98448  20128098.0664   20128097.9954   20128100.2694
      1299.8394
 -21322196.71749 -16611382.03048  21182593.9864   21182594.2724   21182596.0604
     -2172.6344
 -22582809.41349 -17557738.26448  20992417.9334   20992417.7374   20992420.6524
       601.3754
 10  1  1  1 28 30.0000000  0 10G12G17G22G30G28G18G26G09G15G27
 -19514245.14248 -15147050.57347  22164399.7614   22164400.3634   22164401.8484
      2767.8934
 -16968735.52148 -13170691.93747  22265874.4664   22265874.9924   22265876.9474
         8.6284
  -7507603.99047  -5839224.72946  24057465.5114   24057466.5004   24057468.8954
       915.6414
  -1773826.44447  -1323121.25345  25168627.8424   25168627.1094   25168631.9094
      3681.8274
  -5312039.93247  -4090834.94046  24754858.8214   24754858.3774   24754858.9614
     -3116.3594
 -13150125.72548 -10236899.63846  22983672.4004   22983671.5274   22983674.6484
      -836.8714
  -8127618.85947  -6328417.83046  23271560.5364   23271561.2334   23271563.5204
      3473.6584
 -28263457.61849 -21957108.25048  20120713.1234   20120713.0344   20120715.5124
      1287.7204
 -21256790.21249 -16560415.92748  21195040.2624   21195040.6974   21195042.5924
     -2187.3644
 -22600748.87749 -17571717.06848  20989004.0674   20989003.9844   20989006.6864
       595.0014
 10  1  1  1 29  0.0000000  0 10G12G17G22G30G28G18G26G09G15G27
 -19597112.00448 -15211622.13447  22148631.1084   22148630.9844   22148632.8274
      2757.0154
 -16968697.13648 -13170662.01447  22265881.6324   22265881.9574   22265884.1774
       -10.8154
  -7534805.95547  -5860421.07246  24052289.2534   24052292.1234   24052293.0284
       898.1244
  -1884242.00047  -1409159.31445  25147617.2164   25147617.1234   25147621.0004
      3679.3744
  -5218526.26947  -4017967.15546  24772653.7554   24772653.0884   24772654.8404
     -3117.7534
 -13124753.44248 -10217129.05746  22988500.2384   22988498.8834   22988502.3654
      -854.1734
  -8231701.63447  -6409521.29146  23251753.6504   23251753.6204   23251757.1144
      3465.6484
 -28301897.77249 -21987061.61448  20113398.2824   20113398.0454   20113400.5064
      1275.3264
 -21190938.51749 -16509102.92048  21207571.6324   21207571.8994   21207573.6854
     -2202.3334
 -22618489.36349 -17585540.82148  20985628.1594   20985627.8734   20985630.8014
       588.1514
 10  1  1  1 29 30.0000000  0 10G12G17G22G30G28G18G26G09G15G27
 -19679656.56148 -15275942.55647  22132923.4224   22132923.4474   22132925.3564
      2746.6644
 -16968080.54348 -13170181.53547  22265999.2234   22265999.2254   22266000.8714
       -29.5534
  -7561488.30647  -5881212.49446  24047216.5464   24047215.6534   24047214.8324
       881.2574
  -1994586.11147  -1495141.74745  25126619.7194   25126618.0004   25126622.1074
      3677.5664
  -5124977.26547  -3945071.83246  24790455.8884   24790455.6364   24790457.7414
     -3118.1904
 -13098868.29648 -10196958.85146  22993426.9184   22993425.9774   22993427.9354
      -870.8054
  -8335546.31247  -6490439.22746  23231992.9524   23231993.7194   23231996.2124
      3457.9324
 -28339970.62549 -22016728.76848  20106153.2044   20106152.9174   20106155.4464
      1263.4344
 -21124644.01549 -16457444.87248  21220186.8744   21220187.1214   21220189.1964
     -2216.5594
 -22636030.96449 -17599209.60148  20982290.2514   20982289.8864   20982293.0244
       581.9634
 10  1  1  1 30  0.0000000  0 10G12G17G22G30G28G18G26G09G15G27
 -19761878.92648 -15340011.91447  22117276.5584   22117276.7694   22117279.0584
      2735.5814
 -16966886.98548 -13169251.47447  22266226.3394   22266226.4424   22266228.3514
       -49.2384
  -7587651.72247  -5901599.57046  24042238.1134   24042235.3484   24042234.8334
       863.8474
  -2104858.51347  -1581068.25846  25105634.6554   25105636.1914   25105638.3454
      3674.4364
  -5031395.81247  -3872151.22646  24808263.4914   24808263.9854   24808266.4714
     -3119.9404
 -13072473.01247 -10176391.14346  22998449.3664   22998449.1444   22998450.1994
      -887.9284
  -8439151.52947  -6571170.56746  23212277.3404   23212276.8494   23212279.8254
      3449.4054
 -28377676.20149 -22046109.73248  20098977.9934   20098977.6974   20098980.5354
      1250.9694
 -21057909.13749 -16405443.67148  21232886.1894   21232886.4794   21232888.3424
     -2231.6004
 -22653374.65449 -17612724.16548  20978989.6624   20978989.6014   20978992.2314
       575.0464
 10  1  1  1 30 30.0000000  0 10G12G17G22G30G28G18G26G09G15G27
 -19843775.30948 -15403827.25347  22101692.1094   22101692.4434   22101694.2504
      2725.0524
 -16965113.67448 -13167869.65647  22266563.8964   22266564.0214   22266565.6554
       -68.3024
  -7613293.20447  -5921579.95646  24037359.8234   24037357.2154   24037356.5674
       846.6254
  -2215055.67047  -1666936.16046  25084664.3334   25084663.7454   25084668.9774
      3672.2314
  -4937780.55646  -3799204.27146  24826077.7414   24826076.5494   24826078.7714
     -3120.6514
 -13045566.79348 -10155425.28946  23003570.1754   23003569.0564   23003571.5414
      -904.9564
  -8542512.01647  -6651711.19146  23192608.2014   23192607.5274   23192611.2904
      3442.0894
 -28415010.93249 -22075201.73248  20091873.6394   20091873.3064   20091876.0244
      1238.8934
 -20990732.84549 -16353098.51348  21245669.5044   21245669.7314   21245671.5504
     -2245.9834
 -22670517.41049 -17626082.15548  20975727.5574   20975727.2794   20975730.3364
       568.6844
 10  1  1  1 31  0.0000000  0 10G12G17G22G30G28G18G26G09G15G27
 -19925346.08748 -15467388.87247  22086169.5774   22086170.4224   22086171.9184
      2713.5214
 -16962761.55248 -13166036.81747  22267011.2874   22267011.4554   22267012.7464
       -87.9894
  -7638413.45447  -5941154.17446  24032575.3404   24032576.0444   24032576.8234
       828.8464
  -2325177.21147  -1752745.10446  25063709.3654   25063708.4684   25063712.2464
      3669.9314
  -4844134.26946  -3726233.15346  24843898.6784   24843897.9544   24843899.9714
     -3121.7874
 -13018152.51147 -10134063.55646  23008785.2374   23008786.6084   23008789.1664
      -922.0934
  -8645626.09847  -6732059.83946  23172987.2454   23172987.3204   23172990.4894
      3433.1724
 -28451975.10849 -22104004.98148  20084839.4974   20084839.1084   20084841.7444
      1226.0114
 -20923117.82749 -16300411.48748  21258536.3554   21258536.3224   21258538.5344
     -2261.1254
 -22687459.59449 -17639283.85948  20972503.6564   20972503.3594   20972506.1954
       561.4114
 10  1  1  1 31 30.0000000  0 10G12G17G22G30G28G18G26G09G15G27
 -20006589.37848 -15530695.31047  22070709.8364   22070709.9574   22070711.9464
      2702.5524
 -16959829.99448 -13163752.47147  22267569.3814   22267569.0744   22267571.4734
      -107.3134
  -7663011.17647  -5960321.21946  24027895.9644   24027895.5444   24027896.3064
       811.3724
  -2435221.31547  -1838493.75146  25042769.3884   25042769.7704   25042771.5574
      3666.8724
  -4750457.75646  -3653238.49246  24861723.1094   24861723.5764   24861725.7944
     -3123.3644
 -12990230.77947 -10112306.39346  23014099.4724   23014098.6864   23014101.0054
      -939.2574
  -8748490.60347  -6812214.02146  23153412.4044   23153412.1194   23153415.0384
      3424.3604
 -28488567.30349 -22132518.37848  20077876.2074   20077875.8884   20077878.4204
      1213.4974
 -20855065.04849 -16247383.34948  21271486.2254   21271486.4364   21271488.2834
     -2275.7244
 -22704200.41749 -17652328.65548  20969317.6674   20969317.5934   20969320.5574
       554.5814
 10  1  1  1 32  0.0000000  0 10G12G17G22G30G28G18G26G09G15G27
 -20087504.50348 -15593746.03347  22055312.4644   22055312.5064   22055314.2374
      2691.5564
 -16956319.20348 -13161016.77747  22268237.3394   22268237.0524   22268238.8364
      -126.8464
  -7687085.98947  -5979080.82146  24023315.5544   24023314.5834   24023315.0034
       793.7204
  -2545186.68647  -1924181.02346  25021843.1004   25021842.6984   25021846.9974
      3663.9664
  -4656752.87046  -3580221.71046  24879554.9534   24879553.6144   24879556.4224
     -3123.8324
 -12961803.46647 -10090155.28246  23019508.6034   23019508.0174   23019510.6074
      -956.0404
  -8851102.73447  -6892171.50446  23133886.3374   23133884.9904   23133888.7334
      3416.0564
 -28524786.62749 -22160741.22648  20070983.8594   20070983.8324   20070985.9294
      1200.9444
 -20786576.17149 -16194015.39748  21284519.2154   21284519.4234   21284521.4894
     -2290.3504
 -22720739.41349 -17665216.18048  20966170.5874   20966170.5474   20966173.3364
       547.8304
 10  1  1  1 32 30.0000000  0 10G12G17G22G30G28G18G26G09G15G27
 -20168091.79048 -15656541.29547  22039977.0264   22039977.0824   22039979.1394
      2680.5824
 -16952230.72448 -13157830.93647  22269015.2214   22269015.8224   22269017.6164
      -146.1924
  -7710639.18047  -5997433.97046  24018833.9464   24018832.3184   24018832.9264
       776.3744
  -2655073.62547  -2009807.22946  25000931.4294   25000932.6564   25000935.6404
      3661.1464
  -4563022.64646  -3507185.19445  24897391.2034   24897389.9024   24897392.7414
     -3124.7194
 -12932873.82247 -10067612.72646  23025013.5904   23025012.5184   23025016.2694
      -973.0524
  -8953461.41647  -6971931.51946  23114407.8344   23114408.1004   23114410.8574
      3407.2874
 -28560633.63749 -22188673.95948  20064162.2604   20064162.1524   20064164.4264
      1188.3974
 -20717654.19449 -16140309.96348  21297634.5904   21297634.9434   21297636.9254
     -2304.8974
 -22737077.81749 -17677947.40348  20963061.5334   20963061.1524   20963064.1544
       541.0154
 10  1  1  1 33  0.0000000  0 10G12G17G22G30G28G18G26G09G15G27
 -20248347.94548 -15719078.53747  22024704.8414   22024705.0814   22024706.7084
      2669.1324
 -16947562.31848 -13154193.20247  22269903.3914   22269903.2484   22269905.2534
      -165.7604
  -7733668.33447  -6015378.75946  24014451.3024   24014449.7594   24014452.6644
       758.2404
  -2764878.79047  -2095369.62646  24980036.1774   24980036.7224   24980039.7354
      3657.6884
  -4469266.45246  -3434128.43245  24915232.6714   24915232.5294   24915233.8024
     -3126.0604
 -12903441.67647 -10044678.63846  23030615.7044   23030614.7414   23030616.9214
      -989.8554
  -9055561.82247  -7051490.29746  23094978.4194   23094978.9934   23094981.6994
      3398.7404
 -28596105.34549 -22216314.24748  20057412.3004   20057412.0364   20057414.5354
      1175.6224
 -20648298.87949 -16086266.86248  21310832.4354   21310832.8464   21310834.5954
     -2319.5234
 -22753213.08049 -17690520.33348  20959991.0704   20959990.9574   20959993.5564
       533.8834
 10  1  1  1 33 30.0000000  0 10G12G17G22G30G28G18G26G09G15G27
 -20328271.43148 -15781356.55547  22009495.4774   22009495.9854   22009497.5154
      2657.9494
 -16942313.46548 -13150103.17347  22270902.4734   22270902.6354   22270904.1704
      -185.2434
  -7756172.31347  -6032914.31846  24010167.8264   24010167.3524   24010169.0254
       741.0664
  -2874600.24647  -2180866.85446  24959157.6664   24959156.2424   24959161.3204
      3655.7064
  -4375485.02746  -3361051.99746  24933079.3554   24933079.5834   24933081.4914
     -3126.9694
 -12873507.65047 -10021353.43546  23036311.0064   23036311.0744   23036313.4434
     -1006.8024
  -9157400.49447  -7130845.09546  23075599.2324   23075598.3134   23075601.7514
      3389.6534
 -28631200.53149 -22243661.14448  20050733.9694   20050733.8234   20050736.1574
      1163.0044
 -20578510.92749 -16031886.64448  21324112.6084   21324112.8364   21324115.0244
     -2333.9904
 -22769143.84849 -17702933.91648  20956959.7414   20956959.4024   20956962.1574
       527.1494
 10  1  1  1 34  0.0000000  0 10G12G17G22G30G28G18G26G09G15G27
 -20407862.31148 -15843375.39747  21994350.3104   21994350.6374   21994352.5094
      2647.5474
 -16936485.32548 -13145561.75147  22272011.2954   22272011.2334   22272013.2684
      -203.7674
  -7778151.72247  -6050041.12646  24005985.4314   24005985.4004   24005985.9184
       724.3254
  -2984237.75547  -2266298.67746  24938294.0544   24938294.0244   24938296.5594
      3653.3134
  -4281681.18147  -3287958.05745  24950929.3504   24950927.6844   24950929.8084
     -3126.9534
 -12843074.90748  -9997639.63646  23042102.6004   23042102.9444   23042104.5194
     -1022.6234
  -9258975.81147  -7209994.67046  23056270.8214   23056270.6804   23056273.2264
      3381.5584
 -28665919.06349 -22270714.54348  20044127.2154   20044127.3044   20044129.6364
      1151.1314
 -20508293.38549 -15977171.67648  21337474.7034   21337474.8614   21337476.7934
     -2347.4904
 -22784871.02649 -17715188.85848  20953966.8344   20953966.7264   20953969.3534
       521.0294
 10  1  1  1 34 30.0000000  0 10G12G17G22G30G28G18G26G09G15G27
 -20487119.68548 -15905134.38047  21979268.1764   21979268.2294   21979269.9684
      2636.5724
 -16930077.75248 -13140568.82947  22273230.6394   22273230.7104   22273232.5684
      -223.0614
  -7799605.98847  -6066758.73746  24001902.4184   24001902.2754   24001903.4194
       706.5414
  -3093789.81247  -2351663.89546  24917447.5614   24917447.4284   24917451.0674
      3650.4724
  -4187855.86547  -3214847.40645  24968784.0354   24968784.4494   24968783.7714
     -3127.3714
 -12812144.69348  -9973538.20546  23047988.2044   23047989.6664   23047989.5764
     -1039.1214
  -9360284.85747  -7288936.78346  23036991.5704   23036992.1504   23036994.8884
      3372.8434
 -28700259.85049 -22297473.59748  20037592.4614   20037592.3414   20037594.8694
      1138.5044
 -20437647.23249 -15922122.72848  21350917.9544   21350918.5444   21350920.6124
     -2361.8384
 -22800393.98349 -17727284.67048  20951012.9254   20951012.3844   20951015.4314
       514.2504
 10  1  1  1 35  0.0000000  0 10G12G17G22G30G28G18G26G09G15G27
 -20566043.08348 -15966633.11047  21964249.8674   21964249.4694   21964251.1914
      2625.3664
 -16923091.86848 -13135125.26947  22274560.1714   22274560.7044   22274561.9484
      -242.4024
  -7820536.01447  -6083067.84946  23997919.3674   23997919.1974   23997920.1004
       689.0524
  -3203256.33246  -2436962.45046  24896615.8424   24896616.5364   24896620.5684
      3647.3014
  -4094011.93147  -3141722.22045  24986641.4424   24986639.5254   24986641.3794
     -3128.4444
 -12780720.38748  -9949051.74846  23053968.9864   23053968.4094   23053969.4254
     -1055.5624
  -9461326.01547  -7367670.14546  23017764.4894   23017763.9124   23017766.3964
      3363.9004
 -28734222.96849 -22323938.36448  20031129.7114   20031129.4314   20031131.8374
      1125.9254
 -20366575.25349 -15866741.96748  21364442.4104   21364443.0404   21364445.0304
     -2375.8654
 -22815713.32349 -17739221.81648  20948097.8064   20948097.5554   20948100.4324
       507.3354
 10  1  1  1 35 30.0000000  0 10G12G17G22G30G28G18G26G09G15G27
 -20644630.95448 -16027870.38247  21949294.4264   21949294.6924   21949296.5284
      2614.1834
 -16915526.90448 -13129230.48047  22275999.7724   22276000.0724   22276001.8874
      -261.9944
  -7840940.71447  -6098967.63646  23994035.6654   23994036.9024   23994036.4624
       671.4104
  -3312635.11446  -2522192.63246  24875803.1084   24875804.3514   24875806.0574
      3643.8294
  -4000150.07647  -3068583.06745  25004503.1874   25004505.5044   25004504.3874
     -3129.1234
 -12748802.09147  -9924180.37846  23060041.8314   23060040.5794   23060044.0334
     -1072.4224
  -9562095.65047  -7446191.91946  22998588.7054   22998588.7534   22998592.4164
      3354.1844
 -28767806.73949 -22350107.53348  20024738.5354   20024738.3774   20024741.0014
      1112.8824
 -20295078.25749 -15811030.02248  21378047.9844   21378048.4414   21378050.3544
     -2390.6434
 -22830827.45349 -17750999.05748  20945221.5394   20945221.4814   20945224.3424
       500.1744
 10  1  1  1 36  0.0000000  0 10G12G17G22G30G28G18G26G09G15G27
 -20722881.81648 -16088845.06047  21934403.9684   21934404.2664   21934405.5464
      2602.3644
 -16907383.10948 -13122884.65647  22277549.2824   22277549.2434   22277551.6054
      -281.3474
  -7860819.48747  -6114457.60046  23990250.3084   23990253.5494   23990254.9634
       653.7634
  -3421924.92546  -2607353.50546  24855005.1364   24855006.5874   24855007.5444
      3641.0384
  -3906271.41947  -2995430.81545  25022367.8324   25022368.9224   25022367.9394
     -3129.9144
 -12716392.07348  -9898925.87246  23066209.9734   23066209.7494   23066211.3054
     -1088.7684
  -9662590.84047  -7524499.82346  22979464.5084   22979465.4544   22979467.8194
      3344.9774
 -28801010.27449 -22375980.41648  20018420.4354   20018420.2664   20018422.5644
      1100.3014
 -20223157.83449 -15754988.13448  21391734.0334   21391734.6004   21391736.2344
     -2404.3504
 -22845735.88449 -17762616.01448  20942384.5314   20942384.3754   20942387.0794
       493.3094
 10  1  1  1 36 30.0000000  0 10G12G17G22G30G28G18G26G09G15G27
 -20800794.51748 -16149556.23847  21919577.5394   21919577.6644   21919579.7194
      2591.8534
 -16898659.73548 -13116087.20847  22279209.1304   22279209.5264   22279211.1754
      -300.0154
  -7880171.49447  -6129537.10446  23986570.7034   23986570.2724   23986571.9784
       636.7244
  -3531123.64346  -2692443.40245  24834225.1964   24834225.0984   24834228.9554
      3638.6574
  -3812376.61847  -2922265.98545  25040234.8604   25040235.3404   25040235.3854
     -3129.7474
 -12683491.30348  -9873288.95446  23072470.8924   23072469.1204   23072472.0994
     -1104.4824
  -9762807.93747  -7602591.06446  22960394.1384   22960394.3144   22960396.9174
      3336.2534
 -28833831.72049 -22401555.56448  20012174.4084   20012174.1654   20012176.8344
      1088.0814
 -20150814.75849 -15698616.90748  21405500.5174   21405500.9084   21405502.8434
     -2418.0434
 -22860437.33949 -17774071.68748  20939586.9824   20939586.8344   20939589.6924
       486.9584
 10  1  1  1 37  0.0000000  0 10G12G17G22G30G28G18G26G09G15G27
 -20878367.84348 -16210002.96647  21904815.8724   21904815.6194   21904818.2294
      2579.8974
 -16889356.65948 -13108838.04747  22280979.5604   22280979.7454   22280981.5884
      -320.1404
  -7898996.14047  -6144205.66546  23982989.6444   23982988.5634   23982988.4604
       618.4374
  -3640229.51746  -2777460.93446  24813461.7764   24813462.1574   24813466.4814
      3635.2894
  -3718467.08547  -2849089.69245  25058105.8304   25058105.2974   25058105.9484
     -3130.9114
 -12650101.45547  -9847270.93346  23078824.6514   23078824.1034   23078825.7774
     -1121.3584
  -9862744.13147  -7680463.42246  22941377.0234   22941376.2074   22941379.7274
      3325.9694
 -28866270.11149 -22426832.23248  20006001.7744   20006001.5394   20006004.0394
      1074.5844
 -20078050.49549 -15641917.48448  21419347.2114   21419347.4614   21419349.1784
     -2432.7884
 -22874931.05049 -17785365.48848  20936828.9144   20936828.4384   20936831.5424
       479.4104
 10  1  1  1 37 30.0000000  0 10G12G17G22G30G28G18G26G09G15G27
 -20955602.92848 -16270186.12047  21890118.2204   21890118.5694   21890120.7194
      2568.5004
 -16879476.75948 -13101139.40947  22282859.8024   22282859.5884   22282861.5014
      -339.3774
  -7917295.42847  -6158464.85946  23979507.7854   23979506.8484   23979506.2424
       600.9344
  -3749243.83246  -2862407.12946  24792718.7274   24792717.4204   24792721.5174
      3632.3434
  -3624546.76047  -2775904.97345  25075978.3234   25075977.8114   25075977.8944
     -3130.9534
 -12616226.75647  -9820875.11246  23085270.6334   23085269.8414   23085271.3864
     -1137.7344
  -9962398.98247  -7758116.52646  22922412.7764   22922413.2294   22922416.3234
      3316.8254
 -28898327.15049 -22451811.74048  19999901.3484   19999901.2584   19999903.7914
      1061.8934
 -20004869.49849 -15584893.33448  21433272.9704   21433273.1954   21433275.2084
     -2446.6414
 -22889219.18049 -17796499.09448  20934110.0814   20934109.7844   20934112.5984
       472.4464
 10  1  1  1 38  0.0000000  0 10G12G17G22G30G28G18G26G09G15G27
 -21032497.76448 -16330104.14947  21875485.6004   21875486.0344   21875487.6864
      2557.6174
 -16869018.77548 -13092990.31947  22284849.8284   22284850.1264   22284852.1354
      -358.1914
  -7935068.52447  -6172314.02946  23976123.1844   23976124.2444   23976124.8394
       583.5264
  -3858164.17846  -2947280.09446  24771991.3014   24771992.2314   24771994.8104
      3629.3294
  -3530615.66847  -2702711.89246  25093852.5004   25093851.8844   25093853.3994
     -3130.9164
 -12581867.82647  -9794101.94946  23091808.6834   23091807.9784   23091809.8424
     -1153.1814
 -10061768.63147  -7835547.38646  22903503.6714   22903503.9604   22903506.5614
      3307.6304
 -28930000.47949 -22476492.25448  19993873.9694   19993874.1114   19993876.5414
      1049.4554
 -19931272.00849 -15527544.64248  21447278.2724   21447278.2634   21447280.4794
     -2459.9844
 -22903299.79449 -17807470.99948  20931430.4294   20931430.4664   20931433.1034
       466.1114
 10  1  1  1 38 30.0000000  0 10G12G17G22G30G28G18G26G09G15G27
 -21109049.69548 -16389754.98448  21860918.3904   21860918.3534   21860920.2154
      2546.1914
 -16857981.51948 -13084389.84547  22286950.2354   22286950.4994   22286952.0264
      -377.2794
  -7952313.17447  -6185751.44746  23972843.5334   23972842.3834   23972843.0444
       566.2594
  -3966987.44446  -3032077.42846  24751283.4544   24751281.5574   24751286.4914
      3626.3274
  -3436673.24247  -2629509.99446  25111729.3174   25111728.0274   25111729.6974
     -3131.3314
 -12547024.73447  -9766951.51646  23098440.1234   23098438.5874   23098440.4664
     -1169.1014
 -10160848.22847  -7912752.25446  22884649.2194   22884649.0974   22884651.6254
      3298.2934
 -28961287.39549 -22500871.66548  19987920.5154   19987920.3734   19987923.0984
      1036.6734
 -19857257.93949 -15469871.34448  21461362.3084   21461362.6934   21461364.8854
     -2473.8814
 -22917170.50049 -17818279.33848  20928791.0194   20928790.8634   20928793.9354
       459.0504
 10  1  1  1 39  0.0000000  0 10G12G17G22G30G28G18G26G09G15G27
 -21185259.72649 -16449139.40148  21846416.2044   21846416.5824   21846418.1524
      2534.3334
 -16846367.16048 -13075339.68547  22289160.5274   22289160.6544   22289162.4094
      -397.1644
  -7969031.16947  -6198778.44646  23969661.2064   23969662.2784   23969662.3424
       548.3544
  -4075714.38947  -3116799.71546  24730593.5094   24730593.3534   24730595.2594
      3622.7164
  -3342723.15947  -2556302.14446  25129607.5074   25129606.8434   25129609.4674
     -3131.9214
 -12511701.41347  -9739426.86646  23105161.3784   23105159.9994   23105162.9794
     -1185.7884
 -10259637.41347  -7989730.81846  22865850.2794   22865850.6824   22865853.4314
      3288.0444
 -28992189.23549 -22524951.01448  19982040.0664   19982039.7754   19982042.6004
      1023.4034
 -19782831.15549 -15411876.45348  21475525.3314   21475525.3704   21475527.5614
     -2487.9734
 -22930832.97649 -17828925.41748  20926191.0884   20926190.7064   20926193.9504
       451.6784
 10  1  1  1 39 30.0000000  0 10G12G17G22G30G28G18G26G09G15G27
 -21261125.82649 -16508255.82248  21831979.1094   21831979.4904   21831981.0374
      2523.1064
 -16834175.02948 -13065839.30647  22291480.4184   22291480.4314   22291482.3354
      -415.9094
  -7985221.30147  -6211394.13946  23966580.5804   23966582.2144   23966581.2284
       531.1734
  -4184342.48046  -3201444.95246  24709921.9444   24709921.6294   24709924.7054
      3618.9224
  -3248765.52447  -2483088.39246  25147487.0954   25147484.7394   25147487.8374
     -3132.0774
 -12475898.62447  -9711528.59946  23111973.9294   23111974.6704   23111976.4854
     -1201.2864
 -10358132.03947  -8066479.85646  22847107.8324   22847107.8824   22847110.1454
      3278.3494
 -29022703.84549 -22548728.62848  19976233.2984   19976233.1164   19976236.0124
      1010.7144
 -19707992.09149 -15353560.29848  21489766.8024   21489767.0744   21489768.8984
     -2501.4984
 -22944285.87349 -17839408.19248  20923631.2594   20923631.2084   20923634.0814
       444.9444
 10  1  1  1 40  0.0000000  0 10G12G17G22G30G28G18G26G09G15G27
 -21336646.58249 -16567103.14848  21817608.2074   21817608.7224   21817610.2264
      2511.1314
 -16821404.95448 -13055888.59247  22293910.1514   22293910.1424   22293912.2234
      -435.6944
  -8000882.80247  -6223597.92746  23963602.3514   23963601.3224   23963600.0324
       512.8684
  -4292870.24847  -3286012.01246  24689270.1424   24689268.4984   24689271.3644
      3615.3414
  -3154801.47646  -2409869.66046  25165367.2764   25165366.0994   25165369.2274
     -3133.0044
 -12439617.69747  -9683257.77646  23118877.9044   23118877.4874   23118879.3824
     -1217.7304
 -10456328.78147  -8142996.79346  22828421.6264   22828421.8024   22828424.8004
      3267.8884
 -29052829.81949 -22572203.40748  19970500.5474   19970500.3234   19970503.0434
       997.3104
 -19632742.05149 -15294923.91248  21504086.4904   21504086.5304   21504088.6704
     -2515.5464
 -22957527.80649 -17849726.58148  20921111.3404   20921111.0734   20921113.7714
       437.5034
 10  1  1  1 40 30.0000000  0 10G12G17G22G30G28G18G26G09G15G27
 -21411821.89249 -16625681.30348  21803302.5584   21803302.8384   21803304.4054
      2499.6914
 -16808057.92048 -13045488.29847  22296450.4714   22296450.3284   22296452.2914
      -454.8244
  -8016016.74347  -6235390.59246  23960719.6444   23960720.2394   23960721.6464
       495.2254
  -4401296.79447  -3370500.21446  24668636.5504   24668637.5184   24668639.4024
      3611.6834
  -3060833.20646  -2336647.62145  25183247.7604   25183249.2294   25183253.2914
     -3133.0864
 -12402861.53847  -9654616.65446  23125872.4814   23125872.9294   23125873.8574
     -1233.3244
 -10554225.72647  -8219280.11246  22809792.0354   22809792.1424   22809795.2874
      3257.7404
 -29082566.82949 -22595375.09448  19964841.7854   19964841.7324   19964844.2814
       984.2884
 -19557083.74649 -15235969.39248  21518483.8804   21518484.1884   21518485.8624
     -2529.1494
 -22970558.91949 -17859880.69248  20918631.6424   20918631.3384   20918634.2144
       430.3934
 10  1  1  1 41  0.0000000  0 10G12G17G22G30G28G18G26G09G15G27
 -21486650.52849 -16683989.31448  21789063.2084   21789063.2844   21789065.3404
      2488.7614
 -16794133.90248 -13034638.40747  22299099.8344   22299100.1084   22299101.3924
      -473.4584
  -8030622.79247  -6246771.95146  23957941.6584   23957941.0574   23957941.6754
       478.1254
  -4509620.89947  -3454908.61546  24648023.0624   24648022.3994   24648026.2884
      3609.3094
  -2966861.65046  -2263423.03345  25201130.8634   25201132.8454   25201134.0954
     -3132.2554
 -12365632.36947  -9625606.92946  23132958.3064   23132956.6394   23132958.3134
     -1248.4564
 -10651819.89347  -8295327.50546  22791220.9064   22791220.5364   22791223.5534
      3248.3864
 -29111913.93949 -22618242.96648  19959257.1364   19959257.1034   19959259.7074
       972.0044
 -19481018.49249 -15176697.76548  21532958.5284   21532958.8324   21532960.8254
     -2542.1024
 -22983378.60849 -17869870.05948  20916191.8554   20916191.6424   20916194.6264
       424.0654
 10  1  1  1 41 30.0000000  0 10G12G17G22G30G28G18G26G09G15G27
 -21561137.54849 -16742031.13248  21774888.7684   21774889.2304   21774890.9004
      2476.3014
 -16779639.72148 -13023344.22847  22301857.9984   22301857.9354   22301859.7804
      -493.6644
  -8044706.62047  -6257746.37146  23955261.8304   23955260.5894   23955261.7544
       460.0884
  -4617847.10347  -3539240.73746  24627428.9624   24627428.6634   24627431.4754
      3604.9584
  -2872894.05946  -2190201.59245  25219012.7954   25219014.0994   25219012.0944
     -3133.1454
 -12327938.00747  -9596234.73046  23140129.8144   23140130.0394   23140133.0064
     -1265.3104
 -10749114.42747  -8371141.41846  22772706.6274   22772705.6984   22772707.5944
      3237.1014
 -29140876.41049 -22640811.11848  19953745.8374   19953745.7614   19953748.1644
       957.9604
 -19404554.28749 -15117115.27148  21547509.3064   21547509.5364   21547511.3584
     -2556.4004
 -22995992.34849 -17879698.94448  20913791.5914   20913791.4284   20913794.2354
       416.0164
 10  1  1  1 42  0.0000000  0  9G12G17G22G30G18G26G09G15G27
 -21635271.07849 -16799797.50848  21760781.6834   21760781.6644   21760783.7234
      2465.2084
 -16764564.20548 -13011597.06347  22304726.9974   22304726.9524   22304729.2594
      -512.2494
  -8058257.00947  -6268305.12246  23952684.6184   23952682.7614   23952682.4104
       443.0504
  -4725962.87747  -3623486.77946  24606854.9464   24606855.0424   24606857.7004
      3602.0434
 -12289768.90547  -9566492.60846  23147393.7054   23147393.1584   23147395.1424
     -1280.1844
 -10846095.12047  -8446710.75846  22754250.8724   22754251.6134   22754253.5994
      3227.1484
 -29169442.02049 -22663070.02848  19948310.0004   19948309.6704   19948312.2614
       945.5014
 -19327681.45749 -15057214.36248  21562137.6584   21562137.8244   21562140.0464
     -2569.2804
 -23008388.41149 -17889358.21048  20911432.7614   20911432.7104   20911435.4694
       409.5174
 10  1  1  1 42 30.0000000  0 10G12G17G22G30G18G26G09G01G15G27
 -21709052.98649 -16857289.88348  21746741.4424   21746741.6424   21746743.6384
      2453.0144
 -16748910.47348 -12999399.33747  22307705.8664   22307705.6614   22307707.1584
      -531.5724
  -8071276.39447  -6278450.10746  23950206.5214   23950204.5954   23950205.2734
       425.0264
  -4833969.80347  -3707648.02346  24586302.1404   24586301.8374   24586305.5524
      3597.9844
 -12251129.76247  -9536384.20546  23154746.0144   23154745.9254   23154749.5224
     -1296.2214
 -10942761.82047  -8522035.44547  22735856.0264   22735855.7964   22735858.9894
      3216.6734
 -29197612.32149 -22685020.91048  19942949.4524   19942949.2114   19942951.5614
       932.0614
  -1526472.37147  -1178540.39446  25053215.0614   25053214.7504   25053217.5244
      3520.1194
 -19250404.61849 -14996998.64748  21576842.8774   21576843.0074   21576845.1744
     -2583.0904
 -23020568.79849 -17898849.42248  20909115.0044   20909114.5654   20909117.6364
       402.1654
 10  1  1  1 43  0.0000000  0 10G12G17G22G30G18G26G09G01G15G27
 -21782486.33049 -16914510.66048  21732767.5534   21732767.9454   21732769.6484
      2441.9764
 -16732683.58348 -12986754.99647  22310793.8644   22310793.9014   22310795.1894
      -550.3514
  -8083769.22047  -6288184.75846  23947828.9664   23947828.2814   23947827.8204
       407.5484
  -4941870.96247  -3791726.86346  24565768.9284   24565768.8154   24565771.3064
      3594.6424
 -12212026.79347  -9505914.39046  23162187.5034   23162187.0724   23162189.2264
     -1311.2044
 -11039116.06247  -8597116.66447  22717520.5074   22717520.3124   22717523.2724
      3206.7224
 -29225390.89049 -22706666.54748  19937663.2204   19937663.0604   19937665.5714
       919.4554
  -1632041.24347  -1260801.82746  25033125.8294   25033125.6074   25033127.6344
      3517.7444
 -19172729.70449 -14936472.73948  21591623.9844   21591623.9514   21591626.3484
     -2595.7644
 -23032537.05749 -17908175.33848  20906837.5254   20906837.3334   20906840.1204
       395.4544
 10  1  1  1 43 30.0000000  0 10G12G17G22G30G18G26G09G01G15G27
 -21855566.48549 -16971456.22448  21718860.7674   21718861.0184   21718862.9354
      2429.9384
 -16715879.74948 -12973661.08847  22313991.4594   22313991.4334   22313992.9404
      -569.9584
  -8095731.43147  -6297505.96946  23945553.2434   23945551.2204   23945550.7214
       389.3934
  -5049661.01647  -3875719.11746  24545257.1804   24545257.9064   24545259.4524
      3591.0484
 -12172458.04247  -9475081.62746  23169717.7674   23169717.6704   23169720.6244
     -1327.0104
 -11135150.94347  -8671949.01547  22699245.7974   22699245.8394   22699248.2774
      3195.6434
 -29252772.73949 -22728003.04648  19932452.5274   19932452.3314   19932454.8734
       906.0014
  -1737506.51847  -1342982.57046  25013056.0954   25013056.1194   25013058.9524
      3513.7854
 -19094654.42649 -14875634.86348  21606481.2664   21606481.5704   21606483.5304
     -2609.3054
 -23044288.55849 -17917332.35048  20904601.2524   20904601.1714   20904603.7674
       388.1044
 10  1  1  1 44  0.0000000  0 10G12G17G22G30G18G26G09G01G15G27
 -21928296.66149 -17028129.08248  21705020.8664   21705020.9974   21705022.4054
      2418.5324
 -16698503.30248 -12960120.99047  22317297.5784   22317297.6404   22317300.0514
      -588.9244
  -8107167.16547  -6306416.93746  23943378.9964   23943376.8814   23943374.9684
       372.0574
  -5157342.59747  -3959626.85546  24524766.5084   24524767.5064   24524767.8484
      3587.1124
 -12132430.01047  -9443890.97846  23177334.3884   23177332.7394   23177336.1954
     -1342.1784
 -11230867.76148  -8746533.53447  22681031.1534   22681031.2154   22681034.2314
      3185.2114
 -29279761.23249 -22749033.04148  19927316.8064   19927316.5994   19927319.3914
       892.8974
  -1842871.36247  -1425084.99246  24993006.2774   24993006.5314   24993008.7734
      3510.3994
 -19016184.78549 -14814489.68948  21621413.4674   21621413.5844   21621415.6674
     -2622.3864
 -23055827.07749 -17926323.40448  20902405.4184   20902405.2454   20902408.2894
       381.0374
 10  1  1  1 44 30.0000000  0 10G12G17G22G30G18G26G09G01G15G27
 -22000671.88349 -17084525.34948  21691248.2714   21691248.5384   21691250.1654
      2407.1084
 -16680551.47448 -12946132.54947  22320713.9394   22320713.7404   22320715.6624
      -607.4024
  -8118072.91647  -6314914.90446  23941302.8734   23941299.7064   23941301.4564
       355.1694
  -5264910.56647  -4043446.07646  24504297.0154   24504295.9014   24504298.9884
      3584.2664
 -12091940.60147  -9412340.81846  23185039.1794   23185038.5534   23185040.2174
     -1356.5714
 -11326260.04548  -8820865.17047  22662878.9944   22662879.7194   22662881.8944
      3174.9794
 -29306351.45949 -22769752.69748  19922256.8924   19922256.7734   19922259.1924
       880.2024
  -1948130.74247  -1507105.27946  24972976.2414   24972976.3604   24972979.9734
      3507.3624
 -18937318.97149 -14753035.81448  21636421.0544   21636421.4254   21636423.6054
     -2635.1744
 -23067148.23749 -17935145.08648  20900251.1894   20900251.1364   20900253.6864
       374.5554
 10  1  1  1 45  0.0000000  0 10G12G17G22G30G18G26G09G01G15G27
 -22072694.69249 -17140647.00548  21677542.9174   21677542.9364   21677544.7284
      2394.9584
 -16662027.68448 -12931698.40947  22324238.9254   22324239.1614   22324240.6054
      -626.7854
  -8128451.62947  -6323002.22946  23939329.4384   23939326.0524   23939325.7774
       337.1554
  -5372367.07947  -4127178.46346  24483848.4004   24483847.4814   24483853.5344
      3580.1304
 -12050995.48247  -9380435.55846  23192830.1174   23192830.9224   23192832.9324
     -1372.3794
 -11421327.85348  -8894943.97147  22644787.8734   22644787.6214   22644792.1884
      3163.6494
 -29332545.77049 -22790163.84948  19917272.2844   19917272.2994   19917274.7564
       866.5944
  -2053286.21747  -1589044.59846  24952964.8644   24952965.9454   24952968.7874
      3503.3774
 -18858062.02249 -14691277.15348  21651503.1734   21651503.6144   21651505.3994
     -2648.2894
 -23078254.51449 -17943799.32648  20898137.6564   20898137.5724   20898140.2824
       366.7304
 10  1  1  1 45 30.0000000  0 10G12G17G22G30G18G26G09G01G15G27
 -22144361.15749 -17196490.98848  21663905.1324   21663905.1494   21663907.1554
      2382.8374
 -16642929.22548 -12916816.48047  22327873.4334   22327873.5574   22327874.9264
      -646.4314
  -8138300.29747  -6330676.50246  23937452.5574   23937451.1884   23937451.1654
       318.9114
  -5479707.53747  -4210820.40146  24463421.8914   24463422.5934   24463426.4074
      3575.8574
 -12009593.11147  -9348173.99546  23200710.0254   23200709.8754   23200711.1504
     -1387.6844
 -11516065.10148  -8968765.18747  22626760.2674   22626761.2734   22626762.6494
      3152.1384
 -29358340.11549 -22810263.33948  19912363.8204   19912363.7764   19912366.2624
       852.9754
  -2158333.46147  -1670899.58046  24932975.0004   24932975.4144   24932977.5394
      3499.6074
 -18778412.28949 -14629212.43248  21666660.1094   21666660.1604   21666662.5924
     -2661.6134
 -23089142.16249 -17952283.20648  20896065.8604   20896065.4984   20896068.4444
       359.0464
 10  1  1  1 46  0.0000000  0 10G12G17G22G30G18G26G09G01G15G27
 -22215671.56849 -17252057.53248  21650335.0794   21650334.9434   21650337.2394
      2371.5824
 -16623258.09148 -12901488.30947  22331616.5424   22331617.2234   22331618.3024
      -664.8064
  -8147620.33847  -6337938.87146  23935675.4944   23935677.1124   23935679.2144
       302.2764
  -5586931.89847  -4294371.85946  24443018.8194   24443017.8064   24443020.2214
      3572.9094
 -11967737.11147  -9315558.96046  23208675.0644   23208673.0004   23208675.2924
     -1402.0794
 -11610470.21748  -9042327.59147  22608795.3364   22608794.5824   22608797.4234
      3141.7774
 -29383734.68049 -22830051.31348  19907531.3754   19907531.2264   19907533.7134
       840.3344
  -2263272.22547  -1752670.03446  24913006.6744   24913006.1224   24913009.9604
      3496.7794
 -18698373.05149 -14566844.19848  21681891.1774   21681891.4484   21681893.2124
     -2673.8354
 -23099811.88949 -17960597.27748  20894035.4454   20894035.1704   20894038.0054
       352.5194
 10  1  1  1 46 30.0000000  0 10G12G17G22G30G18G26G09G01G15G27
 -22286629.79449 -17307349.64048  21636832.2754   21636832.2484   21636834.2204
      2358.6064
 -16603019.57848 -12885718.03247  22335467.9324   22335467.7004   22335469.8724
      -684.8684
  -8156416.55847  -6344793.08246  23934004.8774   23934003.6154   23934004.5944
       283.2524
  -5694043.54047  -4377835.49346  24422636.1254   24422636.8044   24422638.8554
      3567.5014
 -11925434.29447  -9282595.74246  23216724.7354   23216723.9964   23216725.6814
     -1418.4684
 -11704545.13048  -9115632.70447  22590893.2964   22590894.1684   22590896.1254
      3129.4844
 -29408733.49149 -22849530.90648  19902774.3244   19902773.9264   19902776.7144
       825.7764
  -2368106.36646  -1834358.94646  24893057.1974   24893057.7804   24893060.0764
      3491.6074
 -18617950.64049 -14504177.38748  21697195.1004   21697195.1244   21697197.5014
     -2688.0384
 -23110267.67249 -17968744.64048  20892045.9174   20892045.7824   20892048.3524
       344.1064
 10  1  1  1 47  0.0000000  0 11G12G17G22G30G28G18G26G09G01G15G27
 -22357225.11349 -17362358.96248  21623398.4034   21623398.5924   21623400.4884
      2346.8554
 -16582204.35648 -12869498.36447  22339428.7404   22339428.6574   22339430.5114
      -703.5984
  -8164679.07947  -6351231.38846  23932428.1154   23932430.5114   23932432.1124
       266.1194
  -5801031.12747  -4461202.46246  24402275.9164   24402277.6444   24402278.9014
      3563.8734
  -1290962.75217                  25415677.853
     -3133.419
 -11882676.73847  -9249278.19746  23224860.7444   23224860.2644   23224862.9684
     -1432.9784
 -11798276.94848  -9188670.48247  22573056.8034   22573057.6674   22573059.0044
      3118.5434
 -29433325.43949 -22868693.46348  19898094.4894   19898094.2274   19898096.9454
       812.6754
  -2472824.43146  -1915957.42446  24873129.7484   24873130.3114   24873132.7584
      3488.3494
 -18537136.89149 -14441205.63948  21712573.3394   21712573.6364   21712575.3644
     -2700.6354
 -23120498.84049 -17976716.97848  20890098.7984   20890098.5874   20890101.4894
       337.0954
 10  1  1  1 47 30.0000000  0 10G12G17G22G30G18G26G09G01G15G27
 -22427462.50149 -17417089.37748  21610032.5104   21610032.5474   21610034.3304
      2335.3234
 -16560818.66948 -12852834.18247  22343498.2864   22343498.1664   22343499.9474
      -722.2954
  -8172413.80347  -6357258.46846  23930961.0834   23930959.8714   23930960.0574
       249.1264
  -5907899.46347  -4544476.47446  24381940.2624   24381939.5254   24381943.2664
      3560.1894
 -11839472.04647  -9215612.21846  23233081.6784   23233080.9554   23233083.8504
     -1447.4764
 -11891668.72448  -9261443.28547  22555284.8884   22555284.5504   22555286.2244
      3107.4064
 -29457515.65649 -22887542.98148  19893491.3854   19893490.8364   19893493.5104
       799.7164
  -2577430.98246  -1997469.00746  24853223.6944   24853224.1534   24853226.1974
      3485.0264
 -18455939.76049 -14377935.14748  21728024.5184   21728024.6054   21728026.4554
     -2712.9044
 -23130510.66149 -17984518.39448  20888193.7664   20888193.3424   20888196.3844
       330.0554
 10  1  1  1 48  0.0000000  0 11G12G17G22G30G28G18G26G09G01G15G27
 -22497346.12549 -17471544.13548  21596734.3004   21596734.1914   21596735.9644
      2323.5264
 -16538868.24248 -12835729.94547  22347675.1624   22347675.5754   22347677.0574
      -740.8884
  -8179625.90647  -6362878.29846  23929585.7534   23929586.8904   23929587.5164
       231.7414
  -6014652.35647  -4627660.54546  24361625.7434   24361626.6804   24361628.2984
      3556.5254
  -1103179.28246   -898086.63545  25451411.1414   25451412.2234   25451413.1224
     -3129.1464
 -11795828.17847  -9181604.04346  23241387.6194   23241386.7344   23241390.1324
     -1462.0434
 -11984722.66548  -9333952.83547  22537577.6784   22537578.3194   22537579.3744
      3096.1324
 -29481308.32149 -22906082.72148  19888963.8334   19888963.7054   19888965.9934
       786.4014
  -2681929.79146  -2078896.62346  24833337.7684   24833339.2154   24833342.7464
      3481.3744
 -18374366.35949 -14314371.46048  21743547.4484   21743547.5914   21743549.5964
     -2725.4944
 -23140307.56049 -17992152.34148  20886329.4114   20886329.0044   20886332.0154
       322.9174
 10  1  1  1 48 30.0000000  0 12G12G17G22G30G28G18G26G14G09G01G15G27
 -22566866.62149 -17525715.93648  21583504.8714   21583504.7764   21583506.7564
      2311.7334
 -16516345.15048 -12818179.47447  22351961.2424   22351961.4434   22351963.2194
      -759.9264
  -8186307.30147  -6368084.57846  23928315.6614   23928315.9934   23928316.8724
       213.9084
  -6121279.51347  -4710746.65346  24341334.9294   24341334.5754   24341337.9734
      3552.2414
  -1009309.49047   -824941.30545  25469275.2214   25469274.5994   25469273.7564
     -3128.5534
 -11751738.37147  -9147248.36146  23249777.4224   23249777.4224   23249778.6724
     -1476.5544
 -12077427.02248  -9406190.00147  22519936.9124   22519936.5414   22519940.0574
      3084.4034
  -2102973.16947  -1166961.44845  25589328.4684   25589330.0624   25589328.0274
      3609.3634
 -29504693.76749 -22924305.14548  19884513.5874   19884513.4124   19884515.9064
       772.9484
  -2786311.09546  -2160232.69146  24813475.6104   24813474.6504   24813479.1304
      3477.5454
 -18292409.66049 -14250509.10248  21759143.2504   21759143.2354   21759145.8154
     -2737.9924
 -23149880.14749 -17999611.50048  20884507.9814   20884507.5984   20884510.4764
       315.4224
 10  1  1  1 49  0.0000000  0 12G12G17G22G30G28G18G26G14G09G01G15G27
 -22636028.30549 -17579608.14748  21570343.6684   21570343.8434   21570345.7294
      2298.5974
 -16493255.41648 -12800187.46847  22356355.1004   22356355.2824   22356356.4374
      -779.7754
  -8192463.17847  -6372881.38146  23927142.7554   23927144.6664   23927145.5724
       195.8324
  -6227784.89147  -4793737.85846  24321067.5034   24321067.1474   24321069.7774
      3547.2654
   -915457.76646   -751810.11345  25487133.8124   25487131.9534   25487134.4344
     -3128.7454
 -11707209.87947  -9112550.86046  23258251.2964   23258250.6804   23258253.3284
     -1492.3844
 -12169784.26248  -9478156.66547  22502361.3934   22502360.6314   22502364.6404
      3071.9234
  -2211226.55746  -1251314.76645  25568728.7864   25568729.0724   25568729.3354
      3607.1204
 -29527676.23449 -22942213.55948  19880140.2424   19880140.0174   19880142.4174
       758.4904
  -2890578.86046  -2241480.29046  24793633.3944   24793633.1824   24793636.1984
      3472.9334
 -18210076.87649 -14186353.68948  21774810.6794   21774810.8304   21774812.9674
     -2751.5244
 -23159233.04849 -18006899.47348  20882728.1584   20882727.6934   20882730.5944
       307.2854
 10  1  1  1 49 30.0000000  0 11G12G17G22G30G28G18G26G09G01G15G27
 -22704827.84149 -17633218.15948  21557251.6474   21557251.8744   21557253.6554
      2287.3924
 -16469597.06048 -12781752.37647  22360857.1624   22360857.8804   22360858.9294
      -798.1604
  -8198091.14347  -6377266.81846  23926073.5424   23926072.3364   23926073.7674
       179.1664
  -6334164.80147  -4876631.28846  24300824.2774   24300825.0934   24300827.4954
      3544.1524
   -821623.07547   -678692.10545  25504990.0664   25504991.3744   25504989.3994
     -3127.3904
 -11662242.35047  -9077511.27246  23266807.8964   23266807.3604   23266809.7004
     -1506.1814
 -12261788.80548  -9549848.51847  22484853.4284   22484853.6764   22484855.3014
      3061.1494
 -29550252.26949 -22959805.27148  19875844.1824   19875843.9314   19875846.6114
       745.9244
  -2994728.89446  -2322636.15646  24773815.1004   24773814.1804   24773817.6124
      3470.0144
 -18127366.95449 -14121904.40348  21790549.8344   21790550.0894   21790552.2544
     -2763.0794
 -23168362.99449 -18014013.71348  20880990.5764   20880990.4944   20880993.3964
       300.8014
 10  1  1  1 50  0.0000000  0 11G12G17G22G30G28G18G26G09G01G15G27
 -22773263.94649 -17686544.98348  21544228.8264   21544228.8334   21544230.5134
      2275.3194
 -16445370.29048 -12762874.36647  22365467.5554   22365467.3894   22365468.9894
      -816.7824
  -8203190.92447  -6381240.68946  23925099.8354   23925103.0264   23925103.0964
       161.3294
  -6440417.44847  -4959425.56546  24280603.9754   24280605.1574   24280607.8724
      3540.0234
   -727806.01846   -605587.92945  25522842.5584   25522841.5304   25522840.4284
     -3126.7744
 -11616837.80247  -9042131.12346  23275448.6544   23275448.0774   23275449.8244
     -1520.6214
 -12353437.21148  -9621262.86347  22467413.7154   22467414.0684   22467415.9454
      3049.3704
 -29572420.26149 -22977079.02848  19871625.7784   19871625.6704   19871628.1094
       732.3334
  -3098759.60546  -2403699.00646  24754018.3034   24754019.1844   24754021.4344
      3465.5304
 -18044281.63148 -14057162.59848  21806360.4424   21806360.5874   21806362.8034
     -2775.4724
 -23177268.64649 -18020953.17948  20879296.0404   20879295.5924   20879298.3594
       293.3284
 10  1  1  1 50 30.0000000  0 11G12G17G22G30G28G18G26G09G01G15G27
 -22841338.26349 -17739589.89648  21531274.5914   21531274.9184   21531276.6084
      2263.4744
 -16420578.26148 -12743555.89447  22370185.0584   22370185.3434   22370187.1674
      -835.3754
  -8207765.34747  -6384805.17646  23924232.3424   23924233.5674   23924232.1134
       143.9654
  -6546543.72347  -5042121.37246  24260410.5034   24260410.5104   24260412.9424
      3535.7854
   -634009.97346   -532500.08645  25540691.0334   25540689.2544   25540691.8414
     -3125.9304
 -11571000.75147  -9006413.97146  23284171.9634   23284170.5304   23284172.6254
     -1534.7144
 -12444729.04748  -9692399.34847  22450040.9774   22450040.7084   22450043.5804
      3037.5544
 -29594182.06649 -22994036.27848  19867484.6094   19867484.5074   19867486.9494
       719.0034
  -3202672.28646  -2484669.91946  24734245.4614   24734245.3894   24734248.2424
      3462.0594
 -17960825.07748 -13992131.52248  21822241.7584   21822241.9704   21822243.9804
     -2787.6454
 -23185952.03449 -18027719.44948  20877643.5134   20877643.2624   20877645.9404
       286.1114
 10  1  1  1 51  0.0000000  0 11G12G17G22G30G28G18G26G09G01G15G27
 -22909049.64249 -17792351.99548  21518389.5584   21518389.4394   21518391.1944
      2250.9324
 -16395221.28848 -12723797.20847  22375010.1754   22375010.4994   22375012.0814
      -854.7154
  -8211814.23147  -6387960.16546  23923462.0134   23923459.9564   23923461.6174
       126.3434
  -6652542.25347  -5124717.62346  24240238.7374   24240239.5684   24240242.3344
      3530.9694
   -540235.84846   -459429.31345  25558536.2284   25558532.5434   25558535.2644
     -3125.4314
 -11524732.96247  -8970361.16246  23292975.6644   23292974.8914   23292977.3054
     -1549.3914
 -12535661.13148  -9763255.50947  22432737.4454   22432737.9564   22432740.8294
      3025.0854
 -29615536.44149 -23010676.04748  19863420.9164   19863420.6344   19863423.3244
       704.9834
  -3306465.06647  -2565547.38046  24714493.6004   24714494.2764   24714496.4624
      3457.8044
 -17876998.80948 -13926812.35748  21838193.2784   21838193.4414   21838195.3794
     -2800.3494
 -23194412.04049 -18034311.66048  20876033.6864   20876033.4314   20876036.4574
       278.1784
 10  1  1  1 51 30.0000000  0 11G12G17G22G30G28G18G26G09G01G15G27
 -22976396.96049 -17844830.41348  21505573.5994   21505573.7054   21505575.7994
      2238.7144
 -16369299.69448 -12703598.56047  22379942.9354   22379943.3814   22379944.8744
      -873.4564
  -8215336.93347  -6390705.14246  23922790.4154   23922790.2834   23922792.5714
       108.3964
  -6758411.00847  -5207212.74346  24220092.1304   24220092.3724   24220096.1924
      3526.6244
   -446484.05346   -386376.01845  25576376.2114   25576374.1004   25576374.8004
     -3124.5714
 -11478035.83847  -8933973.83146  23301861.4204   23301861.3764   23301863.4994
     -1563.6394
 -12626230.00848  -9833828.65647  22415502.6154   22415502.9034   22415506.1074
      3012.7644
 -29636481.62249 -23026996.96448  19859435.2534   19859435.0744   19859437.7644
       691.1604
  -3410136.11147  -2646330.00446  24694765.1274   24694766.0284   24694767.8324
      3453.6454
 -17792804.30248 -13861206.25348  21854214.9374   21854215.0274   21854217.4814
     -2812.6694
 -23202647.28649 -18040728.73348  20874466.7344   20874466.4644   20874469.3764
       270.6934
 10  1  1  1 52  0.0000000  0 11G12G17G22G30G28G18G26G09G01G15G27
 -23043379.75749 -17897024.78748  21492827.4644   21492827.3844   21492829.1614
      2226.5884
 -16342814.70148 -12682960.89747  22384982.8704   22384983.0464   22384984.7554
      -892.2974
  -8218334.82247  -6393041.18846  23922220.6004   23922220.7404   23922221.8644
        90.9814
  -6864148.91647  -5289605.90046  24199971.8844   24199971.8064   24199974.4664
      3522.4334
   -352756.41446   -313341.46445  25594212.0544   25594206.8414   25594212.1294
     -3123.6374
 -11430912.53247  -8897254.39546  23310829.2824   23310828.7884   23310830.6954
     -1577.8614
 -12716433.26348  -9904116.89047  22398337.5034   22398338.0494   22398339.6314
      3000.4784
 -29657017.49549 -23042998.93848  19855527.2104   19855527.2664   19855529.9254
       677.5294
  -3513684.98247  -2727017.43546  24675060.2974   24675059.8784   24675065.0664
      3448.9764
 -17708243.98148 -13795315.09348  21870306.2654   21870306.3674   21870308.6454
     -2824.8734
 -23210657.71749 -18046970.62048  20872942.1494   20872941.8114   20872944.8954
       263.1744
 10  1  1  1 52 30.0000000  0 11G12G17G22G30G28G18G26G09G01G15G27
 -23109994.02549 -17948931.98848  21480151.0714   21480151.1794   21480152.8114
      2214.0894
 -16315764.23748 -12661882.60847  22390130.5944   22390130.6114   22390132.0694
      -911.2734
  -8220804.94247  -6394965.94946  23921749.1764   23921750.3614   23921750.9084
        73.7324
  -6969751.72447  -5371893.80346  24179875.9234   24179877.4014   24179879.1244
      3517.8354
   -259050.662 6   -240324.02845  25612043.333                    25612046.8034
     -3123.500
 -11383361.66947  -8860201.80946  23319878.8264   23319876.8524   23319877.9434
     -1592.1904
 -12806264.66248  -9974115.38147  22381243.6204   22381242.5784   22381245.5074
      2988.1354
 -29677139.66549 -23058678.54548  19851698.2014   19851698.1914   19851701.0054
       663.6714
  -3617106.79647  -2807605.87846  24655379.7304   24655379.0474   24655383.6794
      3444.8634
 -17623316.58848 -13729137.90948  21886467.5464   21886467.8174   21886469.6934
     -2837.1934
 -23218439.38849 -18053034.25948  20871461.5334   20871461.1744   20871464.2404
       255.4084
 10  1  1  1 53  0.0000000  0 10G12G17G22G30G18G26G09G01G15G27
 -23176245.38149 -18000556.40148  21467543.9214   21467544.0674   21467545.6524
      2202.3314
 -16288154.94648 -12640368.86947  22395384.3164   22395384.4284   22395385.9724
      -929.6204
  -8222753.97147  -6396484.71746  23921381.2704   23921381.5074   23921380.4654
        56.4304
  -7075224.47447  -5454080.36446  24159805.7534   24159804.5134   24159809.0034
      3513.3574
 -11335392.00747  -8822822.86846  23329006.6884   23329005.3464   23329007.9004
     -1605.9304
 -12895727.56348 -10043826.72947  22364219.1654   22364218.6024   22364221.6044
      2976.0894
 -29696853.52549 -23074039.98748  19847946.6824   19847946.6474   19847949.4584
       650.2674
  -3720406.71947  -2888099.31846  24635722.1184   24635722.0014   24635725.7284
      3441.1384
 -17538030.10148 -13662680.90848  21902696.7704   21902696.9814   21902699.4704
     -2848.9634
 -23225997.71049 -18058923.85848  20870023.0274   20870022.7864   20870025.9154
       248.2584
 10  1  1  1 53 30.0000000  0 10G12G17G22G30G18G26G09G01G15G27
 -23242129.34249 -18051894.53848  21455006.7644   21455007.0164   21455008.4264
      2189.8764
 -16259984.21748 -12618417.65047  22400745.0004   22400744.9074   22400746.3624
      -948.5984
  -8224178.56447  -6397594.78646  23921110.6584   23921109.0314   23921109.6964
        38.6094
  -7180562.13747  -5536161.65646  24139759.8914   24139760.1744   24139762.5114
      3508.9334
 -11287002.35947  -8785116.66546  23338214.4394   23338213.7004   23338216.0554
     -1620.3144
 -12984815.46948 -10113245.85647  22347266.2714   22347266.0584   22347268.2484
      2963.1874
 -29716154.59949 -23089079.78448  19844273.9034   19844273.8724   19844276.2664
       636.3634
  -3823579.82547  -2968493.93946  24616090.0294   24616090.4274   24616092.6524
      3436.9824
 -17452383.03648 -13595942.93648  21918994.6934   21918995.2274   21918997.1034
     -2861.0694
 -23233328.40649 -18064636.08748  20868628.1254   20868628.0054   20868630.8494
       240.3224
 10  1  1  1 54  0.0000000  0 10G12G17G22G30G18G26G09G01G15G27
 -23307644.04149 -18102944.93848  21442539.6324   21442539.4124   21442541.2484
      2177.2644
 -16231251.84948 -12596028.77947  22406212.4824   22406212.5484   22406214.4814
      -967.5154
  -8225077.93347  -6398295.61146  23920938.7064   23920938.7144   23920939.4014
        20.9074
  -7285762.11447  -5618135.67546  24119741.0314   24119740.4694   24119743.2404
      3504.1474
 -11238193.68947  -8747083.95946  23347502.2864   23347500.5044   23347503.4184
     -1634.5444
 -13073524.36248 -10182369.67047  22330385.3524   22330386.5364   22330388.1554
      2950.0454
 -29735040.70849 -23103796.22848  19840680.0594   19840679.8434   19840682.4564
       622.2234
  -3926623.82147  -3048787.97446  24596481.4754   24596481.4304   24596484.5264
      3432.3374
 -17366376.00348 -13528924.47548  21935361.4414   21935361.8784   21935363.9234
     -2873.2754
 -23240429.60749 -18070169.48948  20867276.8554   20867276.6564   20867279.5424
       232.4354
 10  1  1  1 54 30.0000000  0 10G12G17G22G30G18G26G09G01G15G27
 -23372791.93049 -18153709.51148  21430142.3554   21430142.6114   21430144.1074
      2165.6204
 -16201961.74148 -12573205.31147  22411786.4024   22411786.6244   22411788.1374
      -985.5764
  -8225455.51847  -6398589.85346  23920867.4574   23920865.5914   23920865.6704
         3.9394
  -7390826.54947  -5700004.07446  24099748.4004   24099749.2074   24099750.9484
      3499.9394
 -11188971.75047  -8708729.20846  23356868.8944   23356866.6114   23356870.1224
     -1647.3274
 -13161854.45748 -10251198.30547  22313576.9514   22313577.3904   22313579.9264
      2938.0214
 -29753514.27949 -23118191.21748  19837164.6524   19837164.4964   19837166.9434
       609.0094
  -4029540.42947  -3128982.72746  24576896.7464   24576897.8394   24576899.4214
      3428.5494
 -17280014.45948 -13461629.77048  21951795.4274   21951795.8084   21951798.0624
     -2884.5734
 -23247303.73449 -18075525.95248  20865968.6234   20865968.3564   20865971.3734
       225.4974
 10  1  1  1 55  0.0000000  0 10G12G17G22G30G18G26G09G01G15G27
 -23437571.11849 -18204186.78748  21417815.1434   21417815.4234   21417816.9774
      2153.3144
 -16172113.62048 -12549947.03147  22417466.1614   22417466.0244   22417468.1794
     -1004.1064
  -8225310.64647  -6398477.02646  23920896.1084   23920894.8184   23920892.7964
       -13.3834
  -7495752.84347  -5781764.84346  24079781.7714   24079782.1654   24079784.7874
      3495.3184
 -11139337.42047  -8670053.12246  23366315.2194   23366312.8884   23366315.0934
     -1661.1864
 -13249801.41748 -10319728.40347  22296841.0914   22296841.1894   22296843.8994
      2925.1944
 -29771573.36549 -23132263.22948  19833728.0974   19833728.0094   19833730.4804
       595.0974
  -4132327.03247  -3209076.20246  24557336.8694   24557337.4674   24557339.6634
      3423.9974
 -17193299.14648 -13394059.39548  21968297.0014   21968297.2134   21968298.7654
     -2896.1634
 -23253948.85949 -18080703.97048  20864704.1584   20864703.9304   20864706.7914
       217.8284
 10  1  1  1 55 30.0000000  0 10G12G17G22G30G18G26G09G01G15G27
 -23501978.28649 -18254374.18048  21405559.0714   21405559.1274   21405560.6364
      2140.9874
 -16141705.85048 -12526252.66547  22423252.8444   22423252.8594   22423254.7864
     -1022.6894
  -8224641.42747  -6397955.57146  23921021.6434   23921020.6554   23921021.6214
       -30.8084
  -7600537.27047  -5863415.05746  24059841.0644   24059841.8994   24059844.8384
      3490.7484
 -11089290.83447  -8631055.78846  23375837.3354   23375838.0714   23375839.5434
     -1674.6634
 -13337359.95648 -10387955.82947  22280179.0894   22280179.9154   22280181.3764
      2912.4614
 -29789214.53049 -23146009.58948  19830371.2444   19830370.8934   19830373.6794
       581.4204
  -4234979.98947  -3289065.53746  24537802.8314   24537803.5954   24537805.7974
      3419.7474
 -17106229.57348 -13326212.97548  21984865.9634   21984866.2384   21984868.3014
     -2907.8404
 -23260361.79749 -18085701.06048  20863483.6994   20863483.8324   20863486.8364
       210.2824
 10  1  1  1 56  0.0000000  0 10G12G17G22G30G18G26G09G01G15G27
 -23566014.48049 -18304272.50548  21393373.1904   21393373.2254   21393375.3314
      2128.5674
 -16110740.96748 -12502124.17847  22429145.0094   22429145.3344   22429146.9434
     -1041.1354
  -8223449.51347  -6397026.83746  23921248.9774   23921248.9824   23921248.9104
       -48.1884
  -7705179.64947  -5944954.58346  24039928.9404   24039927.9294   24039931.5274
      3486.0124
 -11038835.56147  -8591740.00246  23385440.0504   23385438.4664   23385440.3884
     -1688.7084
 -13424528.59848 -10455879.43347  22263591.2744   22263592.1224   22263594.3554
      2899.1594
 -29806438.09149 -23159430.54348  19827093.4154   19827093.2234   19827095.9424
       567.3304
  -4337499.62747  -3368951.00546  24518294.2684   24518293.6174   24518296.8274
      3415.1994
 -17018808.38148 -13258092.56947  22001501.5674   22001502.0964   22001503.6974
     -2919.7404
 -23266543.18149 -18090517.72248  20862307.5174   20862307.3224   20862310.1094
       202.4274
 10  1  1  1 56 30.0000000  0 10G12G17G22G30G18G26G09G01G15G27
 -23629682.71049 -18353884.09648  21381257.5494   21381257.6714   21381259.3644
      2115.3234
 -16079223.78548 -12477565.33347  22435142.2234   22435142.6504   22435144.7804
     -1060.6174
  -8221739.40947  -6395694.28446  23921574.5094   23921572.1034   23921574.1074
       -66.4804
  -7809682.87447  -6026385.67046  24020042.4824   24020043.2034   24020046.3464
      3480.2354
 -10987977.53547  -8552110.39446  23395115.0584   23395116.3844   23395119.8834
     -1702.7464
 -13511308.37148 -10523500.03047  22247077.9524   22247077.3614   22247080.9224
      2885.3304
 -29823247.26249 -23172528.59648  19823894.9934   19823894.7544   19823897.3514
       552.5594
  -4439888.47747  -3448734.52846  24498810.3534   24498809.9394   24498812.9954
      3410.0504
 -16931041.92248 -13189703.12147  22018202.9404   22018203.2994   22018205.2624
     -2932.1684
 -23272496.27749 -18095156.49348  20861174.6924   20861174.2224   20861177.4844
       193.7954
 10  1  1  1 57  0.0000000  0 10G12G17G22G30G18G26G09G01G15G27
 -23692978.79149 -18403205.69948  21369212.8224   21369212.8454   21369214.4224
      2103.8644
 -16047152.08548 -12452574.39447  22441245.6414   22441245.1954   22441247.1694
     -1078.1844
  -8219508.51347  -6393955.92046  23921998.1704   23921998.1054   23921998.6474
       -82.6054
  -7914042.31647  -6107704.72346  24000184.4574   24000183.8114   24000186.7904
      3476.7114
 -10936716.17347  -8512166.49446  23404871.8444   23404870.3614   23404873.4764
     -1715.0074
 -13597692.90448 -10590812.64447  22230639.4844   22230639.3904   22230642.4584
      2873.0854
 -29839637.49749 -23185300.20348  19820776.0094   19820775.6764   19820778.3374
       539.4884
  -4542141.92347  -3528412.53446  24479351.5464   24479352.7004   24479354.3864
      3406.4394
 -16842928.83348 -13121043.57547  22034970.3994   22034970.3484   22034972.6984
     -2942.5894
 -23278216.87449 -18099614.10248  20860086.1644   20860085.7484   20860088.7754
       187.0754
 10  1  1  1 57 30.0000000  0 10G12G17G22G30G18G26G09G01G15G27
 -23755901.01549 -18452235.98848  21357238.8764   21357239.2424   21357240.6684
      2091.0504
 -16014525.45848 -12427151.03947  22447454.1404   22447454.1594   22447455.4534
     -1096.9664
  -8216755.98047  -6391811.08346  23922522.9044   23922521.6004   23922521.8334
      -100.4624
  -8018255.09547  -6188909.48746  23980352.8384   23980352.9244   23980356.2664
      3470.9924
 -10885052.55647  -8471909.14446  23414703.1064   23414703.0264   23414704.5664
     -1728.9854
 -13683678.22848 -10657814.18647  22214277.3594   22214277.2064   22214279.9204
      2859.3694
 -29855606.82349 -23197743.83248  19817737.1124   19817736.8644   19817739.2994
       525.1494
  -4644257.41047  -3607983.05946  24459920.2184   24459920.1774   24459923.2384
      3401.4084
 -16754470.24248 -13052114.80047  22051803.4794   22051803.8274   22051805.8534
     -2954.5004
 -23283703.04549 -18103889.03948  20859042.1714   20859041.9354   20859044.8524
       178.8674
 10  1  1  1 58  0.0000000  0 10G12G17G22G30G18G26G09G01G15G27
 -23818451.84249 -18500976.88448  21345336.0754   21345336.0844   21345337.7544
      2078.8554
 -15981347.86448 -12401298.36647  22453767.8744   22453768.2854   22453769.1964
     -1115.1224
  -8213485.25547  -6389262.49146  23923142.7404   23923143.0624   23923145.4314
      -117.6794
  -8122323.25247  -6270001.56946  23960548.8894   23960549.3114   23960552.2214
      3466.5704
 -10832991.99947  -8431342.49746  23424609.4364   23424610.6364   23424611.5784
     -1742.0074
 -13769264.53048 -10724504.82147  22197990.6224   22197990.5324   22197993.1234
      2846.2834
 -29871157.60049 -23209861.32048  19814777.6544   19814777.5564   19814780.0744
       511.3884
  -4746236.96147  -3687447.63846  24440513.0964   24440514.1194   24440515.8424
      3397.1234
 -16665670.94148 -12982920.54347  22068701.5034   22068701.7804   22068703.6994
     -2965.6454
 -23288957.20949 -18107983.19148  20858042.1804   20858041.7734   20858045.2014
       171.2304
 10  1  1  1 58 30.0000000  0 10G12G17G22G30G18G26G09G01G15G27
 -23880628.08049 -18549425.89148  21333504.2614   21333504.4974   21333506.0574
      2066.4924
 -15947618.14548 -12375015.46347  22460186.4744   22460186.8164   22460188.0454
     -1133.2264
  -8209694.75147  -6386308.85946  23923866.2794   23923864.4564   23923865.5124
      -134.6404
  -8226243.04247  -6350978.01346  23940773.3124   23940773.8084   23940777.5534
      3461.5734
 -10780534.91847  -8390466.86946  23434590.9644   23434590.0094   23434594.0684
     -1755.0284
 -13854446.33648 -10790880.24447  22181780.5904   22181780.9654   22181783.4544
      2832.7984
 -29886286.66049 -23221650.19548  19811898.9924   19811898.6104   19811901.2704
       497.4864
  -4848076.89847  -3766803.42746  24421133.9474   24421134.7764   24421137.8284
      3392.5544
 -16576530.78948 -12913460.68547  22085664.2624   22085664.2504   22085666.4064
     -2976.7564
 -23293976.01249 -18111893.94448  20857087.2594   20857087.0544   20857090.0624
       163.5754
 10  1  1  1 59  0.0000000  0 10G12G17G22G30G18G26G09G01G15G27
 -23942430.60649 -18597583.69148  21321743.6194   21321744.0104   21321745.3514
      2053.7114
 -15913338.78648 -12348304.26947  22466709.4424   22466710.2734   22466711.6274
     -1151.8224
  -8205386.50647  -6382951.78446  23924685.4874   23924684.0854   23924685.9134
      -152.1114
  -8330014.56647  -6431838.93746  23921027.1254   23921025.6424   23921030.8124
      3456.4504
 -10727684.80647  -8349284.99146  23444648.1194   23444647.5374   23444650.7514
     -1768.3974
 -13939222.31048 -10856939.43847  22165648.4994   22165649.2264   22165651.7364
      2818.8904
 -29900994.18349 -23233110.60048  19809100.2594   19809099.8864   19809102.3744
       483.2164
  -4949777.18747  -3846050.42446  24401782.5234   24401781.6844   24401784.4684
      3387.4594
 -16487053.08448 -12843737.80247  22102691.3854   22102691.7154   22102693.8124
     -2988.2494
 -23298760.04249 -18115621.75448  20856176.8234   20856176.5224   20856179.3904
       155.4384
 10  1  1  1 59 30.0000000  0 10G12G17G22G30G18G26G09G01G15G27
 -24003857.65849 -18645448.91848  21310054.3314   21310054.3234   21310056.1054
      2041.3574
 -15878509.98848 -12321164.94047  22473337.1184   22473337.2964   22473338.7214
     -1169.9804
  -8200560.04247  -6379190.91246  23925602.9104   23925603.2104   23925603.6424
      -169.2534
  -8433635.71047  -6512582.67746  23901308.0084   23901309.6254   23901310.5614
      3451.6324
 -10674442.94347  -8307797.85346  23454780.3294   23454781.0064   23454783.4444
     -1781.1194
 -14023588.40548 -10922679.25047  22149593.7784   22149594.2204   22149596.0624
      2805.5714
 -29915278.30949 -23244241.08748  19806382.0044   19806381.9454   19806384.3034
       469.2004
  -5051335.68447  -3925186.93246  24382455.0834   24382456.1274   24382459.1244
      3382.8464
 -16397238.67948 -12773752.55347  22119782.4954   22119782.8854   22119784.5444
     -2999.3384
 -23303307.70849 -18119165.38948  20855311.5964   20855311.5194   20855314.1274
       147.7334
                            4  1
RINEX FILE SPLICE; other post-header comments skipped       COMMENT
 10  1  1  2  0  0.0000000  0 10G12G17G22G30G18G26G09G01G15G27
 -24064910.86449 -18693022.83848  21298436.0934   21298436.4014   21298438.1954
      2029.1814
 -15843135.04548 -12293600.04447  22480068.8084   22480068.8274   22480070.2194
     -1187.9114
  -8195218.26547  -6375028.50046  23926619.2704   23926619.4284   23926621.1774
      -186.1994
  -8537107.55147  -6593210.08946  23881618.2904   23881617.7794   23881622.1774
      3446.9114
 -10620814.54047  -8266009.50746  23464985.5994   23464985.6644   23464989.2654
     -1793.6304
 -14107544.11148 -10988099.28247  22133618.1104   22133617.9374   22133620.3944
      2791.9554
 -29929140.56249 -23255042.83848  19803744.0204   19803743.9214   19803746.3514
       455.2994
  -5152753.51747  -4004213.83346  24363156.6304   24363157.0864   24363159.5444
      3378.5814
 -16307091.88048 -12703508.29647  22136936.5964   22136936.6614   22136938.4844
     -3010.1324
 -23307620.57649 -18122526.05848  20854490.7514   20854490.5544   20854493.5294
       140.1494
 10  1  1  2  0 30.0000000  0 10G12G17G22G30G18G26G09G01G15G27
 -24125588.31349 -18740303.95848  21286889.7004   21286890.0574   21286891.4574
      2016.2494
 -15807213.68148 -12265609.35947  22486904.1694   22486904.2374   22486905.6864
     -1206.4254
  -8189360.65247  -6370464.12946  23927735.2944   23927735.6034   23927735.3514
      -203.9014
  -8640427.49447  -6673719.12846  23861956.9884   23861957.2224   23861961.4764
      3441.0134
 -10566800.57247  -8223920.72646  23475263.1234   23475263.2824   23475266.3884
     -1807.0114
 -14191084.98248 -11053196.06447  22117720.5444   22117721.4914   22117723.5324
      2777.6674
 -29942578.99349 -23265514.33848  19801186.8784   19801186.6654   19801189.2844
       440.9094
  -5254027.99047  -4083129.01246  24343883.8244   24343884.4544   24343887.9514
      3373.5254
 -16216613.46648 -12633005.63547  22154154.0614   22154154.9154   22154156.3944
     -3021.3444
 -23311696.38349 -18125702.00648  20853714.9634   20853714.5974   20853717.8824
       131.8794
 10  1  1  2  1  0.0000000  0 10G12G17G22G30G18G26G09G01G15G27
 -24185887.29749 -18787290.16148  21275415.0534   21275415.4074   21275417.0164
      2003.9154
 -15770744.61448 -12237191.89647  22493844.1904   22493844.3894   22493845.8184
     -1224.4914
  -8182985.38147  -6365496.38646  23928947.2934   23928948.2684   23928948.7534
      -220.8954
  -8743591.62247  -6754106.72046  23842325.4724   23842325.6934   23842328.7504
      3436.4774
 -10512400.82247  -8181531.33046  23485617.3864   23485617.4324   23485617.8354
     -1819.6364
 -14274205.93948 -11117965.64647  22101903.1964   22101903.0224   22101906.3074
      2763.9524
 -29955590.35349 -23275653.05748  19798710.7234   19798710.7544   19798713.0544
       426.8674
  -5355155.46547  -4161929.65646  24324640.5074   24324641.1284   24324644.0824
      3368.4954
 -16125803.48148 -12562244.60947  22171434.7184   22171434.8664   22171437.1114
     -3032.2804
 -23315532.09949 -18128690.87148  20852985.3894   20852984.9954   20852987.8054
       124.1374
 10  1  1  2  1 30.0000000  0 10G12G17G22G30G18G26G09G01G15G27
 -24245814.68449 -18833986.81248  21264011.3644   21264011.4554   21264013.3294
      1990.7154
 -15733736.68648 -12208354.54247  22500886.7364   22500887.0654   22500887.8234
     -1243.2954
  -8176100.39247  -6360131.44446  23930259.1724   23930258.4814   23930259.1944
      -238.6074
  -8846605.97947  -6834377.62446  23822722.2904   23822721.3524   23822725.2464
      3430.6194
 -10457625.33347  -8138849.10446  23496040.2184   23496038.1494   23496039.5044
     -1832.9504
 -14356911.43648 -11182411.48847  22086164.6464   22086164.5544   22086167.0424
      2749.2214
 -29968180.68249 -23285463.70148  19796314.9564   19796314.8074   19796317.2764
       411.9924
  -5456142.21247  -4240620.63046  24305422.6564   24305423.7094   24305426.7904
      3363.0324
 -16034671.18348 -12491232.43047  22188776.7364   22188776.8764   22188778.8674
     -3043.8144
 -23319134.26849 -18131497.74948  20852299.7334   20852299.4974   20852302.3364
       115.5304
 10  1  1  2  2  0.0000000  0 10G12G17G22G30G18G26G09G01G15G27
 -24305359.74149 -18880385.53648  21252680.2534   21252680.2404   21252682.4984
      1978.7514
 -15696181.06748 -12179090.41547  22508033.1294   22508033.2924   22508035.1734
     -1260.6224
  -8168697.05547  -6354362.60446  23931667.4984   23931666.2964   23931666.0974
      -254.8174
  -8949459.97047  -6914523.56646  23803150.0284   23803150.5394   23803153.5834
      3426.2324
 -10402467.16247  -8095868.72146  23506536.3394   23506535.6214   23506538.4894
     -1844.5294
 -14439189.14448 -11246523.98747  22070507.6744   22070508.2854   22070510.7804
      2735.4364
 -29980340.29049 -23294938.71848  19794001.0764   19794000.9004   19794003.4094
       398.4004
  -5556977.48747  -4319193.56846  24286234.9794   24286235.3154   24286237.9804
      3358.8474
 -15943208.80548 -12419963.05047  22206181.3814   22206181.7604   22206183.5034
     -3053.9674
 -23322492.64749 -18134114.66848  20851660.8914   20851660.6374   20851663.3274
       108.1594
 10  1  1  2  2 30.0000000  0 11G12G17G22G30G18G26G14G09G01G15G27
 -24364528.52949 -18926491.07348  21241420.8484   21241420.8054   21241422.6234
      1965.9464
 -15658085.44448 -12149405.50847  22515282.3714   22515282.8414   22515285.0104
     -1278.9694
  -8160782.41447  -6348195.36646  23933173.1114   23933171.5564   23933173.1974
      -272.1954
  -9052158.67447  -6994548.53246  23783607.2294   23783606.7584   23783610.3014
      3420.6854
 -10346935.09947  -8052596.97446  23517103.4904   23517102.5244   23517104.0094
     -1857.0644
 -14521042.49648 -11310305.81647  22054931.6464   22054931.4244   22054935.2084
      2721.3484
  -1357352.84716                  25017068.408
      3539.512
 -29992074.20049 -23304082.02248  19791768.2114   19791767.9194   19791770.4794
       383.9494
  -5657666.43347  -4397652.48346  24267073.9714   24267074.6294   24267078.3774
      3353.9854
 -15851424.86448 -12348443.10047  22223647.4994   22223647.9214   22223649.8274
     -3064.9214
 -23325612.75649 -18136545.91648  20851066.9564   20851066.4904   20851069.7244
        99.9224
 10  1  1  2  3  0.0000000  0 10G12G17G22G30G18G26G09G01G15G27
 -24423322.07649 -18972304.21748  21230232.8604   21230232.9024   21230234.7584
      1953.0694
 -15619452.88948 -12119302.21247  22522634.1494   22522634.0984   22522635.4834
     -1297.0824
  -8152358.92447  -6341631.60646  23934774.6314   23934776.0754   23934775.5654
      -289.8664
  -9154702.35047  -7074452.66946  23764093.0354   23764092.7834   23764097.0944
      3414.6394
 -10291033.22147  -8009037.08346  23527741.5234   23527739.8984   23527742.4234
     -1870.2334
 -14602470.02448 -11373755.83747  22039436.6894   22039437.5544   22039439.8524
      2706.5664
 -30003383.23549 -23312894.25248  19789615.9554   19789615.6334   19789618.4594
       369.3954
  -5758209.35547  -4475997.61546  24247942.2994   24247942.0464   24247944.8674
      3348.2124
 -15759323.31648 -12276675.66247  22241173.7414   22241173.9224   22241176.0234
     -3075.8614
 -23328495.34049 -18138792.08748  20850518.5524   20850518.3314   20850521.0304
        91.6534
 10  1  1  2  3 30.0000000  0 11G12G17G22G30G18G26G14G09G01G15G27
 -24481734.40949 -19017820.31348  21219117.3324   21219117.4974   21219119.0464
      1940.7434
 -15580278.95248 -12088777.06347  22530088.7344   22530088.9054   22530090.2134
     -1314.8554
  -8143422.11947  -6334667.87646  23936476.4654   23936476.5774   23936477.3804
      -306.5144
  -9257084.28347  -7154230.78046  23744611.7754   23744610.9744   23744614.4454
      3409.9154
 -10234758.72847  -7965186.84646  23538450.5034   23538449.4614   23538452.3664
     -1882.1444
 -14683463.59548 -11436867.71847  22024024.2454   22024025.5954   22024026.7754
      2692.4514
  -1569608.04546  -1179432.35645  24976678.2574   24976678.3624   24976680.5824
      3533.8374
 -30014261.38049 -23321370.72648  19787545.9594   19787545.8234   19787548.4564
       355.3434
  -5858599.61747  -4554223.80046  24228837.7634   24228838.3864   24228841.7304
      3344.0964
 -15666900.70348 -12204658.05047  22258761.3954   22258760.8614   22258762.9604
     -3086.2664
 -23331134.40649 -18140848.50048  20850016.3684   20850015.9594   20850018.9474
        83.8294
 10  1  1  2  4  0.0000000  0 11G12G17G22G30G18G26G14G09G01G15G27
 -24539767.61849 -19063040.98948  21208073.9624   21208074.3004   21208075.5094
      1928.2194
 -15540567.69548 -12057833.22047  22537645.2854   22537645.9394   22537647.4694
     -1332.5694
  -8133975.14447  -6327306.61446  23938275.7544   23938272.8514   23938274.1354
      -323.2564
  -9359305.72447  -7233883.82946  23725159.0484   23725160.4624   23725162.4864
      3404.8254
 -10178116.85047  -7921050.35646  23549229.3274   23549227.0744   23549230.7494
     -1894.4394
 -14764022.90248 -11499641.19947  22008693.8124   22008694.5064   22008696.7594
      2678.1014
  -1675570.94446  -1262000.82345  24956514.4604   24956515.0524   24956517.2004
      3530.0044
 -30024710.34549 -23329512.77348  19785557.6874   19785557.5834   19785560.0634
       341.2284
  -5958838.49547  -4632332.02346  24209763.9334   24209763.2924   24209766.8294
      3339.2844
 -15574161.60148 -12132393.82247  22276408.7994   22276409.3084   22276411.0984
     -3096.5144
 -23333531.67449 -18142716.50448  20849560.1934   20849560.2874   20849562.9184
        76.0054
 10  1  1  2  4 30.0000000  0 11G12G17G22G30G18G26G14G09G01G15G27
 -24597420.91749 -19107965.62248  21197102.8544   21197103.2064   21197104.7434
      1916.0144
 -15500320.21848 -12026471.54047  22545304.3924   22545303.7104   22545305.8094
     -1349.6164
  -8124018.34247  -6319548.06146  23940170.0964   23940169.2764   23940169.8464
      -339.8424
  -9461365.22047  -7313410.69046  23705737.5924   23705738.0334   23705741.6804
      3399.6294
 -10121109.45447  -7876629.02946  23560075.1504   23560076.7964   23560079.1784
     -1905.8324
 -14844144.77148 -11562073.82747  21993447.6764   21993448.1084   21993450.6584
      2663.5264
  -1781421.07046  -1344481.41745  24936371.8954   24936371.4164   24936372.0144
      3526.8014
 -30034728.99549 -23337319.50948  19783651.0894   19783650.8504   19783653.6884
       327.3804
  -6058924.66547  -4710321.22846  24190716.9704   24190717.8974   24190720.2554
      3333.7384
 -15481107.68448 -12059884.28347  22294116.7624   22294116.6094   22294118.5594
     -3106.4754
 -23335685.85349 -18144395.08448  20849150.1634   20849149.8954   20849152.8614
        68.2624
 10  1  1  2  5  0.0000000  0 11G12G17G22G30G18G26G14G09G01G15G27
 -24654694.72649 -19152594.54448  21186204.2364   21186204.2374   21186205.8224
      1902.7644
 -15459538.48148 -11994693.55547  22553064.5834   22553065.0614   22553066.5804
     -1368.3464
  -8113553.91947  -6311393.98646  23942158.6444   23942160.0784   23942160.5644
      -357.2584
  -9563262.88947  -7392811.43946  23686347.2274   23686345.4704   23686350.3714
      3393.9804
 -10063740.87047  -7831926.26146  23570994.3384   23570992.4204   23570994.6584
     -1918.5474
 -14923827.53148 -11624164.28747  21978284.2944   21978284.2344   21978287.0394
      2648.6454
  -1887157.09646  -1426873.14645  24916250.9764   24916251.9844   24916254.6204
      3522.2344
 -30044317.47249 -23344791.04748  19781826.6124   19781826.4504   19781828.9074
       312.3484
  -6158857.93247  -4788191.30046  24171702.3394   24171701.9584   24171704.0564
      3328.7204
 -15387742.43648 -11987132.14347  22311883.2474   22311883.1814   22311885.4384
     -3117.3494
 -23337597.31449 -18145884.53248  20848786.3734   20848786.0634   20848789.2064
        59.6484
 10  1  1  2  5 30.0000000  0 11G12G17G22G30G18G26G14G09G01G15G27
 -24711587.90449 -19196926.87748  21175377.7684   21175378.1134   21175379.1794
      1890.1444
 -15418223.31248 -11962499.90647  22560926.6614   22560926.3374   22560928.7834
     -1386.0094
  -8102582.28747  -6302844.69346  23944250.1984   23944248.0804   23944247.7354
      -374.1964
  -9664996.65447  -7472084.51446  23666988.3444   23666987.2664   23666991.3204
      3388.5224
 -10006012.09147  -7786942.81146  23581978.5214   23581979.7154   23581982.8184
     -1930.0324
 -15003067.61248 -11685909.79947  21963205.5744   21963205.6134   21963207.8834
      2634.0264
  -1992775.99346  -1509173.58545  24896152.6314   24896152.2234   24896156.0164
      3518.9334
 -30053474.46149 -23351926.35648  19780084.0124   19780083.7524   19780086.5924
       298.0484
  -6258636.32747  -4865940.69946  24152714.2544   24152714.7344   24152716.8644
      3323.5794
 -15294067.50348 -11914138.69747  22329708.9554   22329709.1334   22329711.4594
     -3127.6984
 -23339264.62949 -18147183.73748  20848469.0884   20848469.0144   20848471.7044
        51.5794
 10  1  1  2  6  0.0000000  0 11G12G17G22G30G18G26G14G09G01G15G27
 -24768101.72249 -19240963.61048  21164623.4294   21164623.4984   21164625.2064
      1877.0414
 -15376377.91148 -11929893.08547  22568889.6814   22568889.4114   22568890.6484
     -1404.0704
  -8091105.67447  -6293901.87546  23946432.6794   23946431.8354   23946433.1224
      -391.4354
  -9766566.70047  -7551229.98946  23647660.0694   23647660.6534   23647663.2414
      3382.5344
  -9947927.73647  -7741682.27346  23593030.9004   23593031.9574   23593033.5594
     -1942.5274
 -15081863.87148 -11747309.48347  21948211.4674   21948211.1234   21948213.3754
      2618.7754
  -2098277.22046  -1591382.32945  24876075.9784   24876076.1794   24876079.6014
      3514.7074
 -30062200.89849 -23358726.17448  19778423.4094   19778423.0194   19778425.7814
       283.2944
  -6358260.58947  -4943569.99346  24133755.5774   24133756.2254   24133758.6004
      3317.6074
 -15200086.41848 -11840906.68747  22347592.8384   22347593.6384   22347595.4824
     -3138.1354
 -23340688.87549 -18148293.54048  20848198.1124   20848197.9464   20848200.6464
        42.9924
 10  1  1  2  6 30.0000000  0 11G12G17G22G30G18G26G14G09G01G15G27
 -24824231.85949 -19284701.36248  21153942.1034   21153942.2704   21153943.8154
      1864.4954
 -15333999.31648 -11896870.80247  22576953.9064   22576953.9874   22576955.4464
     -1421.6514
  -8079121.02547  -6284563.21346  23948713.4284   23948712.0664   23948712.9274
      -408.2004
  -9867967.87747  -7630243.88046  23628364.1444   23628363.9664   23628366.8014
      3376.9594
  -9889486.52947  -7696143.66146  23604152.2014   23604151.8414   23604154.9994
     -1954.0994
 -15160209.49448 -11808358.00947  21933302.2474   21933302.3094   21933304.8224
      2603.8604
  -2203653.74146  -1673493.89045  24856025.0904   24856024.0954   24856026.5944
      3510.3374
 -30070492.06449 -23365186.82148  19776845.7204   19776845.2704   19776848.1274
       268.9754
  -6457725.22747  -5021074.89946  24114827.9164   24114828.6304   24114831.5524
      3312.6324
 -15105797.44448 -11767434.76947  22365535.5544   22365535.3144   22365537.5634
     -3148.3864
 -23341865.34349 -18149210.26748  20847974.3514   20847974.2224   20847976.6594
        34.9034
 10  1  1  2  7  0.0000000  0 10G12G17G22G30G18G26G09G01G15G27
 -24879981.55749 -19328142.66148  21143333.4484   21143333.5994   21143334.9394
      1851.6864
 -15291093.37648 -11863437.59547  22585118.8614   22585118.8164   22585120.2564
     -1439.2284
  -8066633.54047  -6274832.73546  23951088.9004   23951087.8624   23951089.1494
      -424.6334
  -9969202.89247  -7709128.30846  23609099.3194   23609099.2074   23609102.3314
      3371.4834
  -9830695.07547  -7650332.16146  23615340.1324   23615339.9404   23615342.5574
     -1965.6424
 -15238105.58548 -11869056.25647  21918479.4774   21918479.2384   21918481.5584
      2588.5594
 -30078351.27649 -23371310.88048  19775350.2334   19775349.8774   19775352.6234
       254.5044
  -6557033.41147  -5098457.89046  24095929.9514   24095930.4754   24095933.6314
      3307.2554
 -15011206.47048 -11693727.52747  22383535.4794   22383536.0964   22383537.5724
     -3158.4484
 -23342797.20549 -18149936.39548  20847796.8884   20847796.7244   20847799.3974
        26.6354
 10  1  1  2  7 30.0000000  0 10G12G17G22G30G18G26G09G01G15G27
 -24935348.40549 -19371285.63448  21132797.4794   21132797.7864   21132799.1554
      1839.5104
 -15247658.71748 -11829592.39847  22593383.7234   22593383.6444   22593385.9304
     -1456.2884
  -8053642.05447  -6264709.52546  23953563.9834   23953560.3104   23953560.9384
      -441.0344
 -10070268.53247  -7787880.72946  23589867.6724   23589867.8344   23589870.1094
      3366.4894
  -9771553.63447  -7604247.93746  23626594.3694   23626594.3664   23626595.7674
     -1976.9694
 -15315547.31748 -11929400.45147  21903742.2044   21903742.3534   21903745.6014
      2574.1864
 -30085775.14249 -23377095.71048  19773937.3774   19773937.2044   19773939.7154
       240.5754
  -6656181.46747  -5175716.10746  24077063.3994   24077063.6234   24077066.4114
      3302.7044
 -14916313.64248 -11619785.07247  22401592.9464   22401593.0884   22401595.3384
     -3167.7284
 -23343481.40749 -18150469.53948  20847666.6744   20847666.2754   20847669.3504
        19.0744
 10  1  1  2  8  0.0000000  0 10G12G17G22G30G18G26G09G01G15G27
 -24990333.30849 -19414130.99348  21122334.1204   21122334.2414   21122335.7624
      1826.6584
 -15203698.76048 -11795337.88047  22601749.1104   22601748.9324   22601751.5284
     -1474.0294
  -8040148.89847  -6254195.39746  23956130.2154   23956127.8024   23956128.8764
      -457.9674
 -10171165.25247  -7866501.56146  23570667.2184   23570668.0524   23570670.5194
      3360.5614
  -9712066.68047  -7557894.47246  23637916.3074   23637913.9234   23637918.2914
     -1988.6204
 -15392533.39348 -11989389.58647  21889092.5314   21889092.4134   21889094.6034
      2558.6714
 -30092764.65649 -23382542.08348  19772607.4014   19772607.1904   19772609.7924
       225.8364
  -6755169.98347  -5252849.98546  24058226.7904   24058226.9104   24058230.1594
      3296.8894
 -14821122.82848 -11545610.42647  22419707.1024   22419707.4774   22419709.9464
     -3178.0674
 -23343918.75549 -18150810.33048  20847583.4684   20847583.0564   20847585.9854
        10.6294
 10  1  1  2  8 30.0000000  0 11G12G17G22G30G18G26G14G09G01G15G27
 -25044937.09349 -19456679.37848  21111943.3044   21111943.5294   21111945.0264
      1813.9784
 -15159216.03048 -11760675.99847  22610214.1574   22610214.3034   22610215.4374
     -1491.2514
  -8026156.44247  -6243292.21046  23958793.4754   23958793.2454   23958792.2754
      -474.4484
 -10271892.79847  -7944990.54146  23551499.3754   23551498.4274   23551502.0164
      3355.0194
  -9652237.86347  -7511274.63746  23649300.5734   23649300.5474   23649301.9004
     -1999.6724
 -15469062.07548 -12049022.33647  21874529.9424   21874529.4004   21874532.4464
      2543.5304
  -1474292.33046  -1136243.89846  24776054.6634   24776054.9844   24776055.3664
      3493.2614
 -30099320.22449 -23387650.31548  19771359.9254   19771359.6634   19771362.3124
       211.5534
  -6853998.88347  -5329859.50946  24039420.0664   24039420.1754   24039423.1564
      3291.8084
 -14725637.37548 -11471206.17747  22437877.6424   22437877.2744   22437879.8844
     -3187.6334
 -23344109.56949 -18150959.01948  20847547.1494   20847547.0554   20847549.9914
         2.5834
 10  1  1  2  9  0.0000000  0 11G12G17G22G30G18G26G14G09G01G15G27
 -25099154.93949 -19498927.02848  21101625.9494   21101626.0634   21101627.7664
      1801.0844
 -15114208.00548 -11725604.80047  22618778.8154   22618778.7614   22618780.5614
     -1508.6354
  -8011661.46547  -6231997.41746  23961550.0824   23961550.2324   23961549.2174
      -491.5114
 -10372445.99147  -8023343.65146  23532364.5544   23532365.3354   23532368.9424
      3349.1644
  -9592065.78947  -7464387.33446  23660749.6744   23660750.4724   23660752.6924
     -2011.3654
 -15545126.48248 -12108293.28847  21860054.5474   21860054.6344   21860057.6784
      2527.8854
  -1579023.41247  -1217852.51246  24756125.8264   24756125.3814   24756127.7924
      3489.1454
 -30105436.98249 -23392416.61948  19770195.9414   19770195.8584   19770198.2164
       196.8374
  -6952663.12247  -5406740.72046  24020645.0684   24020644.9794   24020647.9914
      3286.1144
 -14629855.33048 -11396570.82347  22456104.4414   22456104.4224   22456106.3014
     -3197.3224
 -23344048.95049 -18150911.78548  20847558.8054   20847558.3944   20847561.3644
        -6.0494
 10  1  1  2  9 30.0000000  0 11G12G17G22G30G18G26G14G09G01G15G27
 -25152990.50449 -19540876.80748  21091381.5254   21091381.5874   21091383.2494
      1787.5764
 -15068679.66148 -11690128.15847  22627442.6914   22627442.8734   22627444.2594
     -1526.9544
  -7996668.83147  -6220314.84746  23964400.0464   23964401.8464   23964403.4644
      -508.3674
 -10472827.37247  -8101562.90846  23513262.9234   23513263.5704   23513265.8804
      3342.4734
  -9531556.71947  -7417237.43546  23672262.6574   23672263.2124   23672266.7094
     -2023.0714
 -15620727.70748 -12167203.33147  21845668.8204   21845668.5014   21845670.7934
      2511.6774
  -1683619.24847  -1299355.75546  24736221.4654   24736220.4104   24736223.7414
      3484.0224
 -30111117.96049 -23396843.35248  19769114.7934   19769114.6614   19769117.2894
       181.5824
  -7051165.05847  -5483495.46146  24001900.6224   24001901.3364   24001903.1804
      3280.0364
 -14533782.31148 -11321708.72847  22474386.2224   22474386.2674   22474388.6264
     -3208.1454
 -23343739.99749 -18150671.04348  20847617.4494   20847617.4284   20847620.1734
       -15.0734
 10  1  1  2 10  0.0000000  0 11G12G17G22G30G18G26G14G09G01G15G27
 -25206442.20849 -19582527.47548  21081209.8624   21081209.9254   21081211.7094
      1775.1494
 -15022631.47548 -11654246.45447  22636205.3064   22636205.4894   22636206.8304
     -1543.7584
  -7981178.31647  -6208244.35046  23967353.1264   23967351.7264   23967350.8334
      -524.9564
 -10573034.54847  -8179646.43446  23494194.5644   23494194.7974   23494196.3434
      3337.3464
  -9470712.12747  -7369826.09746  23683843.0124   23683843.4854   23683845.6214
     -2034.0074
 -15695861.76948 -12225749.34147  21831370.9514   21831371.3074   21831373.6324
      2496.5744
  -1788076.01746  -1380750.62046  24716344.3424   24716343.3794   24716346.9714
      3479.0814
 -30116361.41349 -23400929.16048  19768117.0984   19768116.8544   19768119.4274
       167.3394
  -7149502.60247  -5560122.11346  23983186.7734   23983187.8524   23983190.6114
      3275.1104
 -14437419.85048 -11246621.09647  22492723.6664   22492723.5024   22492725.9884
     -3216.9894
 -23343180.74249 -18150235.25448  20847723.9674   20847723.3634   20847726.6384
       -22.9944
 10  1  1  2 10 30.0000000  0 11G12G17G22G30G18G26G14G09G01G15G27
 -25259506.46349 -19623876.23648  21071111.9904   21071112.1584   21071113.8374
      1762.1614
 -14976061.45748 -11617958.12147  22645067.1224   22645067.5354   22645068.8754
     -1561.2224
  -7965187.72847  -6195784.17646  23970391.2344   23970393.8614   23970395.0034
      -541.5604
 -10673062.92647  -8257590.64146  23475158.9194   23475159.2404   23475162.4634
      3331.2334
  -9409532.31547  -7322153.53646  23695484.9244   23695485.6564   23695487.4284
     -2045.1474
 -15770522.69848 -12283926.69847  21817163.7864   21817163.8354   21817166.0724
      2480.6294
  -1892388.35147  -1462032.93446  24696494.0844   24696493.4644   24696496.2674
      3474.5184
 -30121163.30749 -23404670.89648  19767203.2834   19767203.2104   19767205.5924
       152.5614
  -7247671.30847  -5636617.19846  23964507.0684   23964507.3554   23964509.7624
      3269.6034
 -14340766.74748 -11171307.00147  22511115.9584   22511116.2474   22511118.3794
     -3226.6464
 -23342367.12849 -18149601.27048  20847878.7304   20847878.5674   20847881.3514
       -31.5574
 10  1  1  2 11  0.0000000  0 11G12G17G22G30G18G26G14G09G01G15G27
 -25312190.06849 -19664928.38948  21061086.7044   21061086.9344   21061088.3334
      1749.8174
 -14928978.83548 -11581270.35847  22654026.4574   22654026.8954   22654027.8374
     -1577.9444
  -7948705.63447  -6182941.02346  23973530.1494   23973529.8414   23973530.7204
      -557.8204
 -10772918.20847  -8335399.94246  23456157.5714   23456157.0724   23456160.4204
      3325.4774
  -9348025.94847  -7274226.49046  23707189.6114   23707188.8384   23707190.5564
     -2055.9974
 -15844714.85248 -12341738.75247  21803045.0134   21803045.2224   21803047.0844
      2465.2854
  -1996560.75047  -1543206.20446  24676670.6344   24676671.1034   24676673.0584
      3469.4304
 -30125530.10949 -23408073.60548  19766372.1844   19766372.0104   19766374.8164
       138.3394
  -7345677.08947  -5712985.35346  23945856.8244   23945857.0554   23945859.3114
      3264.0894
 -14243832.21248 -11095773.60647  22529561.8994   22529562.7214   22529564.8824
     -3235.9204
 -23341305.48749 -18148774.01948  20848080.8024   20848080.7924   20848083.3744
       -39.4504
 10  1  1  2 11 30.0000000  0 11G12G17G22G30G18G26G14G09G01G15G27
 -25364487.48549 -19705679.61148  21051134.9004   21051134.9674   21051136.8084
      1736.6844
 -14881379.63648 -11544180.06347  22663084.5594   22663084.7124   22663085.6184
     -1595.3644
  -7931728.31747  -6169711.95046  23976762.2994   23976761.7324   23976763.3034
      -574.0784
 -10872594.59547  -8413069.83246  23437189.9004   23437189.5394   23437192.3564
      3319.3234
  -9286191.19947  -7226043.59546  23718955.7314   23718956.0174   23718958.3824
     -2066.5154
 -15918430.59048 -12399179.58847  21789017.5454   21789017.2044   21789019.9454
      2449.1054
  -2100585.39647  -1624264.35046  24656875.4134   24656875.0984   24656878.6974
      3465.0904
 -30129456.30149 -23411132.97048  19765625.0654   19765624.8994   19765627.5004
       123.4444
  -7443513.94347  -5789221.83446  23927238.9944   23927240.1034   23927241.3364
      3258.5414
 -14146613.55348 -11020018.80447  22548062.2254   22548062.9334   22548064.6424
     -3245.3684
 -23339990.02949 -18147748.98348  20848331.1084   20848331.0444   20848333.4734
       -48.1844
 10  1  1  2 12  0.0000000  0 11G12G17G22G30G18G26G14G09G01G15G27
 -25416398.51549 -19746129.75848  21041256.3584   21041256.7994   21041258.4224
      1724.2154
 -14833265.82248 -11506688.76847  22672240.5314   22672240.4334   22672241.5394
     -1612.1524
  -7914256.76547  -6156097.79346  23980087.2664   23980085.8054   23980087.1744
      -590.0694
 -10972090.89347  -8490599.39746  23418256.3854   23418256.4244   23418259.8404
      3313.9004
  -9224031.08247  -7177607.13546  23730784.0654   23730784.6264   23730786.8244
     -2077.3564
 -15991667.26848 -12456247.12147  21775081.0164   21775081.0684   21775083.7844
      2433.5334
  -2204459.88146  -1705205.50346  24637107.8834   24637107.0994   24637109.5334
      3460.1614
 -30132941.02749 -23413848.34348  19764962.1184   19764961.8884   19764964.2964
       109.1604
  -7541180.68647  -5865325.78646  23908653.8064   23908653.7874   23908656.7374
      3252.9894
 -14049113.14748 -10944044.46447  22566615.9974   22566615.5914   22566618.7034
     -3254.4084
 -23338420.04149 -18146525.61848  20848629.9124   20848629.7954   20848632.3174
       -56.2854
 10  1  1  2 12 30.0000000  0 11G12G17G22G30G18G26G14G09G01G15G27
 -25467924.71949 -19786280.02948  21031451.6234   21031451.5844   21031452.9294
      1711.4334
 -14784640.73748 -11468799.08647  22681493.5294   22681493.5334   22681495.0924
     -1629.0724
  -7896293.96047  -6142100.81446  23983501.5794   23983503.3014   23983504.4274
      -606.6014
 -11071407.90247  -8567989.25546  23399356.7754   23399357.3304   23399359.7184
      3307.7354
  -9161549.79947  -7128920.42946  23742675.3104   23742673.5594   23742677.5374
     -2087.9424
 -16064423.72948 -12512940.46747  21761236.1694   21761236.1914   21761238.3214
      2417.3484
  -2308183.41347  -1786029.02946  24617370.3474   24617371.1854   24617374.4244
      3455.1374
 -30135985.41849 -23416220.59848  19764382.7894   19764382.7834   19764385.1984
        94.4014
  -7638678.02547  -5941297.71546  23890100.7084   23890100.5584   23890103.3954
      3247.4174
 -13951334.85548 -10867853.58847  22585222.7454   22585222.7134   22585224.8714
     -3263.4224
 -23336596.60249 -18145104.75548  20848976.8044   20848976.5554   20848979.5794
       -64.7864
 10  1  1  2 13  0.0000000  0 11G12G17G22G30G18G26G14G09G01G15G27
 -25519065.12649 -19826129.67948  21021719.6994   21021719.7944   21021721.1844
      1698.4014
 -14735505.02248 -11430511.50847  22690843.7964   22690843.9614   22690844.6204
     -1646.3584
  -7877840.28347  -6127721.38146  23987017.8744   23987014.9024   23987014.6434
      -623.0214
 -11170543.88447  -8645238.06246  23380491.6554   23380491.6324   23380495.2864
      3301.6354
  -9098749.64047  -7079985.26046  23754624.1134   23754625.4174   23754627.9964
     -2098.5714
 -16136696.87248 -12569257.19747  21747482.8714   21747482.5574   21747485.7164
      2401.2604
  -2411752.89947  -1866732.52246  24597661.9494   24597659.7974   24597664.0784
      3449.7164
 -30138587.91249 -23418248.51548  19763887.4104   19763887.4734   19763889.8584
        79.5204
  -7736004.36447  -6017136.40346  23871579.5014   23871580.1534   23871583.5524
      3241.4374
 -13853280.51348 -10791447.61547  22603881.5654   22603881.7624   22603883.8574
     -3272.9114
 -23334518.29449 -18143485.29548  20849372.3394   20849372.2734   20849375.0484
       -73.4024
 10  1  1  2 13 30.0000000  0 11G12G17G22G30G18G26G14G09G01G15G27
 -25569819.91649 -19865678.84348  21012061.4164   21012061.4414   21012063.0604
      1684.7514
 -14685861.29948 -11391828.07747  22700290.6704   22700290.9024   22700292.2924
     -1663.8494
  -7858897.80547  -6112961.03146  23990620.6644   23990619.9854   23990622.1994
      -640.1624
 -11269498.05747  -8722345.19746  23361661.5364   23361661.5694   23361664.3044
      3294.9194
  -9035634.01947  -7030804.24146  23766635.6014   23766634.0404   23766637.0444
     -2109.5874
 -16208484.58448 -12625195.67047  21733822.2014   21733822.4644   21733825.1544
      2384.2114
  -2515166.48447  -1947314.54446  24577983.7044   24577984.5504   24577986.1594
      3443.6844
 -30140748.99549 -23419932.47348  19763476.2264   19763476.0284   19763478.6614
        63.9544
  -7833159.17347  -6092841.42946  23853091.8024   23853091.7444   23853094.1404
      3234.8774
 -13754952.73248 -10714828.56347  22622592.7824   22622593.2304   22622595.5904
     -3282.7614
 -23332184.90849 -18141667.06248  20849816.4944   20849816.3154   20849818.8854
       -82.6874
 10  1  1  2 14  0.0000000  0 11G12G17G22G30G18G26G14G09G01G15G27
 -25620187.96149 -19904926.65848  21002476.6354   21002476.8774   21002478.3244
      1672.4244
 -14635710.47748 -11352749.51547  22709833.5664   22709834.3104   22709835.4424
     -1680.1274
  -7839467.22347  -6097820.33546  23994317.1154   23994317.3714   23994317.6444
      -655.8714
 -11368268.60647  -8799309.25346  23342865.8724   23342864.9964   23342869.0084
      3289.4614
  -8972204.95947  -6981379.01846  23778705.1314   23778705.0844   23778707.0724
     -2119.3734
 -16279783.61248 -12680753.34947  21720254.3824   21720254.7404   21720256.6484
      2368.3844
  -2618420.92746  -2027772.54446  24558333.7724   24558333.8554   24558335.9674
      3439.2044
 -30142467.15749 -23421271.29848  19763149.1734   19763149.0394   19763151.6174
        49.8674
  -7930140.78047  -6168411.48846  23834637.3784   23834637.8674   23834639.7544
      3229.8784
 -13656353.29448 -10637997.83747  22641355.6354   22641355.8084   22641358.6144
     -3291.2074
 -23329594.82149 -18139648.80548  20850309.1204   20850309.1194   20850311.7684
       -90.6974
 10  1  1  2 14 30.0000000  0 11G12G17G22G30G18G26G14G09G01G15G27
 -25670169.46449 -19943873.27048  20992965.4744   20992965.6884   20992967.1344
      1659.7664
 -14585054.79248 -11313277.54647  22719473.2324   22719473.7884   22719475.5254
     -1696.8034
  -7819550.33447  -6082300.71246  23998105.5174   23998109.4794   23998108.9014
      -671.5154
 -11466854.98247  -8876129.80046  23324105.6384   23324105.3444   23324108.0504
      3283.3824
  -8908465.53447  -6931711.93846  23790835.9044   23790835.1684   23790838.3734
     -2129.7354
 -16350591.68648 -12735928.46447  21706779.9474   21706780.3044   21706782.6524
      2352.2584
  -2721513.99647  -2108104.81446  24538716.2184   24538715.7254   24538719.0064
      3434.0884
 -30143742.34149 -23422264.94448  19762906.6294   19762906.4074   19762909.0294
        35.2304
  -8026948.44647  -6243846.04546  23816215.1004   23816216.1524   23816218.0234
      3223.9844
 -13557485.17148 -10560957.75147  22660169.4694   22660169.6694   22660171.8104
     -3300.0104
 -23326748.14749 -18137430.61748  20850850.9764   20850850.6984   20850853.7234
       -98.9924
 10  1  1  2 15  0.0000000  0 11G12G17G22G30G18G26G14G09G01G15G27
 -25719761.28449 -19982516.22548  20983528.3634   20983528.3934   20983530.1764
      1646.2404
 -14533893.05048 -11273411.25047  22729209.0054   22729208.9804   22729210.7754
     -1713.9794
  -7799145.12947  -6066400.56346  24001992.4584   24001988.9814   24001989.6164
      -688.7694
 -11565253.15747  -8952803.68646  23305381.3114   23305380.6014   23305383.8464
      3276.3694
  -8844415.71447  -6881802.97646  23803022.8634   23803022.1834   23803025.2144
     -2140.1594
 -16420903.06348 -12790716.54547  21693400.6374   21693400.9284   21693402.9254
      2335.0604
  -2824439.96447  -2188306.88246  24519130.5184   24519130.4314   24519130.9434
      3427.8684
 -30144570.68249 -23422910.40048  19762749.2114   19762748.8524   19762751.2864
        19.8894
  -8123577.93647  -6319141.74246  23797827.2134   23797827.2714   23797830.7824
      3217.6284
 -13458347.37048 -10483707.52247  22679034.9764   22679034.6914   22679036.9614
     -3309.3174
 -23323640.93649 -18135009.41048  20851442.3154   20851441.8264   20851444.8244
      -108.3364
 10  1  1  2 15 30.0000000  0 11G12G17G22G30G18G26G14G09G01G15G27
 -25768970.53449 -20020861.08148  20974164.2394   20974164.4444   20974165.6774
      1633.7384
 -14482233.82748 -11233157.30447  22739039.6374   22739040.2114   22739041.3674
     -1730.3114
  -7778260.26047  -6050126.69046  24005966.4284   24005967.4944   24005967.0364
      -704.3694
 -11663468.79347  -9029335.33846  23286691.8964   23286691.7734   23286694.2414
      3270.5734
  -8780065.60647  -6831660.05146  23815268.3024   23815268.0334   23815270.1524
     -2150.3854
 -16490722.30248 -12845121.13947  21680114.1194   21680114.0684   21680117.0604
      2318.9804
  -2927203.59046  -2268382.46446  24499574.7944   24499572.9304   24499574.6654
      3422.4174
 -30144958.72949 -23423212.77248  19762675.3124   19762675.0574   19762677.2894
         5.3454
  -8220035.54347  -6394303.48746  23779470.6484   23779471.5854   23779475.4914
      3212.0624
 -13358949.26148 -10406254.44847  22697949.5494   22697949.5954   22697952.1344
     -3317.7634
 -23320279.68849 -18132390.25348  20852081.8294   20852081.6544   20852084.3214
      -116.4484
 10  1  1  2 16  0.0000000  0 11G12G17G22G30G18G26G14G09G01G15G27
 -25817788.91749 -20058901.35948  20964874.2614   20964874.3674   20964876.0294
      1620.8534
 -14430070.48948 -11192510.54147  22748965.8724   22748965.8984   22748967.2624
     -1747.0244
  -7756889.43947  -6033474.12646  24010029.5804   24010031.5004   24010032.3424
      -720.5414
 -11761492.91447  -9105717.73646  23268036.9544   23268038.1264   23268041.7004
      3264.2184
  -8715409.81447  -6781278.91346  23827573.1394   23827572.2294   23827575.1754
     -2160.2694
 -16560038.72748 -12899133.93747  21666923.5854   21666923.5414   21666926.0614
      2302.2794
  -3029794.28147  -2348323.24946  24480051.9884   24480051.4734   24480052.9004
      3416.9884
 -30144897.71749 -23423165.22048  19762686.6544   19762686.3984   19762689.1634
        -9.3864
  -8316312.35547  -6469324.36846  23761150.9664   23761151.0864   23761153.1094
      3206.3694
 -13259285.29748 -10328594.22247  22716915.4014   22716915.7094   22716917.4774
     -3326.4084
 -23316655.48649 -18129566.19648  20852771.4234   20852771.1764   20852774.1834
      -125.0844
 10  1  1  2 16 30.0000000  0 11G12G17G22G30G18G26G14G09G01G15G27
 -25866223.06549 -20096642.23648  20955657.5674   20955657.7454   20955659.2734
      1607.4194
 -14377412.47048 -11151478.31247  22758986.3734   22758986.5534   22758988.0884
     -1763.9294
  -7735040.73047  -6016449.17746  24014190.1234   24014191.0804   24014189.8044
      -736.9084
 -11859331.59247  -9181955.65646  23249419.5184   23249420.3684   23249423.1614
      3257.3754
  -8650457.85547  -6730666.99046  23839931.9824   23839931.6084   23839933.4244
     -2170.5124
 -16628856.96848 -12952758.53547  21653828.0314   21653828.6204   21653830.4154
      2285.0444
  -3132216.56247  -2428132.82046  24460563.7804   24460564.5534   24460562.2894
      3410.6084
 -30144394.65849 -23422773.21848  19762782.6444   19762782.4894   19762784.8674
       -24.7424
  -8412414.11947  -6544208.86746  23742863.4414   23742863.6184   23742866.5454
      3200.0854
 -13159364.73848 -10250734.04747  22735929.1194   22735929.7574   22735932.0014
     -3335.4774
 -23312774.76849 -18126542.25448  20853510.0154   20853509.7704   20853512.6434
      -134.2654
 10  1  1  2 17  0.0000000  0 11G12G17G22G30G18G26G14G09G01G15G27
 -25914266.34049 -20134078.54048  20946515.3014   20946515.2334   20946517.0754
      1595.5974
 -14324254.78948 -11110056.74047  22769102.1394   22769102.7414   22769104.1984
     -1779.5504
  -7712708.72847  -5999047.62246  24018439.3034   24018440.3594   24018440.0964
      -751.6314
 -11956977.11347  -9258043.06646  23230838.4784   23230838.4394   23230842.3144
      3252.0914
  -8585206.41047  -6679821.71446  23852348.8844   23852348.5024   23852352.0824
     -2179.1924
 -16697167.87848 -13005987.81047  21640828.7374   21640828.7034   21640831.4324
      2269.1634
  -3234461.53146  -2507804.25346  24441105.1364   24441103.0304   24441105.4254
      3405.6584
 -30143441.98349 -23422030.87048  19762963.8184   19762963.6084   19762966.3024
       -38.6574
  -8508333.43747  -6618951.18846  23724610.6604   23724610.3224   23724612.7774
      3194.8434
 -13059183.55148 -10172670.79047  22754993.2964   22754993.5284   22754994.5434
     -3343.0534
 -23308630.17549 -18123312.69648  20854298.5954   20854298.4804   20854301.5624
      -142.0224
 10  1  1  2 17 30.0000000  0 11G12G17G22G30G18G26G14G09G01G15G27
 -25961923.18749 -20171213.73148  20937446.3844   20937446.5514   20937448.3504
      1582.2034
 -14270604.15148 -11068251.04047  22779311.4804   22779311.3424   22779312.5874
     -1796.3964
  -7689900.05447  -5981274.66146  24022781.6794   24022779.6014   24022779.4764
      -768.2994
 -12054432.90447  -9333982.62946  23212293.2324   23212294.6334   23212297.3084
      3245.2784
  -8519663.31147  -6628749.18446  23864822.3864   23864822.6404   23864823.9834
     -2189.1464
 -16764973.55048 -13058823.39547  21627925.8464   21627925.9664   21627928.2644
      2251.9124
  -3336531.30047  -2587339.12646  24421681.8214   24421682.9694   24421684.6564
      3399.4154
 -30142044.10549 -23420941.61148  19763229.7684   19763229.5124   19763232.2274
       -53.8964
  -8604073.92747  -6693554.17846  23706391.4424   23706391.6424   23706395.2684
      3188.4414
 -12958748.99348 -10094410.10447  22774105.0574   22774105.9884   22774108.1124
     -3351.8134
 -23304225.86849 -18119880.76948  20855136.8164   20855136.4904   20855139.2384
      -151.0104
 10  1  1  2 18  0.0000000  0 11G12G17G22G30G18G26G14G09G01G15G27
 -26009191.87849 -20208046.46448  20928451.5454   20928451.6464   20928453.2874
      1568.9594
 -14216460.87548 -11026061.46947  22789614.4174   22789614.0704   22789615.9934
     -1813.2674
  -7666614.78147  -5963130.27846  24027209.5974   24027210.8594   24027210.9814
      -784.3564
 -12151696.75247  -9409772.63946  23193784.4764   23193785.4104   23193787.0654
      3238.8764
  -8453829.79247  -6577450.35246  23877348.8974   23877349.2384   23877351.9964
     -2199.6524
 -16832270.15448 -13111262.29947  21615119.8224   21615119.7254   21615122.2964
      2234.5854
  -3438421.93346  -2666734.42446  24402293.3964   24402291.8314   24402293.8804
      3393.0214
 -30140199.09349 -23419503.93248  19763580.7244   19763580.5134   19763583.1854
       -69.1254
  -8699633.41447  -6768016.11746  23688207.1094   23688208.3554   23688210.6734
      3182.3054
 -12858061.75848 -10015952.51747  22793265.5514   22793264.9764   22793268.1504
     -3360.6654
 -23299559.51649 -18116244.64948  20856024.7554   20856024.6454   20856027.2164
      -160.0614
 10  1  1  2 18 30.0000000  0 11G12G17G22G30G18G26G14G09G01G15G27
 -26056072.35449 -20244576.69448  20919530.4204   20919530.7324   20919532.2544
      1556.3254
 -14161826.43748 -10983489.17747  22800010.8794   22800010.4684   22800012.7734
     -1829.1404
  -7642853.87847  -5944615.33046  24031733.6544   24031731.8824   24031733.8194
      -799.7374
 -12248767.23947  -9485411.95846  23175312.1694   23175311.8724   23175315.6584
      3232.5904
  -8387708.63847  -6525927.37146  23889931.4604   23889930.9434   23889933.1554
     -2208.7584
 -16899054.81948 -13163302.30147  21602411.2224   21602411.5454   21602413.3674
      2217.8104
  -3540130.27447  -2745987.66846  24382938.3104   24382937.8544   24382941.1084
      3387.4244
 -30137905.82949 -23417716.96648  19764017.4034   19764017.0114   19764019.5974
       -83.7204
  -8795010.36747  -6842335.82447  23670057.7434   23670058.2444   23670061.0094
      3176.2494
 -12757123.83948  -9937299.60247  22812473.0284   22812473.5284   22812475.2244
     -3368.6574
 -23294630.16849 -18112403.60148  20856962.8464   20856962.5344   20856965.3224
      -168.5914
 10  1  1  2 19  0.0000000  0 11G12G17G22G30G18G26G14G09G01G15G27
 -26102563.23549 -20280803.34148  20910683.4894   20910683.8934   20910685.2634
      1543.1954
 -14106701.97248 -10940535.04447  22810500.5454   22810500.4674   22810502.6624
     -1845.6254
  -7618618.08047  -5925730.30046  24036345.0994   24036345.4154   24036345.5044
      -815.6314
 -12345642.34147  -9560899.03446  23156877.5204   23156877.9894   23156880.5614
      3225.8354
  -8321301.33547  -6474181.43046  23902569.1244   23902569.0904   23902570.9024
     -2218.2054
 -16965324.06048 -13214940.66447  21589800.6624   21589800.5694   21589803.0384
      2200.3624
  -3641652.88746  -2825096.18346  24363620.0704   24363620.1834   24363621.9334
      3381.2564
 -30135163.17449 -23415579.82648  19764539.2094   19764538.9664   19764541.4374
       -98.9904
  -8890203.03947  -6916511.93746  23651942.8494   23651943.0594   23651946.3474
      3170.1034
 -12655936.73848  -9858452.51147  22831728.6244   22831729.0924   22831730.3234
     -3377.0804
 -23289436.31349 -18108356.43948  20857951.0514   20857950.8554   20857953.7884
      -177.5714
 10  1  1  2 19 30.0000000  0 11G12G17G22G30G18G26G14G09G01G15G27
 -26148666.23649 -20316727.74848  20901910.4184   20901910.4694   20901912.1984
      1530.3374
 -14051090.87848 -10897201.72347  22821083.2294   22821083.6334   22821084.9034
     -1861.6344
  -7593910.61847  -5906477.73446  24041045.4084   24041043.7034   24041045.1114
      -831.0694
 -12442322.49248  -9636234.21046  23138480.2854   23138480.6644   23138482.8974
      3219.6754
  -8254612.79947  -6422216.34346  23915259.0174   23915259.0654   23915263.3304
     -2227.6604
 -17031077.10848 -13266176.80047  21577287.9254   21577287.9694   21577290.7084
      2183.1114
  -3742989.30246  -2904059.60746  24344334.2384   24344335.3084   24344337.6024
      3374.9304
 -30131972.23449 -23413093.37348  19765146.4084   19765146.3574   19765148.8364
      -113.7994
  -8985212.08747  -6990544.95047  23633862.9114   23633862.5914   23633866.4164
      3163.9574
 -12554504.40348  -9779414.33147  22851030.8154   22851030.9274   22851033.1094
     -3385.2294
 -23283978.92649 -18104103.92848  20858989.6994   20858989.3304   20858992.3944
      -186.1934
 10  1  1  2 20  0.0000000  0 11G12G17G22G30G18G26G14G09G01G15G27
 -26194380.94649 -20352349.59348  20893211.2354   20893211.2584   20893212.8864
      1517.2904
 -13994994.64448 -10853490.37447  22831757.8474   22831757.7834   22831759.2534
     -1877.9124
  -7568732.28347  -5886858.28746  24045836.6534   24045836.9184   24045838.3954
      -846.6634
 -12538806.42647  -9711416.49646  23120119.8914   23120119.1074   23120122.5514
      3213.0254
  -8187645.44647  -6370034.00946  23928002.6444   23928003.1554   23928005.3394
     -2237.0414
 -17096311.29248 -13317008.63747  21564874.3444   21564874.4884   21564877.0204
      2165.6864
  -3844136.32346  -2982875.47846  24325088.3524   24325088.5514   24325089.9004
      3368.7574
 -30128332.28749 -23410257.04848  19765839.0234   19765838.8414   19765841.3104
      -128.8664
  -9080036.19447  -7064433.85047  23615818.6874   23615819.8974   23615822.4644
      3157.6304
 -12452829.13948  -9700186.86347  22870378.7254   22870378.3354   22870381.1884
     -3393.2694
 -23278256.88149 -18099645.19448  20860078.6314   20860078.2034   20860081.0494
      -195.2194
 10  1  1  2 20 30.0000000  0 11G12G17G22G30G18G26G14G09G01G15G27
 -26239706.26849 -20387668.01648  20884586.1064   20884586.2274   20884587.5414
      1504.3454
 -13938414.43048 -10809401.89347  22842524.6444   22842525.2264   22842526.7644
     -1894.0474
  -7543084.62647  -5866873.09746  24050719.8964   24050716.7304   24050715.8114
      -862.7554
 -12635092.38248  -9786444.50746  23101797.4794   23101797.3754   23101800.6234
      3206.2704
  -8120401.45947  -6317636.11346  23940797.9074   23940799.0444   23940800.8454
     -2245.9894
 -17161023.12548 -13367433.43747  21552560.3864   21552560.9854   21552562.7264
      2148.1964
  -3945090.69347  -3061541.22846  24305877.1114   24305877.9504   24305879.2024
      3361.6314
 -30124241.69949 -23407069.57248  19766617.4124   19766617.3624   19766619.6504
      -143.8254
  -9174673.57947  -7138177.26747  23597810.4714   23597810.6884   23597812.7244
      3151.4894
 -12350912.38148  -9620771.21847  22889772.8734   22889773.2754   22889774.9504
     -3401.3504
 -23272268.66049 -18094979.04648  20861218.1044   20861217.9194   20861220.7904
      -204.1514
 10  1  1  2 21  0.0000000  0 11G12G17G22G30G18G26G14G09G01G15G27
 -26284642.81349 -20422683.49248  20876034.8524   20876034.9584   20876036.4144
      1491.0474
 -13881352.72248 -10764938.21747  22853383.2804   22853383.2894   22853384.4984
     -1910.3424
  -7516969.30447  -5846523.50346  24055686.0384   24055688.0004   24055689.9814
      -878.4104
 -12731179.96247  -9861317.92846  23083512.6384   23083512.7794   23083514.9214
      3199.2234
  -8052884.25347  -6265025.30746  23953646.5974   23953645.4644   23953648.6934
     -2255.3054
 -17225210.82148 -13417449.82347  21540345.5344   21540345.6854   21540347.5624
      2130.5534
  -4045850.65146  -3140055.45846  24286702.0984   24286701.2114   24286703.3544
      3355.0434
 -30119700.77349 -23403531.18048  19767481.6484   19767481.2334   19767483.8794
      -159.2504
  -9269123.77847  -7211774.85947  23579836.7644   23579837.8134   23579840.9634
      3144.7394
 -12248757.24048  -9541169.81247  22909212.4854   22909212.9444   22909215.6544
     -3409.4154
 -23266014.08049 -18090105.34548  20862408.2664   20862408.0364   20862410.8304
      -213.2424
 10  1  1  2 21 30.0000000  0 11G12G17G22G30G18G26G14G09G01G15G27
 -26329191.56349 -20457396.79348  20867557.7914   20867557.6444   20867559.0334
      1477.7524
 -13823812.67148 -10720101.81047  22864332.6214   22864333.4524   22864333.7564
     -1926.6154
  -7490389.06147  -5825811.64446  24060744.3984   24060744.0024   24060745.9424
      -894.4254
 -12827069.27348  -9936036.85646  23065265.7944   23065265.9424   23065269.1844
      3192.1634
  -7985098.03647  -6212204.89646  23966545.4714   23966545.1354   23966548.5894
     -2264.4914
 -17288872.95148 -13467056.67947  21528231.0194   21528231.1064   21528233.8984
      2112.5244
  -4146414.11147  -3218416.59146  24267567.7314   24267568.0144   24267571.0054
      3348.1644
 -30114710.04949 -23399642.30448  19768431.3684   19768431.1484   19768433.6744
      -174.5494
  -9363386.78347  -7285226.54947  23561899.3954   23561900.1974   23561902.6774
      3138.2324
 -12146367.18548  -9461385.35947  22928696.2144   22928697.0074   22928698.1084
     -3417.6944
 -23259493.56749 -18085024.42848  20863648.9114   20863648.8074   20863651.5774
      -222.6264
 10  1  1  2 22  0.0000000  0 11G12G17G22G30G18G26G14G09G01G15G27
 -26373350.67749 -20491806.48048  20859154.4554   20859154.3604   20859156.1054
      1465.5514
 -13765794.41048 -10674892.76847  22875373.2254   22875373.6994   22875374.9974
     -1941.8574
  -7463343.77947  -5804737.41946  24065893.0314   24065891.7624   24065892.3144
      -909.2254
 -12922757.24148 -10010598.88046  23047056.5334   23047056.3424   23047060.2824
      3186.1814
  -7917043.69247  -6159175.55546  23979496.1884   23979494.9024   23979499.9974
     -2272.7954
 -17352005.23348 -13516250.67447  21516217.4974   21516217.8344   21516220.0834
      2095.6814
  -4246776.91947  -3296621.39146  24248468.2184   24248466.0904   24248470.3524
      3342.1564
 -30109267.34649 -23395401.23248  19769466.8754   19769466.7864   19769469.2644
      -188.8714
  -9457460.27147  -7358530.55447  23543998.0654   23543998.0064   23544000.4244
      3132.4244
 -12043742.51848  -9381418.09547  22948225.4054   22948226.2614   22948227.9394
     -3424.6604
 -23252704.54249 -18079734.27448  20864941.0764   20864940.7344   20864943.4174
      -230.8134
 10  1  1  2 22 30.0000000  0 11G12G17G22G30G18G26G14G09G01G15G27
 -26417119.77249 -20525912.25548  20850825.3084   20850825.6754   20850826.8624
      1452.6344
 -13707299.43148 -10629312.25547  22886504.8594   22886504.5254   22886506.0984
     -1957.5764
  -7435834.78447  -5783301.86746  24071124.6184   24071125.0354   24071127.7744
      -924.5074
 -13018242.85748 -10085003.22046  23028886.1854   23028885.8384   23028889.5774
      3179.7874
  -7848724.10947  -6105939.51646  23992499.2744   23992497.7584   23992499.2394
     -2281.4314
 -17414605.35448 -13565029.98647  21504305.1414   21504305.1564   21504308.3064
      2078.0104
  -4346936.22847  -3374667.59346  24229409.1434   24229410.2844   24229410.1154
      3335.1704
 -30103372.16349 -23390807.58048  19770588.7374   19770588.6854   19770591.0764
      -203.8644
  -9551342.82447  -7431685.78347  23526132.7754   23526133.4344   23526135.4154
      3126.3534
 -11940885.80348  -9301270.01947  22967798.5094   22967799.4044   22967800.8854
     -3432.2384
 -23245646.24149 -18074234.29948  20866284.0784   20866283.6864   20866286.6494
      -239.5424
 10  1  1  2 23  0.0000000  0 11G12G17G22G30G18G26G14G09G01G15G27
 -26460500.01849 -20559715.03348  20842570.3434   20842570.3754   20842572.0494
      1439.3034
 -13648331.55848 -10583363.25447  22897725.3984   22897726.9464   22897727.8964
     -1973.7884
  -7407865.42147  -5761507.53946  24076451.1804   24076448.5724   24076449.3204
      -940.3974
 -13113526.29748 -10159250.04146  23010753.9134   23010754.6554   23010757.6454
      3172.4434
  -7780143.66347  -6052500.21546  24005547.5994   24005547.2984   24005549.7754
     -2290.5824
 -17476671.98348 -13613393.59347  21492493.9984   21492493.9854   21492496.4354
      2059.6214
  -4446891.03347  -3452554.45846  24210387.6844   24210388.0434   24210389.2224
      3328.0994
 -30097025.29249 -23385861.96348  19771796.5794   19771796.5274   19771798.8314
      -219.3234
  -9645034.93747  -7504692.61947  23508303.6834   23508303.6584   23508306.6944
      3119.6774
 -11837800.66848  -9220943.94947  22987414.7624   22987414.4764   22987416.9494
     -3440.2814
 -23238319.36449 -18068525.04548  20867678.3234   20867678.2254   20867680.9414
      -249.0214
 10  1  1  2 23 30.0000000  0 11G12G17G22G30G18G26G14G09G01G15G27
 -26503488.46449 -20593212.51448  20834390.0454   20834390.1264   20834391.4364
      1426.2634
 -13588888.84748 -10537044.25347  22909037.5394   22909037.4144   22909038.7084
     -1989.5494
  -7379433.52247  -5739352.89446  24081862.3404   24081860.9304   24081861.1824
      -955.8174
 -13208603.19948 -10233335.91747  22992661.9674   22992662.9234   22992664.7134
      3165.6354
  -7711301.74747  -5998857.15346  24018648.2584   24018648.1054   24018649.9804
     -2299.0384
 -17538199.41648 -13661337.05547  21480785.7914   21480786.0874   21480789.0934
      2041.8204
  -4546635.36647  -3530277.29646  24191407.1004   24191406.5794   24191409.5634
      3320.8984
 -30090222.88649 -23380561.38448  19773090.8764   19773090.7984   19773093.1684
      -234.4544
  -9738532.19847  -7577547.60747  23490511.0534   23490511.8284   23490514.0634
      3113.5424
 -11734485.89848  -9140438.94147  23007075.2054   23007075.7604   23007077.4814
     -3447.7244
 -23230719.57949 -18062603.13948  20869124.5414   20869124.2654   20869127.1894
      -257.9584
 10  1  1  2 24  0.0000000  0 11G12G17G22G30G18G26G14G09G01G15G27
 -26546092.33049 -20626410.32148  20826282.5794   20826282.6094   20826284.2254
      1413.3604
 -13528981.47248 -10490363.17847  22920437.0724   22920436.7344   22920439.6184
     -2004.8804
  -7350548.87347  -5716845.37846  24087357.4194   24087356.4644   24087357.5654
      -970.8394
 -13303480.34248 -10307266.12446  22974607.0474   22974607.5504   22974610.5224
      3159.0254
  -7642208.86647  -5945018.54646  24031795.5994   24031795.3244   24031799.7384
     -2307.6094
 -17599192.99648 -13708864.52347  21469179.1564   21469179.0084   21469181.3154
      2023.8374
  -4646173.96647  -3607839.81046  24172465.6034   24172464.7214   24172468.7674
      3313.9874
 -30082972.26849 -23374911.55048  19774470.8214   19774470.5134   19774473.1304
      -249.4834
  -9831841.36147  -7650256.04147  23472755.9034   23472755.5664   23472758.7624
      3106.9534
 -11630951.98948  -9059763.17447  23026776.8924   23026777.0524   23026779.5294
     -3455.1034
 -23222854.15849 -18056474.24448  20870621.1844   20870621.1794   20870623.9164
      -266.8974
 10  1  1  2 24 30.0000000  0 11G12G17G22G30G18G26G14G09G01G15G27
 -26588302.97849 -20659301.72448  20818250.2194   20818250.4014   20818251.8004
      1400.6514
 -13468602.53148 -10443314.65547  22931926.9624   22931927.1124   22931929.1854
     -2020.3424
  -7321204.43147  -5693979.58246  24092938.8674   24092940.4614   24092941.8684
      -985.4454
 -13398147.86248 -10381032.98747  22956592.7224   22956593.9534   22956596.1484
      3152.2934
  -7572859.57647  -5890980.13946  24044993.0954   24044992.0054   24044994.4624
     -2315.9354
 -17659641.93248 -13755967.59447  21457676.0814   21457675.7124   21457678.3914
      2005.9744
  -4745495.96447  -3685233.54146  24153565.7664   24153564.9384   24153568.0484
      3307.5494
 -30075264.35149 -23368905.38248  19775937.6324   19775937.4674   19775939.8644
      -264.4334
  -9924952.92747  -7722810.49047  23455036.6144   23455037.0814   23455039.3904
      3100.7754
 -11527192.76848  -8978911.83647  23046521.4984   23046521.5284   23046524.5004
     -3462.1474
 -23214713.64549 -18050130.98948  20872170.3404   20872170.0004   20872172.9104
      -275.7844
 10  1  1  2 25  0.0000000  0 11G12G17G22G30G18G26G14G09G01G15G27
 -26630122.63249 -20691888.45648  20810292.3294   20810292.4974   20810293.8774
      1387.3284
 -13407756.29948 -10395902.00247  22943505.7234   22943505.9924   22943507.3114
     -2036.1864
  -7291403.94747  -5670758.49346  24098613.9594   24098612.3154   24098611.9134
     -1001.0934
 -13492606.75748 -10454637.29247  22938617.1194   22938617.2654   22938620.0814
      3144.9894
  -7503258.69547  -5836745.67246  24058236.1374   24058235.5324   24058239.8294
     -2324.1594
 -17719545.50648 -13802645.70847  21446276.7944   21446277.0774   21446279.1294
      1987.6104
  -4844600.62747  -3762457.93246  24134707.4054   24134706.5024   24134708.0234
      3299.6044
 -30067100.31749 -23362543.79648  19777491.1184   19777490.9044   19777493.4454
      -280.0954
 -10017868.04947  -7795211.86747  23437356.0534   23437355.3854   23437358.9114
      3093.6494
 -11423212.28648  -8897888.08647  23066308.3854   23066308.9764   23066310.7664
     -3469.8754
 -23206299.25949 -18043574.32348  20873771.6764   20873771.6004   20873774.0524
      -285.0154
 10  1  1  2 25 30.0000000  0 11G12G17G22G30G18G26G14G09G01G15G27
 -26671556.11749 -20724174.27748  20802407.6844   20802408.0334   20802409.2034
      1374.1374
 -13346449.66648 -10348130.59547  22955172.0794   22955171.9654   22955173.8864
     -2051.7764
  -7261154.29647  -5647187.31746  24104368.1464   24104369.4454   24104368.9884
     -1016.1214
 -13586861.31048 -10528082.37347  22920681.1194   22920680.3254   22920683.7414
      3137.9464
  -7433414.60347  -5782321.73246  24071528.5704   24071526.0064   24071530.6104
     -2331.9914
 -17778906.84548 -13848901.29447  21434980.8694   21434980.6084   21434982.9264
      1969.0674
  -4943490.20847  -3839514.71746  24115887.8374   24115887.2714   24115888.8484
      3292.0104
 -30058485.37149 -23355830.84848  19779130.7414   19779130.5054   19779133.0464
      -295.2164
 -10110590.80948  -7867463.34047  23419710.9824   23419711.3564   23419714.5314
      3086.9444
 -11319018.45948  -8816698.10747  23086135.7054   23086136.3074   23086138.5814
     -3477.2804
 -23197615.55649 -18036807.80648  20875423.7314   20875423.5614   20875426.7484
      -294.5414
 10  1  1  2 26  0.0000000  0 11G12G17G22G30G18G26G14G09G01G15G27
 -26712598.75849 -20756155.54648  20794597.5234   20794597.6574   20794599.0544
      1361.8014
 -13284679.98148 -10299998.37547  22966926.3714   22966926.7184   22966927.3224
     -2066.5734
  -7230452.46447  -5623263.88046  24110211.9524   24110208.5254   24110209.8154
     -1030.5094
 -13680905.65648 -10601363.65947  22902785.2514   22902785.6914   22902789.0014
      3131.4734
  -7363325.59546  -5727706.92246  24084865.6264   24084863.7714   24084866.5754
     -2339.9684
 -17837718.74348 -13894728.75447  21423789.2474   21423789.7324   21423791.4314
      1951.3534
  -5042157.81347  -3916398.52346  24097112.2534   24097111.7614   24097114.5594
      3285.6714
 -30049414.37649 -23348762.54148  19780856.5234   19780856.4684   19780859.0944
      -309.9224
 -10203115.58547  -7939560.54447  23402104.0864   23402104.6004   23402106.8514
      3080.9794
 -11214608.90548  -8735340.02047  23106003.9854   23106004.5284   23106006.8114
     -3483.6404
 -23188657.02049 -18029827.12248  20877128.9554   20877128.8794   20877131.5044
      -302.8194
 10  1  1  2 26 30.0000000  0 11G12G17G22G30G18G26G14G09G01G15G27
 -26753251.67649 -20787833.12848  20786861.7004   20786861.4864   20786863.1024
      1347.8654
 -13222450.14348 -10251507.58147  22978767.9454   22978768.4114   22978769.8964
     -2082.5334
  -7199301.18447  -5598990.16546  24116135.9714   24116137.1104   24116137.6034
     -1046.3524
 -13774739.55448 -10674480.95247  22884929.7014   22884929.3534   22884932.7624
      3123.6684
  -7292995.02747  -5672903.87146  24098249.3554   24098248.7514   24098248.6704
     -2348.7414
 -17895979.67148 -13940126.87747  21412702.6654   21412702.3404   21412705.4384
      1932.0594
  -5140601.35347  -3993107.75346  24078379.1154   24078378.3344   24078381.5004
      3277.0104
 -30039887.67349 -23341339.13148  19782669.4444   19782669.3014   19782671.7154
      -325.8284
 -10295442.36047  -8011503.45647  23384534.7564   23384535.8154   23384538.7384
      3073.6124
 -11109986.55948  -8653816.11147  23125913.1544   23125913.3984   23125915.6934
     -3491.7554
 -23179423.64249 -18022632.28248  20878885.7454   20878885.5854   20878888.2064
      -313.1374
 10  1  1  2 27  0.0000000  0 11G12G17G22G30G18G26G14G09G01G15G27
 -26793515.36149 -20819207.41948  20779199.5694   20779199.6644   20779201.3314
      1335.5154
 -13159763.01748 -10202660.47247  22990697.0994   22990697.1364   22990699.0084
     -2097.0364
  -7167702.96947  -5574368.17146  24122150.7794   24122151.3304   24122153.1174
     -1060.7264
 -13868362.72348 -10747434.03047  22867113.5804   22867115.0164   22867117.0754
      3117.0114
  -7222426.56747  -5617915.43646  24111677.8164   24111676.2984   24111678.4234
     -2356.0664
 -17953688.02648 -13985094.42647  21401720.7554   21401720.9294   21401723.5874
      1914.3194
  -5238818.97747  -4069640.95146  24059689.0384   24059688.4254   24059691.1214
      3270.4024
 -30029905.44749 -23333560.77448  19784569.0004   19784568.8014   19784571.4264
      -340.3894
 -10387570.59347  -8083291.65047  23367002.9284   23367003.8124   23367006.0394
      3067.4824
 -11005154.72248  -8572128.96847  23145862.0134   23145862.2514   23145863.6984
     -3497.9524
 -23169915.34049 -18015223.21248  20880695.3114   20880695.2234   20880697.6964
      -321.6354
 10  1  1  2 27 30.0000000  0 11G12G17G22G30G18G26G14G09G01G15G27
 -26833389.38049 -20850278.07048  20771611.7554   20771611.6764   20771613.1074
      1322.4814
 -13096620.66148 -10153458.62447  23002712.8384   23002712.9974   23002715.1724
     -2112.5324
  -7135659.24847  -5549399.09646  24128248.1134   24128249.0004   24128248.7774
     -1075.8754
 -13961774.07848 -10820222.05647  22849337.9104   22849337.3314   22849341.8744
      3110.1114
  -7151623.24347  -5562744.02046  24125151.7024   24125150.3354   24125154.0104
     -2364.4394
 -18010841.39748 -14029629.51947  21390845.3734   21390844.7894   21390847.1624
      1895.6994
  -5336808.09647  -4145996.07146  24041042.4484   24041042.1044   24041044.3414
      3262.2694
 -30019467.35049 -23325427.19248  19786555.4324   19786555.1754   19786557.8804
      -355.7224
 -10479499.76947  -8154924.77447  23349509.9574   23349510.1124   23349512.9164
      3060.7944
 -10900115.73848  -8490280.41847  23165850.4224   23165850.7304   23165853.0414
     -3504.9894
 -23160131.56049 -18007599.49148  20882557.0554   20882556.9734   20882559.6144
      -330.8784
