     2.11           OBSERVATION DATA    M (MIXED)           RINEX VERSION / TYPE
teqc  2009Dec10                         20100105 00:30:10UTCPGM / RUN BY / DATE
ONSA                                                        MARKER NAME
10402M004                                                   MARKER NUMBER
SWEPOS              LMV                                     OBSERVER / AGENCY
AG72YY6YV40         JPS E_GGD           2.6.1 Jan,10,2008   REC # / TYPE / VERS
  3370658.8318   711876.9387  5349786.7450                  APPROX POSITION XYZ
        0.9950        0.0000        0.0000                  ANTENNA: DELTA H/E/N
     1     1                                                WAVELENGTH FACT L1/2
     7    C1    L1    L2    P1    P2    S1    S2            # / TYPES OF OBSERV
    30.0000                                                 INTERVAL
    15                                                      LEAP SECONDS
020                 AOAD/M_B        OSOD                    ANT # / TYPE
MSXP|IAx86-PII|bcc32 5.0|MSWin95->XP|486/DX+                COMMENT
teqc  2009Dec10                         20100104 01:00:04UTCCOMMENT
Forced Modulo Decimation to 30 seconds                      COMMENT
IMoS GFileSrv 3.52  Lantmäteriet        03.01.2010          COMMENT
  2010     1     4     0     0    0.0000000     GPS         TIME OF FIRST OBS
                                                            END OF HEADER
 10  1  4  0  0  0.0000000  0 15G08R08G22G28G15R19R10R09R17G18G27R07
                                R18G09G17
  23471882.635 6 123345593.024 6  96113459.85342  23471882.648 2  23471886.102 2
        41.000          24.000
  20872848.060 7 111773158.959 7  86934708.25847  20872847.387 7  20872848.926 7
        49.000          48.000
  24685392.294 6 129722610.547 6 101082572.57641  24685392.032 1  24685391.554 1
        40.000          19.000
  21610200.836 8 113562398.540 8  88490192.64345  21610199.991 5  21610201.943 5
        50.000          39.000
  20578352.099 8 108139981.054 8  84264938.64347  20578351.986 7  20578353.826 7
        52.000          45.000
  23742093.884 6 127004194.606 6  98781064.76645  23742093.804 6  23742094.652 5
        42.000          35.000
  22295142.616 7 118845668.782 7  92435553.07145  22295141.314 7  22295147.556 5
        47.000          37.000
  19316446.872 8 103148776.643 8  80226858.22042  19316446.369 8  19316454.372 2
        54.000          20.000
  22224624.638 6 118928469.748 6  92499964.80446  22224623.229 6  22224625.606 6
        44.000          42.000
  22923693.004 7 120464820.772 7  93868704.47343  22923691.794 3  22923693.849 3
        46.000          28.000
  22052316.149 7 115885728.249 7  90300593.73845  22052315.983 5  22052319.025 5
        49.000          37.000
  20900207.259 8 111880429.095 8  87018148.41146  20900206.029 7  20900205.272 6
        50.000          43.000
  21376275.503 7 114108021.719 7  88750724.16547  21376274.633 7  21376279.958 7
        49.000          45.000
  22191894.139 7 116619220.668 7  90872132.84644  22191893.888 4  22191896.739 4
        47.000          32.000
  23893496.798 6 125561181.981 6  97839897.72243  23893497.346 3  23893500.401 3
        43.000          25.000
 10  1  4  0  0 30.0000000  0 15G08R08G22G28G15R19R10R09R17G18G27R07
                                R18G09G17
  23490855.148 6 123445290.837 6  96191146.45342  23490854.396 2  23490856.711 2
        43.000          23.000
  20864991.642 8 111731086.798 8  86901985.47447  20864990.902 8  20864992.146 7
        50.000          48.000
  24670644.714 6 129645111.189 6 101022183.53042  24670644.742 2  24670644.181 2
        41.000          21.000
  21618285.309 8 113604881.566 8  88523296.29745  21618284.135 5  21618286.297 5
        51.000          39.000
  20581294.581 8 108155445.867 8  84276989.12847  20581294.939 7  20581296.896 7
        53.000          45.000
  23717193.026 6 126870990.292 6  98677461.36346  23717191.520 5  23717195.689 6
        40.000          40.000
  22275356.926 7 118740196.774 7  92353519.32945  22275355.023 7  22275360.763 5
        47.000          37.000
  19312635.121 8 103128422.070 8  80211027.30542  19312634.777 8  19312658.066 2
        53.000          20.000
  22234954.733 6 118983754.282 6  92542963.89946  22234953.633 6  22234956.702 6
        43.000          41.000
  22917978.690 7 120434793.327 7  93845306.46543  22917977.589 3  22917979.889 3
        46.000          29.000
  22040314.687 7 115822659.298 7  90251449.11345  22040314.362 5  22040317.710 5
        49.000          37.000
  20916339.769 7 111966787.971 7  87085316.38646  20916338.510 7  20916337.882 6
        49.000          43.000
  21364913.005 7 114047369.218 7  88703550.01947  21364912.296 7  21364917.442 7
        49.000          45.000
  22172324.011 7 116516380.946 7  90791998.02344  22172323.813 4  22172326.684 4
        47.000          32.000
  23875428.484 6 125466233.102 6  97765911.60443  23875428.322 3  23875431.198 3
        42.000          26.000
 10  1  4  0  1  0.0000000  0 15G08R08G22G28G15R19R10R09R17G18G27R07
                                R18G09G17
  23509855.825 6 123545145.031 6  96268954.88042  23509855.230 2  23509859.616 2
        43.000          24.000
  20857283.928 8 111689815.054 8  86869885.22047  20857283.524 7  20857284.627 7
        50.000          48.000
  24655968.418 6 129567984.793 6 100962085.03742  24655967.451 2  24655967.469 2
        41.000          21.000
  21626454.232 8 113647810.698 8  88556747.56845  21626453.458 5  21626455.433 5
        51.000          39.000
  20584342.155 8 108171459.393 8  84289467.18847  20584342.225 7  20584344.006 7
        54.000          45.000
  23692313.311 6 126737903.225 6  98573949.19945  23692312.750 6  23692315.880 5
        41.000          38.000
  22255606.825 7 118634923.022 7  92271639.76345  22255605.684 7  22255611.381 5
        47.000          37.000
  19308921.021 8 103108589.898 8  80195601.77142  19308920.744 8  19308928.521 2
        54.000          20.000
  22245427.188 6 119039791.228 6  92586548.18646  22245426.287 6  22245428.551 6
        44.000          41.000
  22912371.512 7 120405327.589 7  93822346.14243  22912370.903 3  22912372.184 3
        46.000          28.000
  22028359.103 8 115759831.925 8  90202492.71545  22028358.881 5  22028361.842 5
        50.000          38.000
  20932589.669 8 112053777.325 8  87152974.71746  20932589.007 7  20932588.188 6
        50.000          43.000
  21353690.035 7 113987458.239 7  88656952.59847  21353689.328 7  21353694.032 7
        49.000          45.000
  22152802.617 7 116413793.133 7  90712059.48644  22152802.398 4  22152804.771 4
        47.000          33.000
  23857404.430 6 125371512.456 6  97692103.34543  23857404.593 3  23857406.925 3
        44.000          26.000
 10  1  4  0  1 30.0000000  0 15G08R08G22G28G15R19R10R09R17G18G27R07
                                R18G09G17
  23528887.387 6 123645154.201 6  96346884.07843  23528887.445 3  23528891.614 3
        43.000          25.000
  20849726.074 8 111649346.031 8  86838409.31747  20849726.005 7  20849727.713 7
        50.000          48.000
  24641361.604 6 129491233.367 6 100902278.75742  24641361.333 2  24641362.309 2
        40.000          21.000
  21634707.685 8 113691184.329 8  88590545.20345  21634707.026 5  21634709.067 5
        50.000          39.000
  20587493.830 8 108188021.546 8  84302372.74547  20587493.824 7  20587495.653 7
        53.000          45.000
  23667456.007 6 126604937.871 6  98470531.57745  23667455.615 5  23667458.905 5
        40.000          36.000
  22235895.169 7 118529849.163 7  92189915.67545  22235894.264 7  22235900.372 5
        47.000          37.000
  19305305.548 8 103089280.587 8  80180583.32842  19305304.745 8  19305313.048 2
        53.000          20.000
  22256040.111 6 119096577.872 6  92630715.58146  22256038.401 6  22256039.923 6
        43.000          41.000
  22906871.932 7 120376424.553 7  93799824.29743  22906870.999 3  22906872.395 3
        47.000          28.000
  22016449.684 8 115697247.031 8  90153725.27545  22016449.199 5  22016452.315 5
        50.000          37.000
  20948956.817 7 112141393.269 7  87221120.41746  20948956.082 7  20948955.930 6
        49.000          43.000
  21342606.558 7 113928291.609 7  88610934.13047  21342605.439 7  21342609.964 7
        49.000          45.000
  22133329.180 7 116311459.272 7  90632318.83244  22133328.459 4  22133331.805 4
        47.000          33.000
  23839421.611 6 125277022.825 6  97618475.09043  23839423.485 3  23839426.362 3
        42.000          26.000
 10  1  4  0  2  0.0000000  0 15G08R08G22G28G15R19R10R09R17G18G27R07
                                R18G09G17
  23547946.958 6 123745316.770 6  96424932.80942  23547946.268 2  23547950.497 2
        42.000          23.000
  20842319.846 8 111609681.509 8  86807559.11347  20842319.266 7  20842320.504 7
        50.000          49.000
  24626829.790 6 129414859.291 6 100842766.47742  24626828.524 2  24626830.065 2
        42.000          21.000
  21643045.703 8 113735000.949 8  88624688.01445  21643045.099 5  21643047.032 5
        50.000          39.000
  20590750.192 8 108205132.078 8  84315705.60747  20590749.994 7  20590751.868 7
        53.000          45.000
  23642624.430 6 126472098.329 6  98367211.97245  23642623.681 6  23642627.136 5
        42.000          39.000
  22216221.582 7 118424976.265 7  92108347.88845  22216221.037 7  22216226.776 5
        48.000          38.000
  19301786.968 8 103070494.263 8  80165971.69042  19301786.737 8  19301794.468 2
        54.000          20.000
  22266791.646 6 119154111.800 6  92675464.19346  22266790.352 6  22266790.726 6
        44.000          40.000
  22901478.257 7 120348085.292 7  93777741.74743  22901477.692 3  22901478.973 3
        46.000          28.000
  22004587.248 7 115634905.324 7  90105147.33445  22004586.207 5  22004589.303 5
        49.000          37.000
  20965441.066 7 112229632.832 7  87289751.15346  20965440.106 7  20965439.544 6
        49.000          43.000
  21331662.161 8 113869872.095 8  88565496.74547  21331661.170 7  21331666.328 7
        50.000          46.000
  22113904.930 7 116209380.927 7  90552777.29544  22113903.868 4  22113906.693 4
        48.000          33.000
  23821487.112 6 125182767.252 6  97545029.23743  23821486.893 3  23821490.146 3
        42.000          26.000
 10  1  4  0  2 30.0000000  0 15G08R08G22G28G15R19R10R09R17G18G27R07
                                R18G09G17
  23567037.373 6 123845631.504 6  96503100.11242  23567036.737 2  23567039.767 2
        42.000          23.000
  20835063.415 8 111570823.644 8  86777336.31747  20835062.738 7  20835063.599 7
        50.000          48.000
  24612369.070 6 129338865.087 6 100783550.22942  24612367.779 2  24612368.779 2
        42.000          22.000
  21651468.065 8 113779259.117 8  88659174.90145  21651467.165 5  21651469.028 5
        51.000          39.000
  20594110.409 8 108222791.103 8  84329465.87147  20594110.367 7  20594112.302 7
        53.000          45.000
  23617815.035 6 126339389.012 6  98263993.58245  23617814.342 5  23617817.502 5
        40.000          38.000
  22196585.165 7 118320306.151 7  92026937.84845  22196584.887 7  22196590.641 5
        47.000          38.000
  19298367.196 8 103052230.853 8  80151766.93842  19298366.597 8  19298374.696 2
        53.000          20.000
  22277681.050 6 119212390.206 6  92720791.83046  22277680.036 6  22277682.230 6
        43.000          40.000
  22896193.355 7 120320310.801 7  93756099.28443  22896192.919 3  22896193.825 3
        47.000          29.000
  21992769.472 8 115572807.259 8  90056759.23445  21992769.075 5  21992772.120 5
        50.000          37.000
  20982040.726 7 112318491.953 7  87358863.78446  20982039.694 7  20982039.509 6
        49.000          43.000
  21320858.075 7 113812202.992 7  88520643.03247  21320857.787 7  21320862.581 7
        49.000          45.000
  22094528.823 7 116107559.754 7  90473436.16144  22094527.788 4  22094530.614 4
        48.000          33.000
  23803595.860 6 125088748.784 6  97471768.15043  23803596.032 3  23803598.910 3
        43.000          26.000
 10  1  4  0  3  0.0000000  0 15G08R08G22G28G15R19R10R09R17G18G27R07
                                R18G09G17
  23586156.241 6 123946097.472 6  96581385.23642  23586155.218 2  23586158.620 2
        43.000          24.000
  20827957.076 8 111532774.245 8  86747742.34147  20827957.282 7  20827958.740 7
        51.000          48.000
  24597979.460 6 129263253.087 6 100724631.75142  24597978.370 2  24597980.320 2
        42.000          22.000
  21659973.641 8 113823956.981 8  88694004.40145  21659972.931 5  21659974.619 5
        51.000          38.000
  20597574.931 8 108240998.307 8  84343653.28547  20597575.148 7  20597577.053 7
        54.000          45.000
  23593031.237 6 126206813.997 6  98160879.72845  23593030.954 6  23593035.284 5
        41.000          39.000
  22176988.225 7 118215840.007 7  91945686.44945  22176987.008 7  22176992.863 5
        47.000          38.000
  19295044.824 8 103034490.830 8  80137969.18142  19295044.364 8  19295052.324 2
        54.000          20.000
  22288710.987 6 119271410.485 6  92766696.49146  22288709.926 6  22288712.242 6
        44.000          40.000
  22891015.776 7 120293101.844 7  93734897.49243  22891015.143 3  22891016.709 3
        47.000          29.000
  21980998.925 8 115510953.605 8  90008561.57945  21980998.910 5  21981002.056 5
        50.000          38.000
  20998755.795 8 112407966.744 8  87428455.25746  20998754.496 7  20998754.171 6
        50.000          43.000
  21310195.994 7 113755286.634 7  88476374.76247  21310195.519 7  21310200.362 7
        49.000          45.000
  22075201.817 7 116005997.667 7  90394296.92044  22075201.479 4  22075204.169 4
        48.000          34.000
  23785749.623 6 124994970.423 6  97398694.11243  23785750.657 3  23785753.881 3
        43.000          26.000
 10  1  4  0  3 30.0000000  0 15G08R08G22G28G15R19R10R09R17G18G27R07
                                R18G09G17
  23605302.444 6 124046713.675 6  96659787.44242  23605301.721 2  23605304.832 2
        42.000          23.000
  20821003.406 8 111495535.538 8  86718778.88847  20821002.918 7  20821004.718 7
        50.000          48.000
  24583662.895 6 129188025.553 6 100666012.87242  24583663.048 2  24583664.729 2
        41.000          22.000
  21668562.700 8 113869093.223 8  88729175.50945  21668561.950 5  21668563.730 5
        51.000          38.000
  20601144.200 8 108259753.873 8  84358268.00247  20601144.132 7  20601146.040 7
        54.000          45.000
  23568275.085 6 126074377.822 6  98057873.80445  23568274.202 6  23568276.329 5
        42.000          38.000
  22157429.258 7 118111579.327 7  91864594.84445  22157428.135 7  22157433.655 5
        49.000          37.000
  19291820.951 8 103017274.248 8  80124578.55242  19291820.567 8  19291828.451 2
        53.000          20.000
  22299879.412 6 119331170.025 6  92813176.11346  22299878.119 6  22299879.852 6
        44.000          41.000
  22885945.878 7 120266459.583 7  93714137.28443  22885945.202 3  22885946.513 3
        45.000          29.000
  21969275.550 8 115449345.331 8  89960555.14245  21969275.143 5  21969278.129 5
        50.000          38.000
  21015584.441 7 112498053.596 7  87498522.77446  21015583.268 7  21015583.483 6
        48.000          44.000
  21299675.827 8 113699126.481 8  88432694.67347  21299674.634 7  21299679.640 7
        50.000          46.000
  22055924.421 7 115904696.726 7  90315361.15744  22055924.218 4  22055926.995 4
        48.000          33.000
  23767950.768 6 124901434.736 6  97325809.19343  23767951.407 3  23767954.055 3
        43.000          26.000
 10  1  4  0  4  0.0000000  0 15G08R08G22G28G15R19R10R09R17G18G27R07
                                R18G09G17
  23624477.507 6 124147478.082 6  96738305.15942  23624476.443 2  23624478.814 2
        42.000          22.000
  20814201.439 8 111459109.612 8  86690447.61047  20814200.969 8  20814202.276 7
        51.000          48.000
  24569422.270 6 129113184.731 6 100607695.36942  24569421.662 2  24569423.897 2
        41.000          22.000
  21677234.894 8 113914666.449 8  88764687.11045  21677234.359 5  21677236.056 5
        51.000          38.000
  20604817.444 8 108279057.383 8  84373309.68647  20604817.449 7  20604819.383 7
        53.000          45.000
  23543543.748 6 125942084.482 6  97954979.00245  23543542.472 6  23543545.911 5
        42.000          39.000
  22137909.221 7 118007525.423 7  91783664.04545  22137907.912 7  22137913.372 5
        48.000          37.000
  19288694.652 8 103000581.137 8  80111594.90642  19288694.178 8  19288702.152 2
        54.000          20.000
  22311183.417 6 119391665.877 6  92860228.41946  22311182.025 6  22311185.099 6
        42.000          41.000
  22880983.970 7 120240384.761 7  93693819.22643  22880982.939 3  22880984.819 3
        46.000          28.000
  21957599.212 7 115387982.906 7  89912740.26945  21957598.355 5  21957601.216 5
        49.000          37.000
  21032527.270 7 112588748.326 7  87569063.07946  21032526.002 7  21032525.915 6
        49.000          44.000
  21289296.924 8 113643725.078 8  88389604.71847  21289296.217 7  21289300.911 7
        50.000          46.000
  22036697.505 7 115803658.664 7  90236630.22344  22036697.391 4  22036699.763 4
        47.000          33.000
  23750199.434 6 124808144.756 6  97253115.71643  23750199.611 3  23750201.487 3
        43.000          27.000
 10  1  4  0  4 30.0000000  0 15G08R08G22G28G15R19R10R09R17G18G27R07
                                R18G09G17
  23643677.717 6 124248389.762 6  96816937.59242  23643677.791 2  23643682.855 2
        40.000          21.000
  20807550.564 8 111423497.903 8  86662749.61147  20807550.410 7  20807552.341 7
        50.000          48.000
  24555254.532 6 129038733.301 6 100549681.27842  24555254.426 2  24555255.268 2
        41.000          22.000
  21685990.301 7 113960675.102 7  88800538.01345  21685989.535 5  21685991.217 5
        49.000          38.000
  20608595.249 8 108298908.631 8  84388778.18247  20608595.051 7  20608597.044 7
        53.000          45.000
  23518839.599 6 125809938.571 6  97852198.87345  23518838.703 6  23518842.825 5
        42.000          39.000
  22118426.634 7 117903679.998 7  91702895.42245  22118426.535 7  22118432.375 5
        48.000          38.000
  19285666.273 8 102984411.756 8  80099018.61042  19285665.991 8  19285673.773 2
        53.000          20.000
  22322626.188 6 119452895.041 6  92907851.11746  22322624.742 6  22322627.241 6
        43.000          42.000
  22876129.619 7 120214878.276 7  93673944.02543  22876129.504 3  22876130.841 3
        46.000          28.000
  21945968.901 7 115326867.267 7  89865117.70145  21945968.386 5  21945971.441 5
        49.000          38.000
  21049582.249 7 112680048.202 7  87640074.04146  21049581.493 7  21049581.455 6
        49.000          43.000
  21279061.115 8 113589085.113 8  88347106.99247  21279060.435 7  21279065.137 7
        50.000          45.000
  22017521.789 7 115702885.566 7  90158105.73144  22017521.019 4  22017523.389 4
        49.000          33.000
  23732493.074 6 124715103.481 6  97180616.04143  23732493.217 3  23732496.245 3
        42.000          26.000
 10  1  4  0  5  0.0000000  0 15G08R08G22G28G15R19R10R09R17G18G27R07
                                R18G09G17
  23662909.502 6 124349446.972 6  96895683.44642  23662909.162 2  23662912.654 2
        41.000          20.000
  20801053.230 8 111388702.553 8  86635686.56047  20801052.822 8  20801054.434 7
        50.000          49.000
  24541160.727 6 128964673.234 6 100491972.14042  24541161.735 2  24541161.868 2
        42.000          22.000
  21694828.029 8 114007117.187 8  88836726.64945  21694827.388 5  21694829.005 5
        51.000          38.000
  20612476.948 8 108319307.670 8  84404673.52947  20612476.950 7  20612478.773 7
        53.000          45.000
  23494164.344 6 125677944.178 6  97749536.61045  23494164.355 6  23494167.705 5
        42.000          38.000
  22098985.309 7 117800043.837 7  91622289.54745  22098984.555 7  22098990.611 5
        48.000          38.000
  19282736.709 8 102968766.076 8  80086849.84642  19282736.442 8  19282744.209 2
        53.000          20.000
  22334204.584 6 119514854.849 6  92956042.08746  22334203.370 6  22334205.240 6
        43.000          41.000
  22871384.995 7 120189941.168 7  93654512.50143  22871384.099 3  22871385.408 3
        46.000          28.000
  21934385.807 7 115265999.034 7  89817687.91445  21934385.465 5  21934388.467 5
        49.000          38.000
  21066749.842 7 112771948.227 7  87711551.80246  21066749.218 7  21066749.375 6
        49.000          43.000
  21268968.167 8 113535209.589 8  88305203.82747  21268967.444 7  21268972.403 7
        50.000          46.000
  21998395.302 7 115602379.120 7  90079789.05344  21998394.647 4  21998397.832 4
        47.000          33.000
  23714836.665 6 124622313.753 6  97108312.36743  23714835.831 3  23714838.542 3
        44.000          26.000
 10  1  4  0  5 30.0000000  0 15G08R08G22G28G15R19R10R09R17G18G27R07
                                R18G09G17
  23682168.129 6 124450648.052 6  96974541.42342  23682168.120 2  23682170.336 2
        40.000          21.000
  20794708.106 8 111354725.006 8  86609259.57247  20794707.601 8  20794709.222 7
        50.000          48.000
  24527145.067 6 128891006.578 6 100434569.56442  24527143.808 2  24527143.646 2
        43.000          23.000
  21703747.419 8 114053991.374 8  88873251.99745  21703746.959 5  21703748.958 5
        50.000          38.000
  20616462.668 8 108340254.083 8  84420995.39547  20616462.838 7  20616464.789 7
        53.000          45.000
  23469518.327 6 125546105.744 6  97646995.61545  23469518.393 6  23469521.723 5
        41.000          39.000
  22079583.509 7 117696619.036 7  91541848.04845  22079582.877 7  22079587.956 5
        48.000          38.000
  19279904.913 8 102953644.519 8  80075088.55342  19279904.506 8  19279912.413 2
        53.000          20.000
  22345919.695 6 119577542.470 6  93004799.11546  22345918.162 6  22345919.615 6
        43.000          41.000
  22866747.576 7 120165574.162 7  93635525.21643  22866747.026 3  22866749.001 3
        46.000          28.000
  21922850.568 8 115205378.872 8  89770451.43645  21922849.883 5  21922853.019 5
        50.000          38.000
  21084029.343 7 112864445.084 7  87783493.74446  21084028.455 7  21084028.360 6
        49.000          43.000
  21259018.855 7 113482101.278 7  88263897.38447  21259018.520 7  21259023.403 7
        49.000          45.000
  21979321.155 7 115502141.198 7  90001681.61244  21979320.264 4  21979323.269 4
        48.000          34.000
  23697227.537 6 124529778.807 6  97036207.23943  23697227.179 3  23697229.726 3
        41.000          26.000
 10  1  4  0  6  0.0000000  0 15G08R08G22G28G15R19R10R09R17G18G27R07
                                R18G09G17
  23701453.528 5 124551992.183 5  97053510.85442  23701453.083 2  23701456.347 2
        39.000          20.000
  20788516.037 8 111321567.372 8  86583470.30147  20788515.893 8  20788517.391 7
        51.000          49.000
  24513200.000 6 128817735.878 6 100377475.51742  24513199.540 2  24513200.357 2
        41.000          22.000
  21712749.564 8 114101296.091 8  88910112.80545  21712748.686 5  21712750.796 5
        51.000          38.000
  20620552.673 8 108361747.400 8  84437743.41747  20620552.787 7  20620554.816 7
        53.000          45.000
  23444903.520 6 125414427.361 6  97544579.10645  23444902.696 6  23444906.324 5
        42.000          39.000
  22060221.616 7 117593406.739 7  91461571.82145  22060220.207 7  22060225.278 5
        48.000          38.000
  19277171.235 8 102939046.803 8  80063734.69342  19277170.741 8  19277178.735 2
        54.000          20.000
  22357769.654 6 119640955.309 6  93054120.21046  22357768.420 6  22357770.774 6
        44.000          42.000
  22862219.683 7 120141778.151 7  93616982.86343  22862218.837 3  22862220.293 3
        47.000          29.000
  21911362.347 8 115145007.395 8  89723408.72845  21911361.715 5  21911364.520 5
        51.000          38.000
  21101419.537 7 112957535.085 7  87855897.01746  21101418.500 7  21101418.608 6
        49.000          43.000
  21249213.901 7 113429762.509 7  88223189.46147  21249213.537 7  21249218.526 7
        49.000          46.000
  21960297.216 7 115402173.593 7  89923784.79944  21960297.410 4  21960300.084 4
        48.000          34.000
  23679667.906 6 124437501.067 6  96964302.50743  23679667.128 3  23679670.280 3
        43.000          26.000
 10  1  4  0  6 30.0000000  0 15G08R08G22G28G15R19R10R09R17G18G27R07
                                R18G09G17
  23720764.423 6 124653477.834 6  97132590.54741  23720764.703 1  23720768.291 1
        40.000          18.000
  20782477.570 8 111289231.468 8  86558320.15447  20782477.282 8  20782478.769 7
        50.000          48.000
  24499333.569 6 128744863.363 6 100320691.72542  24499333.162 2  24499333.179 2
        43.000          22.000
  21721832.284 8 114149029.823 8  88947307.92745  21721832.035 5  21721834.112 5
        50.000          38.000
  20624746.923 8 108383788.321 8  84454918.14447  20624747.043 7  20624749.047 7
        53.000          45.000
  23420317.567 6 125282913.723 6  97442290.77145  23420316.960 6  23420320.420 5
        41.000          39.000
  22040898.559 7 117490408.321 7  91381461.99045  22040898.042 7  22040903.306 5
        48.000          38.000
  19274535.950 8 102924973.348 8  80052788.54642  19274535.473 8  19274543.450 2
        54.000          20.000
  22369755.106 6 119705090.024 6  93104002.74746  22369754.059 6  22369755.096 6
        43.000          41.000
  22857800.491 7 120118554.034 7  93598886.14943  22857799.234 3  22857800.686 3
        45.000          29.000
  21899921.174 7 115084885.293 7  89676560.33645  21899920.890 5  21899923.527 5
        49.000          38.000
  21118919.549 7 113051214.011 7  87928758.34046  21118918.435 7  21118918.429 6
        48.000          43.000
  21239553.618 7 113378195.854 7  88183082.09147  21239552.829 7  21239558.724 7
        49.000          46.000
  21941326.240 7 115302478.406 7  89846100.26944  21941325.490 4  21941328.384 4
        47.000          34.000
  23662156.409 6 124345483.893 6  96892600.83543  23662156.932 3  23662159.587 3
        42.000          26.000
 10  1  4  0  7  0.0000000  0 15G08R08G22G28G15R19R10R09R17G18G27R07
                                R18G09G17
  23740104.770 6 124755103.905 6  97211779.67441  23740104.648 1  23740107.030 1
        41.000          19.000
  20776593.153 8 111257718.607 8  86533810.14547  20776592.571 8  20776594.086 7
        50.000          49.000
  24485542.163 6 128672391.354 6 100264220.06242  24485542.308 2  24485541.170 2
        40.000          21.000
  21730997.314 8 114197190.646 8  88984835.84545  21730996.604 5  21730998.854 5
        51.000          39.000
  20629045.499 8 108406376.369 8  84472519.19847  20629045.510 7  20629047.379 7
        53.000          45.000
  23395765.072 6 125151569.073 6  97340133.82546  23395764.087 6  23395767.441 6
        42.000          40.000
  22021616.409 7 117387625.010 7  91301519.41545  22021616.036 7  22021621.329 5
        49.000          38.000
  19271998.474 8 102911423.993 8  80042250.74842  19271997.944 8  19272081.166 2
        54.000          20.000
  22381873.447 6 119769943.941 6  93154444.68446  22381872.663 6  22381875.175 6
        43.000          41.000
  22853489.897 7 120095902.436 7  93581235.55043  22853488.982 3  22853490.539 3
        46.000          29.000
  21888527.936 7 115025013.241 7  89629906.78845  21888527.462 5  21888530.445 5
        49.000          38.000
  21136529.090 7 113145477.491 7  88002074.34546  21136527.813 7  21136527.625 6
        49.000          42.000
  21230038.331 7 113327404.542 7  88143577.75347  21230037.700 7  21230043.717 7
        49.000          46.000
  21922407.133 7 115203057.287 7  89768629.29944  21922406.187 4  21922408.968 4
        49.000          34.000
  23644696.979 6 124253729.850 6  96821104.19043  23644696.930 3  23644699.306 3
        43.000          26.000
 10  1  4  0  7 30.0000000  0 15G08R08G22G28G15R19R10R09R17G18G27R07
                                R18G09G17
  23759469.210 6 124856869.201 6  97291077.26042  23759469.537 2  23759471.762 2
        41.000          21.000
  20770862.169 8 111227030.867 8  86509941.91247  20770861.702 8  20770863.437 7
        50.000          48.000
  24471827.262 6 128600322.076 6 100208062.19342  24471828.278 2  24471827.040 2
        42.000          21.000
  21740242.948 8 114245776.994 8  89022695.33645  21740242.579 5  21740244.636 5
        50.000          39.000
  20633448.035 8 108429511.066 8  84490546.22147  20633448.046 7  20633449.873 7
        53.000          45.000
  23371242.511 6 125020397.553 6  97238111.53545  23371242.209 6  23371246.757 5
        41.000          39.000
  22002375.201 7 117285058.580 7  91221745.53345  22002374.802 7  22002380.194 5
        48.000          37.000
  19269559.308 8 102898398.643 8  80032119.31342  19269558.775 8  19269566.808 2
        54.000          20.000
  22394127.115 6 119835514.073 6  93205443.67646  22394126.445 6  22394127.999 6
        43.000          41.000
  22849288.203 7 120073824.175 7  93564031.70543  22849287.948 3  22849289.156 3
        45.000          29.000
  21877182.811 8 114965392.029 8  89583448.71445  21877182.187 5  21877184.865 5
        50.000          38.000
  21154247.587 7 113240323.225 7  88075843.19146  21154245.954 7  21154245.810 6
        48.000          43.000
  21220669.770 8 113277390.788 8  88104678.18247  21220669.183 7  21220674.123 7
        50.000          46.000
  21903540.233 7 115103912.203 7  89691373.41844  21903539.798 4  21903542.701 4
        48.000          34.000
  23627287.017 6 124162242.162 6  96749815.08843  23627286.954 3  23627290.232 3
        43.000          27.000
 10  1  4  0  8  0.0000000  0 15G08R08G22G28G15R19R10R09R17G18G27R07
                                R18G09G17
  23778861.229 6 124958772.583 6  97370482.43941  23778860.427 1  23778864.775 1
        40.000          19.000
  20765285.607 8 111197169.563 8  86486716.44547  20765285.309 8  20765287.018 7
        50.000          49.000
  24458190.257 6 128528657.843 6 100152219.94242  24458190.471 2  24458189.389 2
        40.000          20.000
  21749569.655 8 114294787.398 8  89060885.25645  21749569.043 5  21749570.770 5
        51.000          38.000
  20637954.192 8 108453191.910 8  84508998.80747  20637954.390 7  20637956.179 7
        53.000          45.000
  23346755.990 6 124889403.678 6  97136227.40946  23346754.727 6  23346758.379 6
        42.000          40.000
  21983175.236 7 117182710.494 7  91142141.48545  21983174.924 7  21983180.609 5
        49.000          38.000
  19267218.050 8 102885897.868 8  80022396.50542  19267217.718 8  19267302.010 2
        53.000          20.000
  22406514.810 6 119901797.411 6  93256997.37546  22406513.093 6  22406514.391 6
        43.000          41.000
  22845195.435 7 120052320.002 7  93547275.19643  22845195.094 3  22845197.414 3
        45.000          29.000
  21865885.151 8 114906022.402 8  89537186.66845  21865884.366 5  21865887.181 5
        50.000          38.000
  21172072.762 7 113335746.820 7  88150061.48746  21172071.690 7  21172071.821 6
        48.000          43.000
  21211446.536 8 113228156.931 8  88066385.19747  21211445.677 7  21211450.941 7
        50.000          46.000
  21884726.101 7 115005044.910 7  89614333.99345  21884725.944 5  21884728.807 5
        48.000          35.000
  23609930.319 6 124071023.636 6  96678735.74043  23609929.170 3  23609931.621 3
        44.000          27.000
 10  1  4  0  8 30.0000000  0 15G08R08G22G28G15R19R10R09R17G18G27R07
                                R18G09G17
  23798278.745 6 125060812.209 6  97449993.82541  23798277.973 1  23798281.571 1
        41.000          19.000
  20759864.079 8 111168136.316 8  86464135.02547  20759863.727 7  20759865.085 7
        51.000          49.000
  24444631.331 6 128457400.808 6 100096694.94841  24444631.385 1  24444629.237 1
        41.000          19.000
  21758976.618 8 114344220.108 8  89099404.24845  21758975.937 5  21758977.544 5
        51.000          38.000
  20642564.729 8 108477418.792 8  84527876.89047  20642564.640 7  20642566.447 7
        53.000          45.000
  23322300.868 6 124758591.807 6  97034484.81545  23322300.944 6  23322304.108 5
        42.000          39.000
  21964017.169 7 117080582.002 7  91062708.21445  21964015.824 7  21964021.131 5
        49.000          38.000
  19264975.377 8 102873921.375 8  80013081.60842  19264974.906 8  19264982.877 2
        54.000          20.000
  22419033.633 6 119968791.098 6  93309103.58246  22419032.557 6  22419033.732 6
        43.000          40.000
  22841213.321 7 120031390.733 7  93530966.65843  22841212.724 3  22841214.319 3
        45.000          29.000
  21854635.092 7 114846905.261 7  89491121.38145  21854634.616 5  21854637.717 5
        49.000          38.000
  21190005.823 7 113431744.359 7  88224726.17846  21190005.321 7  21190005.087 6
        48.000          42.000
  21202370.051 8 113179705.624 8  88028700.86847  21202369.248 7  21202374.415 7
        50.000          46.000
  21865965.688 7 114906457.409 7  89537512.59545  21865965.421 5  21865968.305 5
        48.000          35.000
  23592622.886 6 123980077.076 6  96607868.30743  23592622.749 3  23592625.883 3
        42.000          27.000
 10  1  4  0  9  0.0000000  0 15G08R08G22G28G15R19R10R09R17G18G27R07
                                R18G09G17
  23817721.147 6 125162986.827 6  97529610.37541  23817719.651 1  23817723.822 1
        40.000          19.000
  20754596.935 8 111139932.381 8  86442198.63347  20754596.904 8  20754598.249 7
        51.000          48.000
  24431149.534 6 128386553.213 6 100041489.09141  24431149.136 1  24431148.304 1
        41.000          19.000
  21768463.712 8 114394073.538 8  89138251.07145  21768462.791 5  21768464.726 5
        51.000          39.000
  20647278.304 8 108502191.423 8  84547180.23947  20647278.617 7  20647280.553 7
        53.000          45.000
  23297882.503 6 124627966.284 6  96932887.19545  23297882.428 6  23297884.147 5
        42.000          39.000
  21944899.663 7 116978674.307 7  90983446.69245  21944898.486 7  21944903.089 5
        49.000          38.000
  19262830.738 8 102862469.226 8  80004174.33342  19262830.254 8  19262838.238 2
        54.000          20.000
  22431684.887 6 120036491.875 6  93361759.75146  22431684.117 6  22431686.585 6
        43.000          41.000
  22837340.451 7 120011037.178 7  93515106.74343  22837339.456 3  22837341.944 3
        46.000          29.000
  21843433.783 8 114788041.172 8  89445253.27445  21843433.340 5  21843436.113 5
        50.000          39.000
  21208046.306 7 113528310.826 7  88299833.38646  21208044.892 7  21208044.417 6
        49.000          43.000
  21193440.714 8 113132039.260 8  87991627.05147  21193440.170 7  21193444.662 7
        50.000          46.000
  21847258.565 7 114808151.412 7  89460910.54345  21847258.574 5  21847261.317 5
        48.000          35.000
  23575367.180 6 123889405.412 6  96537215.07943  23575368.171 3  23575370.982 3
        43.000          27.000
 10  1  4  0  9 30.0000000  0 15G08R08G22G28G15R19R10R09R17G18G27R07
                                R18G09G17
  23837191.028 6 125265295.284 6  97609331.20542  23837189.171 2  23837193.866 2
        42.000          20.000
  20749485.561 8 111112559.674 8  86420908.74447  20749485.189 7  20749486.370 7
        50.000          48.000
  24417744.466 6 128316117.368 6  99986604.03142  24417743.477 1  24417744.260 2
        40.000          20.000
  21778030.001 8 114444346.318 8  89177424.67445  21778029.186 5  21778031.204 5
        51.000          38.000
  20652096.870 8 108527509.736 8  84566908.78046  20652096.461 7  20652098.386 6
        52.000          44.000
  23273499.761 6 124497531.497 6  96831437.92145  23273498.776 6  23273501.426 5
        42.000          39.000
  21925823.280 7 116876989.160 7  90904358.27845  21925822.429 7  21925827.491 5
        49.000          38.000
  19260784.382 8 102851541.505 8  79995675.41942  19260783.873 8  19260875.657 2
        54.000          20.000
  22444468.627 6 120104896.904 6  93414963.66546  22444467.527 6  22444468.983 6
        43.000          40.000
  22833576.747 7 119991259.764 7  93499695.75743  22833576.125 3  22833577.446 3
        46.000          29.000
  21832280.264 8 114729430.786 8  89399582.84945  21832279.971 5  21832282.827 5
        50.000          38.000
  21226190.632 7 113625443.601 7  88375381.05546  21226189.955 7  21226189.700 6
        48.000          43.000
  21184658.802 8 113085160.340 8  87955165.68047  21184657.977 7  21184662.393 7
        50.000          46.000
  21828605.934 7 114710129.249 7  89384529.66245  21828605.677 5  21828607.980 5
        48.000          35.000
  23558166.638 6 123799011.361 6  96466778.15843  23558167.129 3  23558169.639 3
        44.000          28.000
 10  1  4  0 10  0.0000000  0 15G08R08G22G28G15R19R10R09R17G18G27R07
                                R18G09G17
  23856684.493 6 125367736.200 6  97689155.25442  23856683.529 2  23856686.940 2
        41.000          20.000
  20744529.778 8 111086019.434 8  86400266.33347  20744529.380 8  20744530.805 7
        51.000          49.000
  24404422.196 6 128246095.452 6  99932041.46542  24404420.772 2  24404420.269 2
        43.000          21.000
  21787675.665 8 114495036.349 8  89216923.40645  21787675.319 5  21787677.113 5
        51.000          38.000
  20657017.926 8 108553373.066 8  84587062.01347  20657018.104 7  20657019.941 7
        53.000          45.000
  23249153.319 6 124367291.795 6  96730140.41745  23249151.846 6  23249154.319 5
        43.000          39.000
  21906789.245 7 116775528.193 7  90825444.21645  21906788.445 7  21906794.094 5
        49.000          39.000
  19258836.116 8 102841138.354 8  79987583.43842  19258835.699 8  19258843.616 2
        53.000          20.000
  22457382.356 6 120174002.826 6  93468712.71146  22457381.450 6  22457382.589 6
        43.000          40.000
  22829923.171 7 119972059.174 7  93484734.25143  22829922.496 3  22829924.082 3
        46.000          29.000
  21821175.649 8 114671074.795 8  89354110.65545  21821175.173 5  21821177.926 5
        51.000          38.000
  21244441.124 7 113723137.563 7  88451365.19646  21244439.905 7  21244439.499 6
        48.000          42.000
  21176024.503 8 113039071.312 8  87919318.68247  21176023.971 7  21176029.271 7
        50.000          46.000
  21810007.085 7 114612392.320 7  89308371.02745  21810006.752 5  21810009.013 5
        49.000          35.000
  23541019.245 6 123708898.216 6  96396560.15043  23541019.552 3  23541021.769 3
        44.000          28.000
 10  1  4  0 10 30.0000000  0 15G08R08G22G28G15R19R10R09R17G18G27R07
                                R18G09G17
  23876203.303 6 125470308.042 6  97769081.35042  23876202.320 2  23876205.810 2
        40.000          20.000
  20739728.988 8 111060313.227 8  86380272.61447  20739728.703 8  20739730.020 7
        51.000          48.000
  24391174.729 6 128176489.682 6  99877803.22042  24391175.127 2  24391174.962 2
        41.000          21.000
  21797401.213 8 114546142.379 8  89256746.29945  21797400.390 5  21797401.941 5
        52.000          37.000
  20662043.214 8 108579781.123 8  84607639.70646  20662043.457 6  20662045.341 6
        53.000          44.000
  23224844.107 6 124237251.740 6  96628998.13445  23224842.702 6  23224844.214 5
        43.000          38.000
  21887797.618 7 116674292.465 7  90746705.36845  21887796.936 7  21887802.104 5
        49.000          39.000
  19256986.134 8 102831259.522 8  79979899.98342  19256985.838 8  19256993.634 2
        53.000          20.000
  22470426.916 6 120243806.605 6  93523004.51946  22470425.642 6  22470426.726 6
        43.000          40.000
  22826379.898 7 119953436.123 7  93470222.77643  22826378.561 3  22826379.516 3
        46.000          29.000
  21810119.718 8 114612973.855 8  89308837.20445  21810119.037 5  21810121.721 5
        51.000          39.000
  21262795.084 7 113821389.103 7  88527783.01146  21262794.118 7  21262794.139 6
        48.000          43.000
  21167539.778 8 112993774.891 8  87884088.15947  21167538.800 7  21167542.539 7
        50.000          46.000
  21791463.218 7 114514942.648 7  89232436.22545  21791462.334 5  21791465.454 5
        48.000          35.000
  23523925.729 6 123619068.830 6  96326563.25043  23523925.320 3  23523927.145 3
        44.000          28.000
 10  1  4  0 11  0.0000000  0 15G08R08G22G28G15R19R10R09R17G18G27R07
                                R18G09G17
  23895747.479 6 125573010.100 6  97849108.88342  23895746.499 2  23895749.518 2
        42.000          22.000
  20735084.486 8 111035442.355 8  86360928.59647  20735083.957 8  20735085.400 7
        51.000          49.000
  24378008.760 6 128107302.429 6  99823891.08242  24378008.161 2  24378008.837 2
        41.000          20.000
  21807204.917 8 114597662.360 8  89296891.74145  21807204.365 5  21807206.124 5
        51.000          38.000
  20667171.923 8 108606733.446 8  84628641.50547  20667172.214 7  20667174.243 7
        52.000          45.000
  23200571.880 6 124107415.393 6  96528014.35946  23200571.168 6  23200573.400 6
        44.000          40.000
  21868848.414 7 116573283.608 7  90668142.95845  21868847.764 7  21868852.257 5
        49.000          38.000
  19255234.437 8 102821905.346 8  79972624.52342  19255233.965 8  19255241.937 2
        53.000          20.000
  22483601.350 6 120314304.835 6  93577836.48046  22483599.890 6  22483601.409 6
        43.000          40.000
  22822946.304 7 119935391.215 7  93456161.81043  22822945.351 3  22822946.427 3
        47.000          29.000
  21799112.244 8 114555128.584 8  89263762.96645  21799111.378 5  21799114.343 5
        50.000          39.000
  21281252.824 7 113920194.933 7  88604631.94646  21281251.765 7  21281251.999 6
        48.000          42.000
  21159202.614 8 112949272.543 8  87849475.23847  21159201.778 7  21159206.761 7
        50.000          47.000
  21772973.974 7 114417781.832 7  89156726.51845  21772973.561 5  21772976.265 5
        48.000          35.000
  23506886.829 6 123529525.735 6  96256789.42043  23506885.902 3  23506888.118 3
        44.000          28.000
 10  1  4  0 11 30.0000000  0 15G08R08G22G28G15R19R10R09R17G18G27R07
                                R18G09G17
  23915315.042 6 125675840.818 6  97929236.71142  23915313.836 2  23915317.529 2
        41.000          21.000
  20730595.772 8 111011408.142 8  86342235.31647  20730595.769 7  20730596.996 7
        50.000          48.000
  24364924.077 6 128038535.668 6  99770306.58642  24364922.946 2  24364923.544 2
        42.000          20.000
  21817087.130 7 114649594.736 7  89337358.53845  21817086.739 5  21817088.495 5
        49.000          38.000
  20672404.656 8 108634229.759 8  84650067.19347  20672404.741 7  20672406.559 7
        52.000          45.000
  23176339.727 6 123977787.505 6  96427192.70745  23176338.134 6  23176340.544 5
        43.000          39.000
  21849942.327 7 116472502.924 7  90589758.00945  21849941.347 7  21849946.476 5
        49.000          38.000
  19253580.823 8 102813075.515 8  79965757.30042  19253580.436 8  19253674.975 2
        53.000          20.000
  22496904.908 6 120385494.800 6  93633206.45146  22496903.884 6  22496905.427 6
        44.000          40.000
  22819621.244 7 119917925.300 7  93442552.01443  22819620.969 3  22819623.028 3
        46.000          29.000
  21788153.541 8 114497539.872 8  89218888.65445  21788152.836 5  21788155.413 5
        50.000          39.000
  21299813.618 7 114019550.285 7  88681908.26646  21299812.395 7  21299812.304 6
        48.000          42.000
  21151014.600 8 112905567.450 8  87815482.41847  21151014.046 7  21151018.825 7
        50.000          46.000
  21754540.239 7 114320912.093 7  89081243.62745  21754539.812 5  21754542.463 5
        49.000          35.000
  23489902.001 6 123440272.148 6  96187241.17943  23489901.170 3  23489903.427 3
        44.000          28.000
 10  1  4  0 12  0.0000000  0 15G08R08G22G28G15R19R10R09R17G18G27R07
                                R18G09G17
  23934906.755 6 125778799.011 6  98009463.83542  23934906.713 2  23934909.910 2
        41.000          21.000
  20726264.267 8 110988211.704 8  86324193.64147  20726263.725 7  20726265.085 7
        51.000          48.000
  24351917.930 6 127970191.321 6  99717051.24342  24351917.099 1  24351917.205 2
        42.000          20.000
  21827047.728 8 114701938.031 8  89378145.52645  21827047.343 5  21827048.752 5
        50.000          38.000
  20677740.651 8 108662269.829 8  84671916.58447  20677740.500 7  20677742.558 7
        52.000          45.000
  23152145.964 6 123848372.293 6  96326536.43145  23152144.504 6  23152147.351 5
        43.000          39.000
  21831078.883 7 116371951.810 7  90511551.63445  21831078.147 7  21831083.808 5
        49.000          39.000
  19252025.432 8 102804769.996 8  79959296.80242  19252025.118 8  19252032.932 2
        54.000          20.000
  22510336.426 6 120457373.182 6  93689111.84346  22510335.682 6  22510337.208 6
        44.000          40.000
  22816408.849 7 119901038.463 7  93429393.43243  22816407.417 3  22816409.320 3
        47.000          29.000
  21777243.753 8 114440208.370 8  89174214.74745  21777243.035 5  21777245.752 5
        50.000          39.000
  21318475.301 7 114119450.843 7  88759608.64146  21318474.593 7  21318474.983 6
        47.000          42.000
  21142976.752 8 112862660.915 8  87782110.69047  21142976.081 7  21142981.214 7
        50.000          46.000
  21736162.517 7 114224335.209 7  89005988.92345  21736162.008 5  21736164.533 5
        49.000          36.000
  23472971.786 6 123351310.896 6  96117920.74543  23472972.097 3  23472974.690 3
        44.000          28.000
 10  1  4  0 12 30.0000000  0 15G08R08G22G28G15R19R10R09R17G18G27R07
                                R18G09G17
  23954524.865 6 125881883.150 6  98089789.11242  23954524.177 2  23954527.380 2
        42.000          22.000
  20722088.361 8 110965854.551 8  86306804.74647  20722088.632 7  20722090.315 7
        50.000          49.000
  24338991.808 6 127902271.819 6  99664126.94242  24338992.645 2  24338991.855 2
        41.000          20.000
  21837086.642 8 114754690.361 8  89419251.23645  21837085.652 5  21837087.310 5
        51.000          38.000
  20683179.397 8 108690853.172 8  84694189.31146  20683179.708 6  20683181.795 6
        53.000          44.000
  23127992.750 6 123719173.947 6  96226048.86645  23127992.680 6  23127995.625 5
        43.000          39.000
  21812259.588 7 116271631.763 7  90433524.96445  21812258.696 7  21812263.726 5
        49.000          39.000
  19250568.293 8 102796989.129 8  79953245.02842  19250567.850 8  19250575.793 2
        53.000          20.000
  22523897.005 6 120529936.728 6  93745550.18246  22523895.566 6  22523897.641 6
        43.000          40.000
  22813305.660 7 119884731.636 7  93416686.81943  22813305.338 4  22813306.675 3
        47.000          29.000
  21766382.358 8 114383134.867 8  89129741.90245  21766382.000 5  21766385.119 5
        51.000          39.000
  21337239.302 7 114219893.457 7  88837730.63246  21337238.155 7  21337238.225 6
        48.000          42.000
  21135089.498 8 112820555.721 8  87749362.22847  21135088.699 7  21135093.130 7
        50.000          46.000
  21717840.409 7 114128053.142 7  88930963.96645  21717839.980 5  21717842.339 5
        48.000          36.000
  23456099.587 6 123262644.580 6  96048830.12243  23456099.809 3  23456101.412 3
        43.000          28.000
 10  1  4  0 13  0.0000000  0 15G08R08G22G28G15R19R10R09R17G18G27R07
                                R18G09G17
  23974163.427 6 125985091.943 6  98170211.53042  23974162.233 2  23974166.840 2
        40.000          21.000
  20718070.789 8 110944337.961 8  86290069.61547  20718070.600 8  20718072.391 7
        51.000          49.000
  24326151.050 6 127834779.270 6  99611535.32542  24326149.545 2  24326148.319 2
        43.000          20.000
  21847202.530 8 114807849.753 8  89460674.15245  21847201.652 5  21847203.611 5
        51.000          38.000
  20688722.364 8 108719979.119 8  84716884.83747  20688722.227 7  20688724.369 7
        53.000          45.000
  23103881.883 6 123590197.031 6  96125733.47945  23103881.624 6  23103884.418 5
        42.000          39.000
  21793483.520 7 116171544.587 7  90355679.41745  21793482.392 7  21793487.959 5
        49.000          39.000
  19249209.579 8 102789732.491 8  79947600.99142  19249209.161 8  19249217.079 2
        54.000          20.000
  22537585.143 6 120603182.126 6  93802518.84346  22537583.872 6  22537585.002 6
        43.000          40.000
  22810312.420 7 119869005.157 7  93404432.41844  22810312.475 4  22810313.852 4
        47.000          30.000
  21755570.943 8 114326319.859 8  89085470.46245  21755570.561 5  21755573.353 5
        50.000          39.000
  21356104.077 7 114320873.585 7  88916270.67946  21356102.291 7  21356102.612 6
        48.000          42.000
  21127352.271 8 112779253.995 8  87717238.67947  21127351.449 7  21127356.045 7
        50.000          46.000
  21699574.818 7 114032067.766 7  88856170.16945  21699574.673 5  21699577.061 5
        48.000          36.000
  23439284.268 7 123174275.797 7  95979971.35843  23439283.203 3  23439285.780 3
        45.000          28.000
 10  1  4  0 13 30.0000000  0 15G08R08G22G28G15R19R10R09R17G18G27R07
                                R18G09G17
  23993826.771 6 126088424.632 6  98250730.47142  23993826.027 2  23993829.163 2
        41.000          20.000
  20714210.333 8 110923662.626 8  86273988.79547  20714210.058 8  20714211.374 7
        50.000          49.000
  24313388.606 6 127767715.955 6  99559278.19042  24313387.213 2  24313388.378 2
        42.000          22.000
  21857395.332 8 114861414.958 8  89502413.28045  21857394.813 5  21857396.389 5
        50.000          38.000
  20694368.107 8 108749647.413 8  84740002.97546  20694368.014 6  20694369.976 6
        53.000          44.000
  23079815.306 6 123461446.014 6  96025593.80145  23079813.714 6  23079815.258 5
        44.000          39.000
  21774750.678 7 116071691.099 7  90278015.63545  21774749.736 7  21774755.261 5
        49.000          39.000
  19247948.565 8 102783000.303 8  79942364.93042  19247948.315 8  19247956.065 2
        54.000          20.000
  22551399.157 6 120677106.237 6  93860015.36645  22551397.921 6  22551398.819 5
        43.000          39.000
  22807431.660 7 119853859.661 7  93392630.73743  22807430.254 3  22807431.832 3
        47.000          29.000
  21744808.959 8 114269764.444 8  89041401.31245  21744808.338 5  21744811.250 5
        50.000          39.000
  21375067.253 7 114422387.696 7  88995226.04546  21375066.043 7  21375065.831 6
        47.000          41.000
  21119764.725 7 112738757.769 7  87685741.62947  21119764.440 7  21119769.311 7
        49.000          46.000
  21681366.357 7 113936381.183 7  88781609.20945  21681366.033 5  21681368.650 5
        48.000          36.000
  23422525.247 6 123086208.214 6  95911347.28643  23422524.725 3  23422527.031 3
        43.000          28.000
 10  1  4  0 14  0.0000000  0 15G08R08G22G28G15R19R10R09R17G18G27R07
                                R18G09G17
  24013513.676 6 126191879.053 6  98331344.28342  24013512.032 2  24013517.032 2
        41.000          21.000
  20710506.391 8 110903830.187 8  86258563.57347  20710506.210 8  20710507.883 7
        50.000          49.000
  24300708.785 6 127701083.813 6  99507357.03742  24300708.613 2  24300709.321 2
        42.000          23.000
  21867665.315 8 114915383.980 8  89544467.06045  21867664.822 5  21867666.567 5
        50.000          38.000
  20700116.708 8 108779857.214 8  84763543.06947  20700116.682 7  20700118.693 7
        53.000          45.000
  23055788.226 6 123332925.353 6  95925633.29045  23055787.417 6  23055789.952 5
        43.000          39.000
  21756063.281 8 115972073.119 8  90200535.02445  21756062.345 7  21756067.512 5
        50.000          39.000
  19246786.178 8 102776792.282 8  79937536.53042  19246785.755 8  19246793.678 2
        54.000          20.000
  22565339.331 6 120751705.364 6  93918036.89945  22565338.080 6  22565340.382 5
        43.000          39.000
  22804658.956 7 119839295.324 7  93381281.89843  22804658.128 3  22804660.498 3
        45.000          29.000
  21734096.241 8 114213469.062 8  88997534.78545  21734095.849 5  21734098.526 5
        51.000          39.000
  21394129.467 7 114524430.952 7  89074592.97046  21394128.698 7  21394128.760 6
        47.000          42.000
  21112330.763 8 112699069.053 8  87654872.66047  21112330.076 8  21112334.540 7
        50.000          46.000
  21663214.730 7 113840994.878 7  88707282.23445  21663214.309 5  21663217.607 5
        49.000          36.000
  23405824.654 7 122998444.409 7  95842959.92143  23405823.978 3  23405826.431 3
        45.000          28.000
 10  1  4  0 14 30.0000000  0 15G08R08G22G28G15R19R10R09R17G18G27R07
                                R18G09G17
  24033223.618 6 126295454.467 6  98412052.40342  24033222.627 2  24033226.930 2
        40.000          20.000
  20706960.715 8 110884841.594 8  86243794.66647  20706960.445 7  20706961.950 7
        50.000          49.000
  24288112.536 6 127634884.959 6  99455773.53442  24288111.325 2  24288112.216 2
        43.000          23.000
  21878011.888 8 114969755.433 8  89586834.42745  21878011.210 5  21878013.142 5
        51.000          37.000
  20705968.540 8 108810608.437 8  84787505.05146  20705968.525 6  20705970.491 6
        53.000          44.000
  23031804.958 6 123204639.564 6  95825855.48445  23031804.547 6  23031807.373 5
        41.000          39.000
  21737418.642 7 115872691.797 7  90123238.47645  21737418.188 7  21737423.819 5
        49.000          39.000
  19245721.865 8 102771108.407 8  79933115.81442  19245721.384 8  19245729.365 2
        53.000          20.000
  22579405.832 6 120826976.477 6  93976581.10345  22579405.303 6  22579406.521 5
        44.000          39.000
  22801997.883 7 119825312.691 7  93370386.33443  22801997.512 3  22801998.903 3
        46.000          29.000
  21723433.382 8 114157434.501 8  88953871.49245  21723432.820 5  21723435.631 5
        50.000          39.000
  21413290.769 7 114627000.523 7  89154369.24746  21413289.291 7  21413289.225 6
        47.000          41.000
  21105047.739 8 112660190.109 8  87624633.50247  21105047.013 8  21105051.486 7
        50.000          47.000
  21645121.559 7 113745910.957 7  88633190.88445  21645120.473 5  21645123.238 5
        49.000          36.000
  23389181.860 7 122910987.179 7  95774811.45243  23389181.411 3  23389183.851 3
        45.000          28.000
 10  1  4  0 15  0.0000000  0 15G08R08G22G28G15R19R10R09R17G18G27R07
                                R18G09G17
  24052954.913 5 126399149.626 5  98492853.77642  24052954.011 2  24052958.383 2
        38.000          20.000
  20703572.419 8 110866697.525 8  86229682.61047  20703572.035 8  20703573.934 7
        50.000          49.000
  24275596.825 6 127569121.648 6  99404529.41642  24275597.352 2  24275597.236 2
        43.000          23.000
  21888434.765 8 115024527.586 8  89629514.02445  21888433.963 5  21888435.839 5
        50.000          37.000
  20711923.404 8 108841900.497 8  84811888.45846  20711923.277 6  20711925.174 6
        53.000          44.000
  23007868.886 6 123076592.964 6  95726263.70046  23007868.527 6  23007872.007 6
        43.000          40.000
  21718819.931 7 115773548.847 7  90046127.31645  21718818.762 7  21718824.494 5
        49.000          39.000
  19244755.183 8 102765948.898 8  79929102.84442  19244755.046 8  19244869.571 2
        53.000          20.000
  22593595.499 6 120902916.166 6  94035645.29146  22593594.769 6  22593598.228 6
        42.000          41.000
  22799447.622 7 119811912.479 7  93359944.61043  22799447.966 3  22799449.191 3
        45.000          29.000
  21712820.134 8 114101661.283 8  88910411.84845  21712819.326 5  21712822.311 5
        51.000          39.000
  21432548.442 7 114730091.297 7  89234550.89746  21432547.664 7  21432547.751 6
        48.000          41.000
  21097915.575 8 112622122.656 8  87595025.50647  21097915.192 7  21097919.941 7
        50.000          47.000
  21627084.566 7 113651131.239 7  88559336.56945  21627084.669 5  21627087.547 5
        49.000          36.000
  23372597.006 6 122823839.665 6  95706904.31643  23372597.569 3  23372599.966 3
        44.000          28.000
 10  1  4  0 15 30.0000000  0 15G08R08G22G28G15R19R10R09R17G18G27R07
                                R18G09G17
  24072712.173 6 126502963.629 6  98573747.76742  24072711.240 1  24072713.111 2
        40.000          20.000
  20700342.200 8 110849399.427 8  86216228.53447  20700341.840 7  20700343.261 7
        51.000          49.000
  24263165.343 6 127503795.926 6  99353626.23542  24263165.344 2  24263165.841 2
        43.000          22.000
  21898933.329 8 115079698.415 8  89672504.28645  21898932.474 5  21898934.484 5
        50.000          37.000
  20717980.368 8 108873732.988 8  84836692.98646  20717980.678 6  20717982.725 6
        53.000          44.000
  22983978.072 6 122948789.955 6  95626861.37646  22983977.586 6  22983979.976 6
        43.000          40.000
  21700266.139 7 115674645.936 7  89969202.84945  21700265.155 7  21700271.047 5
        49.000          39.000
  19243887.322 8 102761313.228 8  79925497.25542  19243887.034 8  19243894.822 2
        53.000          20.000
  22607912.704 6 120979521.333 6  94095227.09646  22607911.188 6  22607912.782 6
        42.000          40.000
  22797010.246 7 119799095.153 7  93349957.08043  22797009.112 3  22797009.662 3
        47.000          29.000
  21702256.139 8 114046150.358 8  88867156.57745  21702256.027 5  21702258.931 5
        51.000          39.000
  21451903.168 7 114833698.872 7  89315134.52546  21451902.673 7  21451902.318 6
        48.000          41.000
  21090937.368 8 112584868.628 8  87566050.17447  21090936.392 8  21090941.133 7
        50.000          46.000
  21609106.595 8 113556657.652 8  88485720.80545  21609106.573 5  21609109.739 5
        50.000          36.000
  23356073.481 6 122737004.391 6  95639240.47143  23356073.577 3  23356075.654 3
        43.000          28.000
 10  1  4  0 16  0.0000000  0 15G08R08G22G28G15R19R10R09R17G18G27R07
                                R18G09G17
  24092488.947 5 126606894.527 5  98654732.83542  24092487.460 1  24092491.643 2
        39.000          20.000
  20697269.613 8 110832947.818 8  86203432.83647  20697269.427 8  20697271.014 7
        50.000          49.000
  24250818.563 6 127438909.848 6  99303065.65342  24250818.127 2  24250818.134 2
        43.000          22.000
  21909507.713 8 115135266.393 8  89715804.01445  21909506.896 5  21909508.709 5
        50.000          37.000
  20724141.227 8 108906104.750 8  84861917.72546  20724140.877 6  20724142.837 6
        53.000          44.000
  22960133.297 6 122821235.048 6  95527652.01446  22960132.600 6  22960135.506 6
        44.000          40.000
  21681757.266 8 115575984.108 8  89892465.89645  21681756.349 7  21681762.217 5
        50.000          39.000
  19243117.514 8 102757201.383 8  79922299.22342  19243117.071 8  19243125.014 2
        54.000          20.000
  22622351.393 6 121056788.266 6  94155323.60146  22622350.120 6  22622353.069 6
        42.000          41.000
  22794681.307 7 119786860.946 7  93340423.93943  22794680.400 3  22794681.876 3
        46.000          29.000
  21691743.118 8 113990902.349 8  88824106.18146  21691742.666 6  21691745.578 6
        50.000          40.000
  21471354.422 7 114937819.778 7  89396117.40046  21471353.322 7  21471353.577 6
        47.000          42.000
  21084110.487 8 112548430.224 8  87537709.20647  21084109.726 7  21084114.421 7
        50.000          46.000
  21591188.320 8 113462491.974 8  88412344.97245  21591187.952 5  21591190.534 5
        50.000          37.000
  23339608.163 6 122650484.137 6  95571822.13143  23339609.129 3  23339611.951 3
        44.000          29.000
 10  1  4  0 16 30.0000000  0 15G08R08G22G28G15R19R10R09R17G18G27R07
                                R18G09G17
  24112285.847 5 126710941.214 5  98735808.14341  24112286.020 1  24112290.172 1
        37.000          18.000
  20694356.108 8 110817344.280 8  86191296.75347  20694355.695 7  20694357.183 7
        50.000          49.000
  24238554.335 6 127374465.502 6  99252849.28642  24238554.221 2  24238555.599 2
        42.000          22.000
  21920157.110 8 115191229.792 8  89759411.86145  21920156.298 5  21920158.247 5
        50.000          37.000
  20730403.522 8 108939015.494 8  84887562.45046  20730403.591 7  20730405.481 6
        52.000          44.000
  22936336.361 6 122693932.673 6  95428639.10846  22936335.242 6  22936337.648 6
        44.000          40.000
  21663295.036 8 115477565.044 8  89815917.76445  21663293.331 7  21663299.092 5
        50.000          39.000
  19242445.687 8 102753613.450 8  79919508.60142  19242445.249 8  19242453.187 2
        54.000          20.000
  22636914.494 6 121134713.736 6  94215932.29346  22636912.429 6  22636914.667 6
        42.000          40.000
  22792464.278 7 119775210.071 7  93331345.32944  22792463.461 4  22792464.635 4
        45.000          30.000
  21681279.838 8 113935917.841 8  88781261.11745  21681279.486 5  21681282.474 5
        50.000          39.000
  21490899.881 7 115042449.411 7  89477495.96546  21490898.888 7  21490898.720 6
        47.000          41.000
  21077437.658 8 112512809.242 8  87510004.01747  21077436.688 7  21077441.500 7
        50.000          46.000
  21573327.990 7 113368636.345 7  88339210.72845  21573327.364 5  21573330.104 5
        48.000          36.000
  23323205.023 6 122564281.656 6  95504651.38543  23323205.295 3  23323208.267 3
        44.000          29.000
 10  1  4  0 17  0.0000000  0 15G08R08G22G28G15R19R10R09R17G18G27R07
                                R18G09G17
  24132110.199 5 126815102.256 5  98816972.54041  24132108.494 1  24132110.736 1
        39.000          18.000
  20691600.474 8 110802588.976 8  86179820.40747  20691600.021 7  20691601.757 7
        50.000          48.000
  24226376.522 6 127310464.825 6  99202978.62742  24226375.960 2  24226376.416 2
        43.000          23.000
  21930881.047 8 115247586.877 8  89803326.47745  21930880.455 5  21930882.613 5
        50.000          37.000
  20736768.696 8 108972464.912 8  84913626.92046  20736768.795 6  20736770.724 6
        53.000          44.000
  22912585.399 6 122566887.113 6  95329825.90946  22912584.916 6  22912587.858 6
        43.000          41.000
  21644876.915 8 115379390.040 8  89739559.45645  21644876.260 7  21644881.408 5
        50.000          39.000
  19241871.525 8 102750549.262 8  79917125.30442  19241871.328 8  19241879.025 2
        53.000          20.000
  22651598.609 6 121213294.035 6  94277050.30246  22651597.228 6  22651599.766 6
        43.000          40.000
  22790357.817 7 119764143.126 7  93322721.73443  22790357.689 3  22790359.153 3
        45.000          29.000
  21670867.538 8 113881197.650 8  88738622.00145  21670866.576 5  21670869.424 5
        51.000          39.000
  21510539.526 7 115147583.632 7  89559266.97546  21510538.681 7  21510538.862 6
        47.000          42.000
  21070918.218 8 112478007.575 8  87482936.07647  21070917.427 7  21070922.019 7
        51.000          46.000
  21555526.538 7 113275092.560 7  88266319.47745  21555526.712 5  21555529.905 5
        49.000          37.000
  23306862.621 6 122478399.943 6  95437730.60043  23306862.875 3  23306865.265 3
        44.000          29.000
 10  1  4  0 17 30.0000000  0 15G08R08G22G28G15R19R10R09R17G18G27R07
                                R18G09G17
  24151952.154 5 126919376.878 5  98898225.45541  24151950.352 1  24151955.568 1
        38.000          18.000
  20689003.710 8 110788683.128 8  86169004.75047  20689003.249 7  20689005.097 7
        50.000          49.000
  24214280.831 6 127246910.192 6  99153455.56842  24214280.428 2  24214282.685 2
        41.000          22.000
  21941680.435 8 115304335.499 8  89847546.18245  21941679.642 5  21941681.277 5
        51.000          37.000
  20743236.332 8 109006452.465 8  84940110.71646  20743236.335 6  20743238.485 6
        53.000          44.000
  22888885.456 6 122440103.002 6  95231216.08846  22888884.298 6  22888886.944 6
        43.000          41.000
  21626505.265 8 115281460.872 8  89663392.34745  21626504.636 7  21626510.140 5
        50.000          39.000
  19241395.628 8 102748008.752 8  79915149.49142  19241395.261 8  19241403.128 2
        53.000          20.000
  22666404.805 6 121292526.039 6  94338675.19346  22666404.468 6  22666405.728 6
        43.000          40.000
  22788363.784 7 119753660.392 7  93314553.37243  22788362.837 3  22788363.880 3
        47.000          29.000
  21660504.444 8 113826742.376 8  88696189.32045  21660503.968 5  21660506.944 5
        50.000          39.000
  21530273.692 7 115253219.140 7  89641427.85646  21530272.651 7  21530272.418 6
        47.000          41.000
  21064552.467 8 112444026.828 8  87456506.61447  21064551.525 8  21064556.127 7
        50.000          46.000
  21537786.312 8 113181862.564 8  88193672.74845  21537785.751 5  21537788.260 5
        50.000          37.000
  23290581.151 6 122392842.012 6  95371062.10143  23290581.982 3  23290584.180 3
        44.000          29.000
 10  1  4  0 18  0.0000000  0 15G08R08G22G28G15R19R10R09R17G18G27R07
                                R18G09G17
  24171816.557 5 127023763.455 5  98979565.61741  24171816.577 1  24171820.390 1
        39.000          18.000
  20686565.384 8 110775627.653 8  86158850.48747  20686565.104 8  20686567.058 7
        50.000          49.000
  24202273.179 6 127183803.473 6  99104281.49642  24202272.549 2  24202272.892 2
        43.000          22.000
  21952553.338 8 115361474.278 8  89892069.90245  21952552.707 5  21952555.088 5
        50.000          37.000
  20749806.170 8 109040977.303 8  84967013.17646  20749806.230 6  20749808.363 6
        53.000          44.000
  22865233.064 6 122313584.676 6  95132812.97946  22865232.135 6  22865234.555 6
        43.000          40.000
  21608180.746 8 115183778.246 8  89587416.99345  21608179.866 7  21608184.862 5
        50.000          39.000
  19241018.278 8 102745991.580 8  79913580.42142  19241017.630 8  19241025.778 2
        53.000          20.000
  22681332.623 6 121372406.305 6  94400804.25646  22681331.460 6  22681333.551 6
        42.000          40.000
  22786480.291 7 119743761.860 7  93306840.22944  22786479.544 4  22786481.159 4
        47.000          30.000
  21650192.157 8 113772552.705 8  88653963.59445  21650192.124 5  21650194.884 5
        50.000          39.000
  21550099.460 7 115359350.578 7  89723974.43946  21550098.765 7  21550099.057 6
        47.000          41.000
  21058340.563 8 112410868.822 8  87430717.07247  21058339.965 7  21058344.869 7
        50.000          46.000
  21520104.888 7 113088948.199 7  88121271.94045  21520104.650 5  21520107.490 5
        49.000          37.000
  23274362.808 6 122307610.445 6  95304647.89844  23274362.392 4  23274365.215 4
        44.000          30.000
 10  1  4  0 18 30.0000000  0 15G08R08G22G28G15R19R10R09R17G18G27R07
                                R18G09G17
  24191701.766 5 127128261.123 5  99060992.34741  24191700.654 1  24191704.661 1
        38.000          17.000
  20684286.721 8 110763422.837 8  86149357.84947  20684286.417 8  20684287.525 7
        50.000          48.000
  24190351.272 6 127121146.971 6  99055458.24042  24190350.048 2  24190349.812 2
        43.000          22.000
  21963500.388 8 115419001.297 8  89936896.15845  21963499.738 5  21963501.792 5
        50.000          37.000
  20756478.436 8 109076038.877 8  84994333.86746  20756478.320 6  20756480.338 6
        53.000          44.000
  22841631.590 6 122187336.718 6  95034620.17546  22841631.431 6  22841634.418 6
        43.000          41.000
  21589902.539 8 115086344.068 8  89511634.88745  21589901.604 7  21589906.976 5
        50.000          39.000
  19240738.344 8 102744497.960 8  79912418.58042  19240738.029 8  19240745.844 2
        53.000          20.000
  22696381.026 6 121452930.951 6  94463434.53846  22696379.843 6  22696381.593 6
        42.000          40.000
  22784707.028 6 119734448.192 6  93299582.84143  22784706.437 3  22784708.429 3
        44.000          29.000
  21639931.491 8 113718629.567 8  88611945.56145  21639930.996 5  21639933.731 5
        51.000          39.000
  21570018.628 7 115465974.539 7  89806904.11646  21570017.300 7  21570017.284 6
        47.000          41.000
  21052283.798 8 112378535.581 8  87405569.00847  21052283.343 8  21052287.999 7
        50.000          46.000
  21502484.041 7 112996351.416 7  88049118.60545  21502484.119 5  21502486.697 5
        49.000          37.000
  23258206.228 6 122222708.270 6  95238490.38344  23258206.081 4  23258208.395 4
        44.000          30.000
 10  1  4  0 19  0.0000000  0 15G08R08G22G28G15R19R10R09R17G18G27R07
                                R18G09G17
  24211609.105 5 127232868.224 5  99142504.34741  24211607.836 1  24211610.373 1
        38.000          17.000
  20682166.321 8 110752069.651 8  86140527.59547  20682165.990 8  20682167.191 7
        50.000          49.000
  24178512.091 6 127058942.303 6  99006987.06742  24178512.462 2  24178514.321 2
        42.000          23.000
  21974521.079 7 115476914.760 7  89982023.53045  21974520.345 5  21974522.056 5
        49.000          37.000
  20763252.149 8 109111636.261 8  85022072.07346  20763252.109 6  20763254.330 6
        52.000          44.000
  22818081.865 6 122061363.501 6  94936641.05346  22818081.581 6  22818084.321 6
        43.000          40.000
  21571670.553 8 114989160.025 8  89436047.31745  21571669.706 7  21571674.923 5
        50.000          39.000
  19240556.241 8 102743527.259 8  79911663.44842  19240556.117 8  19240563.741 2
        53.000          20.000
  22711547.907 6 121534096.750 6  94526563.48746  22711547.635 6  22711549.607 6
        42.000          41.000
  22783046.262 7 119725719.351 7  93292781.13743  22783045.648 3  22783047.004 3
        46.000          29.000
  21629720.973 8 113664973.631 8  88570135.73345  21629720.366 5  21629723.384 5
        50.000          39.000
  21590027.732 7 115573086.455 7  89890213.30546  21590026.526 7  21590026.726 6
        47.000          41.000
  21046381.107 8 112347028.264 8  87381063.34347  21046380.197 8  21046385.137 7
        50.000          46.000
  21484924.497 8 112904074.177 8  87977214.26645  21484924.249 5  21484927.097 5
        50.000          37.000
  23242112.249 6 122138138.111 6  95172591.56044  23242112.479 4  23242115.451 4
        44.000          30.000
 10  1  4  0 19 30.0000000  0 16G08R08G22G28G15R19R10R09R17G18G27R07
                                R18G11G09G17
  24231534.279 5 127337583.457 5  99224100.61741  24231533.924 1  24231537.894 1
        39.000          17.000
  20680205.680 8 110741568.762 8  86132360.23347  20680205.160 7  20680206.661 7
        50.000          49.000
  24166762.354 6 126997191.631 6  98958869.66442  24166761.750 2  24166762.606 2
        43.000          23.000
  21985615.275 8 115535213.265 8  90027450.93945  21985614.286 5  21985616.413 5
        50.000          37.000
  20770127.715 8 109147769.170 8  85050227.57546  20770128.081 6  20770130.331 6
        51.000          44.000
  22794585.625 6 121935669.377 6  94838878.98546  22794584.397 6  22794587.907 6
        44.000          41.000
  21553486.338 8 114892227.433 8  89360655.32145  21553485.548 7  21553490.583 5
        50.000          39.000
  19240472.887 8 102743079.530 8  79911315.32842  19240472.242 8  19240480.387 2
        53.000          20.000
  22726835.505 6 121615900.099 6  94590188.31346  22726833.921 6  22726836.588 6
        42.000          40.000
  22781497.068 7 119717575.676 7  93286435.41844  22781496.124 3  22781497.992 4
        46.000          30.000
  21619561.951 8 113611585.490 8  88528534.58345  21619561.023 5  21619563.866 5
        51.000          39.000
  21610127.722 7 115680681.883 7  89973898.54946  21610126.343 7  21610126.544 6
        47.000          41.000
  21040633.221 8 112316349.098 8  87357201.78647  21040633.115 8  21040637.679 7
        50.000          46.000
  24955678.836 4 131142985.958 4
        32.000
  21467426.259 7 112812118.455 7  87905560.47045  21467425.657 5  21467428.507 5
        49.000          37.000
  23226084.012 6 122053902.752 6  95106953.62543  23226083.570 3  23226085.816 3
        44.000          29.000
 10  1  4  0 20  0.0000000  0 16G08R08G22G28G15R19R10R09R17G18G27R07
                                R18G11G09G17
  24251480.404 5 127442405.699 5  99305780.24941  24251481.368 1  24251484.461 1
        38.000          17.000
  20678403.652 8 110731920.698 8  86124856.18147  20678403.336 8  20678405.008 7
        50.000          49.000
  24155097.781 6 126935896.838 6  98911107.50942  24155098.176 2  24155098.551 2
        42.000          23.000
  21996782.104 8 115593894.893 8  90073176.88345  21996781.138 5  21996782.914 5
        50.000          37.000
  20777105.985 8 109184436.921 8  85078799.83446  20777105.845 7  20777107.932 6
        53.000          44.000
  22771140.948 6 121810258.876 6  94741337.50746  22771140.568 6  22771143.853 6
        44.000          41.000
  21535348.320 8 114795547.740 8  89285460.02545  21535348.188 7  21535353.457 5
        50.000          39.000
  19240486.735 8 102743154.617 8  79911373.90542  19240486.309 8  19240494.235 2
        54.000          20.000
  22742239.660 6 121698337.321 6  94654306.18346  22742238.859 6  22742240.947 6
        42.000          40.000
  22780058.511 7 119710017.558 7  93280545.98044  22780057.849 4  22780059.427 4
        47.000          30.000
  21609453.064 8 113558465.692 8  88487142.52745  21609452.613 6  21609455.693 5
        50.000          39.000
  21630317.359 7 115788757.005 7  90057956.89846  21630315.923 7  21630316.388 6
        47.000          41.000
  21035042.349 8 112286499.217 8  87333985.21747  21035041.578 8  21035046.359 7
        51.000          46.000
  24946714.890 4 131095866.278 4
        30.000
  21449989.175 7 112720485.833 7  87834158.43245  21449988.572 5  21449991.051 5
        49.000          37.000
  23210119.216 6 121970004.641 6  95041578.48944  23210118.390 4  23210120.763 4
        44.000          30.000
 10  1  4  0 20 30.0000000  0 16G08R08G22G28G15R19R10R09R17G18G27R07
                                R18G11G09G17
  24271448.579 5 127547333.828 5  99387542.40941  24271447.314 1  24271452.144 1
        38.000          18.000
  20676761.673 8 110723126.076 8  86118015.91547  20676761.096 8  20676762.379 7
        50.000          48.000
  24143521.235 6 126875059.891 6  98863702.07142  24143520.958 2  24143521.106 2
        43.000          22.000
  22008020.712 7 115652957.630 7  90119199.79245  22008020.203 5  22008022.199 5
        49.000          36.000
  20784185.103 8 109221638.556 8  85107788.11746  20784184.998 6  20784187.084 6
        52.000          44.000
  22747751.428 6 121685136.577 6  94644020.19046  22747750.221 6  22747753.317 6
        44.000          41.000
  21517260.304 8 114699122.482 8  89210462.61445  21517259.144 7  21517264.502 5
        50.000          39.000
  19240598.823 8 102743752.503 8  79911838.92842  19240598.320 8  19240606.323 2
        53.000          20.000
  22757763.997 6 121781405.053 6  94718914.40846  22757763.446 6  22757765.093 6
        43.000          40.000
  22778731.669 7 119703045.130 7  93275112.90543  22778731.088 3  22778732.431 3
        47.000          29.000
  21599396.147 8 113505615.029 8  88445960.19546  21599395.669 6  21599398.500 6
        51.000          40.000
  21650594.611 7 115897308.250 7  90142385.58846  21650593.906 7  21650594.859 6
        46.000          41.000
  21029605.769 8 112257480.340 8  87311414.99347  21029604.848 7  21029609.283 7
        50.000          46.000
  24937832.940 4 131049202.029 4
        31.000
  21432613.867 7 112629178.189 7  87763009.61345  21432613.154 5  21432616.274 5
        49.000          37.000
  23194218.292 7 121886447.298 7  94976468.87644  23194218.517 4  23194220.463 4
        46.000          30.000
 10  1  4  0 21  0.0000000  0 16G08R08G22G28G15R19R10R09R17G18G27R07
                                R18G11G09G17
  24291438.483 6 127652366.504 6  99469386.01141  24291435.204 1  24291439.171 1
        41.000          17.000
  20675278.487 8 110715185.415 8  86111839.84347  20675278.268 8  20675279.778 7
        50.000          49.000
  24132032.766 6 126814682.785 6  98816654.98442  24132031.586 2  24132032.269 2
        43.000          24.000
  22019331.908 7 115712400.028 7  90165518.54945  22019331.171 5  22019333.677 5
        49.000          36.000
  20791365.446 8 109259373.233 8  85137191.74646  20791365.685 6  20791367.607 6
        52.000          44.000
  22724414.987 6 121560306.790 6  94546930.38346  22724414.947 6  22724418.310 6
        43.000          42.000
  21499217.811 8 114602953.110 8  89135664.23345  21499217.640 7  21499223.636 5
        50.000          39.000
  19240808.465 8 102744872.838 8  79912710.28442  19240808.146 8  19240815.965 2
        53.000          20.000
  22773403.906 6 121865099.517 6  94784010.10345  22773403.226 6  22773404.999 5
        43.000          39.000
  22777516.150 7 119696658.203 7  93270136.08343  22777515.314 3  22777517.149 3
        46.000          29.000
  21589389.896 8 113453034.175 8  88404988.10846  21589389.693 5  21589392.656 6
        50.000          40.000
  21670961.445 7 116006330.615 7  90227180.68346  21670960.469 7  21670961.366 6
        46.000          41.000
  21024325.909 8 112229293.809 8  87289492.15047  21024325.153 8  21024329.985 7
        51.000          47.000
  24929040.770 5 131002995.315 5
        37.000
  21415300.738 7 112538197.598 7  87692115.65245  21415300.667 5  21415302.914 5
        49.000          38.000
  23178382.278 7 121803233.215 7  94911626.73544  23178382.324 4  23178385.198 4
        45.000          30.000
 10  1  4  0 21 30.0000000  0 16G08R08G22G28G15R19R10R09R17G18G27R07
                                R18G11G09G17
  24311441.435 5 127757502.286 5  99551309.95441  24311442.119 1  24311446.147 1
        38.000          16.000
  20673955.706 8 110708099.308 8  86106328.41547  20673955.075 7  20673956.559 7
        50.000          49.000
  24120631.374 6 126754767.955 6  98769968.10842  24120630.609 2  24120629.719 2
        42.000          24.000
  22030715.286 7 115772220.162 7  90212131.64345  22030714.917 5  22030716.882 5
        49.000          36.000
  20798647.811 8 109297640.728 8  85167010.56646  20798647.723 6  20798649.768 6
        53.000          44.000
  22701136.287 6 121435774.069 6  94450071.62446  22701134.560 6  22701138.117 6
        44.000          42.000
  21481226.575 8 114507040.783 8  89061065.78146  21481225.577 7  21481230.308 6
        50.000          40.000
  19241116.009 8 102746515.447 8  79913987.87642  19241115.815 8  19241123.509 2
        53.000          20.000
  22789161.392 6 121949417.237 6  94849590.54145  22789160.083 6  22789160.905 5
        42.000          39.000
  22776412.506 7 119690857.241 7  93265615.84743  22776411.767 4  22776413.204 3
        45.000          29.000
  21579435.494 8 113400724.041 8  88364226.97046  21579435.543 6  21579438.386 6
        51.000          40.000
  21691414.944 7 116115820.112 7  90312339.11946  21691414.026 7  21691414.420 6
        47.000          41.000
  21019201.887 8 112201941.287 8  87268217.98247  21019201.055 7  21019205.666 7
        51.000          47.000
  24920335.313 5 130957247.879 5
        36.000
  21398050.254 8 112447545.998 8  87621478.05045  21398049.721 5  21398052.475 5
        50.000          38.000
  23162614.149 7 121720365.243 7  94847054.30344  23162613.331 4  23162616.396 4
        45.000          30.000
 10  1  4  0 22  0.0000000  0 16G08R08G22G28G15R19R10R09R17G18G27R07
                                R18G11G09G17
  24331468.982 5 127862739.960 5  99633313.29541  24331469.492 1  24331471.586 1
        39.000          17.000
  20672792.095 8 110701868.024 8  86101481.86247  20672791.344 8  20672792.766 7
        51.000          49.000
  24109317.445 6 126695317.074 6  98723642.74342  24109316.565 2  24109316.848 2
        43.000          24.000
  22042171.038 7 115832415.883 7  90259037.39045  22042170.278 5  22042171.995 5
        49.000          36.000
  20806030.796 8 109336439.735 8  85197243.55046  20806030.872 6  20806032.897 6
        52.000          44.000
  22677910.931 6 121311542.948 6  94353447.44346  22677911.402 6  22677913.950 6
        44.000          41.000
  21463281.684 8 114411387.304 8  88986668.66046  21463281.099 8  21463286.168 6
        51.000          40.000
  19241521.835 8 102748680.083 8  79915671.30842  19241521.359 8  19241529.335 2
        54.000          20.000
  22805033.013 6 122034354.420 6  94915652.82145  22805032.407 6  22805034.282 5
        41.000          39.000
  22775419.370 7 119685642.487 7  93261552.38844  22775419.570 4  22775421.055 4
        47.000          30.000
  21569533.462 8 113348685.412 8  88323677.39446  21569532.980 6  21569535.609 6
        51.000          40.000
  21711955.122 7 116225772.050 7  90397857.23046  21711953.869 7  21711954.182 6
        47.000          41.000
  21014233.481 8 112175424.247 8  87247593.63747  21014232.855 8  21014237.824 7
        50.000          46.000
  24911717.228 4 130911961.965 4
        34.000
  21380862.884 8 112357225.435 8  87551098.39545  21380862.786 5  21380864.884 5
        50.000          38.000
  23146910.563 6 121637846.341 6  94782753.88444  23146910.604 4  23146913.236 4
        44.000          30.000
 10  1  4  0 22 30.0000000  0 16G08R08G22G28G15R19R10R09R17G18G27R07
                                R18G11G09G17
  24351512.244 5 127968078.608 5  99715395.35541  24351513.580 1  24351516.807 1
        39.000          15.000
  20671787.547 8 110696491.916 8  86097300.44947  20671787.261 7  20671788.676 7
        50.000          49.000
  24098092.899 6 126636331.857 6  98677680.24442  24098092.674 2  24098093.381 2
        43.000          23.000
  22053697.201 8 115892985.719 8  90306234.66945  22053696.384 5  22053698.007 5
        50.000          37.000
  20813515.119 8 109375770.037 8  85227890.52546  20813515.177 6  20813517.138 6
        51.000          43.000
  22654745.303 6 121187617.824 6  94257061.26746  22654744.516 6  22654747.975 6
        44.000          42.000
  21445385.922 8 114315994.079 8  88912473.94746  21445385.253 7  21445390.356 6
        50.000          40.000
  19242024.765 8 102751366.468 8  79917760.68142  19242024.263 8  19242032.265 2
        54.000          20.000
  22821021.019 6 122119907.528 6  94982194.09745  22821019.482 6  22821021.265 5
        42.000          39.000
  22774539.381 7 119681013.924 7  93257945.71743  22774539.206 3  22774539.862 3
        46.000          29.000
  21559682.112 8 113296918.834 8  88283339.80246  21559681.873 6  21559685.083 6
        51.000          40.000
  21732580.925 7 116336182.479 7  90483731.94546  21732579.543 7  21732579.471 6
        47.000          40.000
  21009422.926 8 112149743.577 8  87227619.78847  21009422.134 7  21009427.347 7
        50.000          46.000
  24903187.312 4 130867139.505 4
        34.000
  21363738.951 8 112267237.398 8  87480977.85245  21363738.073 5  21363740.657 5
        50.000          38.000
  23131273.989 7 121555678.654 7  94718727.12744  23131274.427 4  23131277.154 4
        45.000          30.000
 10  1  4  0 23  0.0000000  0 16G08R08G22G28G15R19R10R09R17G18G27R07
                                R18G11G09G17
  24371576.717 5 128073516.992 5  99797555.08641  24371577.511 1  24371581.669 1
        39.000          16.000
  20670942.643 8 110691971.384 8  86093784.48847  20670942.839 8  20670944.961 7
        50.000          49.000
  24086958.071 6 126577814.228 6  98632082.07542  24086957.312 2  24086957.378 2
        42.000          23.000
  22065293.973 8 115953927.688 8  90353721.91645  22065293.254 5  22065294.935 5
        50.000          36.000
  20821100.694 8 109415630.435 8  85258950.56246  20821100.584 6  20821102.420 6
        51.000          44.000
  22631637.355 7 121064003.187 7  94160916.58246  22631636.198 6  22631639.185 6
        45.000          42.000
  21427539.887 8 114220862.530 8  88838482.77146  21427539.141 7  21427543.805 6
        50.000          40.000
  19242625.578 8 102754574.418 8  79920255.67642  19242625.140 8  19242633.078 2
        54.000          20.000
  22837122.764 6 122206072.969 6  95049211.66145  22837121.517 6  22837124.097 5
        42.000          39.000
  22773770.233 7 119676971.425 7  93254795.70643  22773769.089 3  22773771.032 3
        46.000          29.000
  21549883.166 8 113245424.753 8  88243214.55046  21549883.159 6  21549885.955 6
        50.000          40.000
  21753291.242 7 116447047.401 7  90569960.14346  21753289.987 7  21753290.503 6
        46.000          41.000
  21004768.776 8 112124901.251 8  87208297.99047  21004768.266 8  21004773.288 7
        50.000          47.000
  24894745.716 5 130822782.717 5
        36.000
  21346678.310 8 112177583.861 8  87411117.96145  21346677.886 5  21346680.606 5
        50.000          38.000
  23115706.028 7 121473865.394 7  94654976.53744  23115705.649 4  23115708.307 4
        45.000          30.000
 10  1  4  0 23 30.0000000  0 16G08R08G22G28G15R19R10R09R17G18G27R07
                                R18G11G09G17
  24391660.742 5 128179053.717 5  99879791.47441  24391658.800 1  24391664.555 1
        39.000          15.000
  20670259.256 8 110688306.703 8  86090934.17347  20670259.182 8  20670260.247 7
        50.000          49.000
  24075911.669 6 126519766.419 6  98586850.01842  24075911.175 2  24075911.891 2
        41.000          24.000
  22076961.174 8 116015240.425 8  90401498.08045  22076960.542 5  22076962.268 5
        50.000          36.000
  20828786.239 8 109456020.231 8  85290423.11946  20828786.388 6  20828788.405 6
        52.000          43.000
  22608586.981 7 120940703.491 7  94065016.84046  22608586.431 6  22608589.934 6
        45.000          42.000
  21409743.735 8 114125994.191 8  88764696.29145  21409742.128 8  21409746.648 5
        51.000          39.000
  19243323.991 8 102758303.825 8  79923156.48542  19243323.485 8  19243331.491 2
        54.000          20.000
  22853338.709 6 122292847.141 6  95116702.67445  22853337.384 6  22853339.370 5
        42.000          38.000
  22773112.644 7 119673515.073 7  93252102.42943  22773111.423 3  22773113.374 3
        46.000          29.000
  21540136.186 8 113194204.119 8  88203302.36546  21540135.860 6  21540139.031 6
        51.000          40.000
  21774086.225 7 116558362.986 7  90656538.85746  21774085.179 7  21774085.294 6
        46.000          40.000
  21000272.377 8 112100898.116 8  87189628.89747  21000271.482 7  21000277.376 7
        50.000          47.000
  24886394.324 4 130778893.183 4
        34.000
  21329681.800 8 112088267.155 8  87341520.53145  21329681.381 5  21329684.036 5
        50.000          38.000
  23100204.944 7 121392409.137 7  94591504.14444  23100205.402 4  23100208.042 4
        45.000          31.000
 10  1  4  0 24  0.0000000  0 16G08R08G22G28G15R19R10R09R17G18G27R07
                                R18G11G09G17
  24411763.314 6 128284687.454 6  99962103.45141  24411762.465 1  24411766.900 1
        40.000          15.000
  20669734.951 8 110685498.195 8  86088749.77847  20669734.557 8  20669735.803 7
        50.000          49.000
  24064955.483 6 126462190.152 6  98541985.38242  24064954.878 2  24064955.325 2
        43.000          24.000
  22088698.557 7 116076921.877 7  90449561.53645  22088697.834 5  22088700.065 5
        49.000          36.000
  20836572.655 8 109496938.484 8  85322307.46346  20836572.737 6  20836574.962 6
        53.000          44.000
  22585597.761 7 120817723.233 7  93969365.53846  22585596.816 6  22585599.605 6
        45.000          42.000
  21391994.898 8 114031390.443 8  88691115.61946  21391994.000 7  21391999.289 6
        51.000          40.000
  19244119.988 8 102762554.522 8  79926462.55542  19244119.437 8  19244127.488 2
        53.000          20.000
  22869668.795 6 122380225.892 6  95184663.91945  22869666.966 6  22869669.147 5
        42.000          39.000
  22772565.439 7 119670644.838 7  93249865.86543  22772565.476 3  22772566.674 3
        46.000          29.000
  21530441.758 8 113143257.646 8  88163603.82246  21530441.160 6  21530444.121 6
        51.000          40.000
  21794964.317 7 116670124.363 7  90743464.29946  21794963.201 7  21794963.012 6
        46.000          40.000
  20995933.416 8 112077735.565 8  87171613.60747  20995932.738 7  20995937.723 7
        51.000          46.000
  24878132.027 4 130735473.028 4
        33.000
  21312749.521 7 111999288.918 7  87272186.83945  21312749.175 5  21312751.726 5
        49.000          38.000
  23084773.096 7 121311312.753 7  94528312.18944  23084773.295 4  23084776.275 4
        45.000          31.000
 10  1  4  0 24 30.0000000  0 16G08R08G22G28G15R19R10R09R17G18G27R07
                                R18G11G09G17
  24431882.186 5 128390417.192 5 100044490.24041  24431882.079 1  24431886.090 1
        39.000          15.000
  20669369.839 8 110683546.254 8  86087231.60247  20669369.640 7  20669371.613 7
        51.000          49.000
  24054089.066 6 126405087.165 6  98497489.56042  24054088.723 2  24054087.999 2
        44.000          24.000
  22100505.141 7 116138970.177 7  90497910.87745  22100504.840 5  22100507.554 5
        49.000          35.000
  20844459.610 8 109538384.149 8  85354602.78146  20844459.659 6  20844461.767 6
        52.000          43.000
  22562668.279 7 120695066.776 7  93873966.08946  22562667.053 6  22562669.377 6
        45.000          41.000
  21374298.154 8 113937052.878 8  88617741.96946  21374296.927 8  21374302.109 6
        51.000          40.000
  19245013.612 8 102767325.874 8  79930173.58942  19245013.169 8  19245021.112 2
        54.000          20.000
  22886108.414 6 122468205.685 6  95253092.63845  22886108.402 6  22886110.505 5
        41.000          39.000
  22772131.813 7 119668361.098 7  93248086.32443  22772130.603 3  22772132.578 3
        46.000          29.000
  21520799.052 8 113092586.022 8  88124119.44146  21520798.697 5  21520801.569 6
        51.000          40.000
  21815924.665 7 116782326.934 7  90830732.90146  21815923.729 7  21815923.384 6
        46.000          40.000
  20991752.336 8 112055414.626 8  87154252.88747  20991751.812 8  20991755.851 7
        51.000          47.000
  24869959.785 4 130692524.317 4
        30.000
  21295882.552 8 111910650.882 8  87203118.24745  21295882.023 5  21295884.710 5
        50.000          38.000
  23069409.292 7 121230579.176 7  94465402.93244  23069409.958 4  23069413.144 4
        46.000          31.000
 10  1  4  0 25  0.0000000  0 17G08R08G22G28G15R19R10G26R09R17G18G27
                                R07R18G11G09G17
  24452020.248 5 128496241.615 5 100126950.80441  24452019.884 1  24452023.593 1
        39.000          14.000
  20669165.531 8 110682450.760 8  86086379.54247  20669165.356 8  20669166.506 7
        50.000          49.000
  24043313.383 6 126348459.430 6  98453364.02342  24043312.730 2  24043312.215 2
        44.000          23.000
  22112382.493 7 116201383.618 7  90546544.72145  22112382.008 5  22112384.240 5
        49.000          36.000
  20852446.500 8 109580356.995 8  85387308.87746  20852446.874 6  20852449.078 6
        52.000          44.000
  22539800.128 7 120572738.669 7  93778822.02146  22539799.288 6  22539801.640 6
        45.000          41.000
  21356649.837 8 113842983.078 8  88544576.59346  21356649.665 8  21356654.905 6
        50.000          40.000
  24680443.364 4 129696612.316 4
        32.000
  19246003.942 8 102772617.704 8  79934289.49142  19246003.824 8  19246131.532 2
        54.000          20.000
  22902660.590 6 122556782.939 6  95321986.07045  22902659.656 5  22902663.494 5
        40.000          38.000
  22771809.171 7 119666663.478 7  93246763.48444  22771808.288 4  22771809.410 4
        47.000          30.000
  21511209.144 8 113042189.791 8  88084849.64246  21511208.569 6  21511211.681 6
        51.000          40.000
  21836966.967 7 116894966.982 7  90918341.76446  21836965.923 7  21836965.586 6
        46.000          40.000
  20987728.594 8 112033937.028 8  87137548.09847  20987727.973 8  20987732.240 7
        51.000          46.000
  24861876.374 4 130650048.812 4
        33.000
  21279080.042 7 111822355.393 7  87134316.57345  21279079.852 5  21279082.774 5
        49.000          38.000
  23054116.072 7 121150210.569 7  94402778.04544  23054116.059 4  23054118.761 4
        45.000          31.000
 10  1  4  0 25 30.0000000  0 17G08R08G22G28G15R19R10G26R09R17G18G27
                                R07R18G11G09G17
  24472174.541 5 128602159.727 5 100209484.40041  24472175.229 1  24472177.099 1
        38.000          14.000
  20669120.520 8 110682212.009 8  86086193.85447  20669120.490 8  20669122.226 7
        50.000          49.000
  24032627.046 6 126292308.994 6  98409610.44242  24032626.814 2  24032627.444 2
        42.000          23.000
  22124328.639 7 116264160.225 7  90595461.55045  22124328.147 5  22124330.136 5
        49.000          36.000
  20860534.334 8 109622856.058 8  85420425.00646  20860534.223 6  20860536.342 6
        52.000          44.000
  22516994.212 7 120450743.639 7  93683937.00246  22516993.588 6  22516996.890 6
        45.000          42.000
  21339054.527 8 113749182.318 8  88471620.46646  21339053.086 8  21339058.021 6
        51.000          40.000
  24657510.967 4 129576129.146 4
        31.000
  19247092.844 8 102778429.977 8  79938810.06642  19247092.443 8  19247100.344 2
        53.000          20.000
  22919325.899 6 122645953.993 6  95391341.30945  22919324.264 6  22919326.223 5
        41.000          37.000
  22771597.093 7 119665552.096 7  93245897.46644  22771596.705 4  22771598.259 4
        46.000          30.000
  21501671.715 8 112992069.998 8  88045795.26146  21501671.172 6  21501674.105 6
        51.000          40.000
  21858088.943 7 117008040.285 7  91006287.59946  21858088.621 7  21858088.928 6
        45.000          40.000
  20983863.421 8 112013303.620 8  87121499.90347  20983862.664 8  20983867.051 7
        50.000          47.000
  24853882.800 3 130608048.810 3
        26.000
  21262343.955 8 111734404.184 8  87065783.17145  21262343.352 5  21262346.151 5
        50.000          38.000
  23038892.335 7 121070209.843 7  94340439.83744  23038892.595 4  23038895.567 4
        45.000          31.000
 10  1  4  0 26  0.0000000  0 17G08R08G22G28G15R19R10G26R09R17G18G27
                                R07R18G11G09G17
  24492349.916 5 128708170.170 5 100292089.90341  24492349.116 1  24492352.227 1
        39.000          15.000
  20669235.825 8 110682829.736 8  86086674.30147  20669235.931 7  20669237.551 7
        50.000          49.000
  24022032.791 6 126236637.505 6  98366230.06442  24022031.900 2  24022034.489 2
        41.000          23.000
  22136343.693 7 116327298.289 7  90644660.04245  22136342.783 5  22136344.922 5
        49.000          36.000
  20868721.260 8 109665880.240 8  85453950.32046  20868721.543 6  20868723.563 6
        53.000          44.000
  22494250.775 7 120329085.888 7  93589314.32446  22494250.258 6  22494253.719 6
        45.000          41.000
  21321507.524 8 113655651.952 8  88398874.62946  21321506.648 8  21321512.108 6
        50.000          40.000
  24634612.249 4 129455765.278 4
        32.000
  19248278.656 8 102784762.198 8  79943735.03442  19248278.433 8  19248286.156 2
        54.000          20.000
  22936099.781 6 122735714.657 6  95461155.14145  22936097.678 6  22936100.235 5
        40.000          38.000
  22771496.871 7 119665026.722 7  93245488.08443  22771496.711 3  22771497.717 3
        46.000          29.000
  21492186.747 8 112942227.074 8  88006956.61646  21492186.360 6  21492189.420 6
        51.000          40.000
  21879292.755 7 117121541.568 7  91094566.31946  21879291.832 7  21879291.906 6
        46.000          40.000
  20980155.821 8 111993515.103 8  87106108.83847  20980155.224 8  20980160.070 7
        51.000          46.000
  24845983.888 4 130566525.620 4
        31.000
  21245672.855 8 111646799.192 8  86997519.54145  21245672.808 5  21245675.554 5
        50.000          39.000
  23023739.285 7 120990580.056 7  94278390.65044  23023739.784 4  23023742.408 4
        46.000          31.000
 10  1  4  0 26 30.0000000  0 17G08R08G22G28G15R19R10G26R09R17G18G27
                                R07R18G11G09G17
  24512539.654 5 128814271.423 5 100374766.15641  24512537.536 1  24512540.225 1
        39.000          15.000
  20669511.846 8 110684304.669 8  86087821.46547  20669511.658 8  20669512.838 7
        51.000          49.000
  24011531.836 6 126181446.793 6  98323224.31042  24011530.264 2  24011531.288 2
        42.000          23.000
  22148426.936 7 116390796.086 7  90694138.84945  22148426.313 5  22148427.825 5
        49.000          36.000
  20877008.309 8 109709428.569 8  85487884.06346  20877008.364 6  20877010.520 6
        52.000          43.000
  22471572.213 7 120207769.919 7  93494957.46646  22471572.333 6  22471575.027 6
        45.000          42.000
  21304012.658 8 113562393.628 8  88326340.38746  21304011.672 8  21304017.180 6
        51.000          40.000
  24611730.930 4 129335523.229 4
        34.000
  19249561.636 8 102791614.170 8  79949064.44942  19249561.471 8  19249701.272 2
        54.000          20.000
  22952984.002 6 122826061.605 6  95531424.99945  22952981.930 6  22952982.865 5
        41.000          38.000
  22771508.109 7 119665087.283 7  93245535.26543  22771507.676 3  22771509.221 3
        45.000          29.000
  21482755.183 8 112892661.777 8  87968334.31246  21482754.267 6  21482757.442 6
        51.000          40.000
  21900574.752 7 117235467.524 7  91183175.31646  21900574.043 7  21900574.454 6
        46.000          40.000
  20976607.895 8 111974573.001 8  87091376.11947  20976607.046 8  20976611.624 7
        51.000          46.000
  24838172.087 4 130525481.659 4
        30.000
  21229068.507 7 111559541.899 7  86929526.85545  21229068.101 5  21229071.168 5
        49.000          38.000
  23008658.313 6 120911323.803 6  94216632.55544  23008657.679 4  23008660.359 4
        44.000          31.000
 10  1  4  0 27  0.0000000  0 17G08R08G22G28G15R19R10G26R09R17G18G27
                                R07R18G11G09G17
  24532747.212 5 128920462.611 5 100457512.50841  24532745.382 1  24532748.758 1
        39.000          15.000
  20669947.493 8 110686636.262 8  86089634.92947  20669947.194 8  20669948.182 7
        51.000          49.000
  24001121.705 6 126126738.418 6  98280594.40142  24001120.533 2  24001120.536 2
        43.000          24.000
  22160578.411 8 116454651.613 8  90743896.40445  22160577.879 5  22160578.846 5
        50.000          36.000
  20885394.683 8 109753500.189 8  85522225.55546  20885394.926 6  20885397.269 6
        52.000          44.000
  22448958.730 7 120086800.095 7  93400869.84946  22448957.847 6  22448961.132 6
        45.000          42.000
  21286568.714 8 113469408.942 8  88254018.96046  21286568.116 8  21286573.449 6
        51.000          40.000
  24588871.234 4 129215405.701 4
        34.000
  19250942.064 8 102798985.601 8  79954797.63942  19250941.699 8  19250949.564 2
        54.000          20.000
  22969974.182 6 122916990.741 6  95602147.66545  22969973.294 5  22969976.130 5
        40.000          38.000
  22771631.725 7 119665733.750 7  93246038.99843  22771631.033 3  22771632.676 3
        46.000          29.000
  21473375.775 8 112843374.855 8  87929928.91646  21473375.305 6  21473378.493 6
        51.000          40.000
  21921935.179 7 117349812.854 7  91272110.50646  21921934.787 7  21921934.907 6
        45.000          40.000
  20973217.789 8 111956477.885 8  87077302.13047  20973217.240 8  20973222.456 7
        50.000          47.000
  24830452.177 4 130484918.559 4
        30.000
  21212530.726 8 111472634.368 8  86861806.70945  21212530.324 5  21212533.242 5
        50.000          39.000
  22993647.627 7 120832443.472 7  94155167.36944  22993647.069 4  22993649.816 4
        45.000          31.000
 10  1  4  0 27 30.0000000  0 17G08R08G22G28G15R19R10G26R09R17G18G27
                                R07R18G11G09G17
  24552972.041 5 129026742.478 5 100540327.95941  24552968.874 1  24552974.965 1
        38.000          15.000
  20670542.039 8 110689824.642 8  86092114.77647  20670542.232 8  20670543.854 7
        51.000          49.000
  23990802.482 6 126072514.480 6  98238342.00642  23990801.959 2  23990801.935 2
        43.000          24.000
  22172797.188 7 116518863.149 7  90793931.37645  22172796.594 5  22172798.579 5
        49.000          36.000
  20893880.855 8 109798093.867 8  85556973.86046  20893880.802 6  20893883.104 6
        51.000          43.000
  22426409.788 7 119966181.164 7  93307055.14246  22426409.381 6  22426412.529 6
        45.000          42.000
  21269177.337 8 113376699.243 8  88181911.43146  21269176.077 8  21269180.846 6
        51.000          40.000
  24566040.208 5 129095415.210 5
        36.000
  19252419.755 8 102806876.113 8  79960934.77242  19252419.499 8  19252427.255 2
        53.000          20.000
  22987075.768 6 123008498.229 6  95673320.17145  22987074.696 6  22987075.946 5
        41.000          37.000
  22771865.943 7 119666966.192 7  93246999.32943  22771864.693 3  22771866.818 3
        46.000          29.000
  21464050.058 8 112794367.037 8  87891741.00846  21464049.502 6  21464052.637 6
        51.000          40.000
  21943373.664 7 117464573.799 7  91361368.96446  21943372.871 7  21943373.945 6
        45.000          40.000
  20969986.617 8 111939230.883 8  87063887.81247  20969985.894 8  20969990.992 7
        51.000          47.000
  24822824.951 4 130444838.095 4
        32.000
  21196059.391 8 111386078.620 8  86794360.68845  21196059.307 5  21196062.223 5
        50.000          39.000
  22978708.994 7 120753941.838 7  94093997.28444  22978709.270 4  22978711.800 4
        46.000          32.000
 10  1  4  0 28  0.0000000  0 17G08R08G22G28G15R19R10G26R09R17G18G27
                                R07R18G11G09G17
  24573211.365 5 129133109.669 5 100623211.48441  24573210.422 1  24573213.381 1
        37.000          14.000
  20671297.675 8 110693869.812 8  86095261.01347  20671297.702 8  20671299.383 7
        50.000          49.000
  23980576.385 6 126018776.661 6  98196468.37442  23980576.212 2  23980575.653 2
        42.000          24.000
  22185083.999 7 116583428.555 7  90844242.08245  22185083.012 5  22185084.814 5
        49.000          36.000
  20902465.941 8 109843209.104 8  85592128.56946  20902465.895 6  20902468.212 6
        52.000          44.000
  22403928.763 7 119845917.442 7  93213516.71546  22403927.779 6  22403930.457 6
        46.000          42.000
  21251836.572 8 113284266.296 8  88110019.16346  21251835.384 8  21251841.062 6
        51.000          41.000
  24543229.877 5 128975554.035 5 100500441.67041  24543229.027 1  24543231.548 1
        35.000          11.000
  19253994.880 8 102815285.053 8  79967475.03742  19253994.373 8  19254002.380 2
        54.000          20.000
  23004284.287 6 123100580.401 6  95744939.63245  23004282.768 6  23004283.508 5
        42.000          37.000
  22772212.022 7 119668784.041 7  93248415.83143  22772211.042 3  22772212.574 3
        45.000          29.000
  21454777.143 8 112745638.884 8  87853771.02146  21454776.821 6  21454779.759 6
        51.000          40.000
  21964889.500 7 117579746.262 7  91450947.47146  21964888.288 7  21964889.164 6
        45.000          40.000
  20966915.067 8 111922832.867 8  87051133.81947  20966914.370 8  20966919.400 7
        51.000          47.000
  24815291.699 4 130405242.058 4
        34.000
  21179656.099 8 111299876.530 8  86727190.23245  21179655.784 5  21179658.401 5
        51.000          39.000
  22963843.280 7 120675821.642 7  94033124.41144  22963843.139 4  22963845.930 4
        45.000          31.000
 10  1  4  0 28 30.0000000  0 17G08R08G22G28G15R19R10G26R09R17G18G27
                                R07R18G11G09G17
  24593469.057 5 129239563.136 5 100706162.19441  24593470.084 1  24593471.055 1
        37.000          14.000
  20672213.790 8 110698771.314 8  86099073.28347  20672213.049 7  20672214.791 7
        51.000          49.000
  23970443.198 6 125965526.784 6  98154974.98142  23970443.503 2  23970442.850 2
        43.000          24.000
  22197437.113 7 116648346.487 7  90894827.47745  22197436.447 5  22197438.339 5
        49.000          35.000
  20911150.015 8 109888844.961 8  85627688.95846  20911150.224 6  20911152.362 6
        52.000          43.000
  22381513.547 7 119726013.448 7  93120258.07646  22381513.051 6  22381516.037 6
        45.000          42.000
  21234547.592 8 113192111.071 8  88038342.87246  21234547.093 8  21234552.367 6
        50.000          40.000
  24520446.080 5 128855824.857 5 100407146.23941  24520446.998 1  24520447.517 1
        36.000          12.000
  19255666.432 8 102824212.648 8  79974418.62942  19255666.040 8  19255673.932 2
        53.000          20.000
  23021595.866 6 123193233.358 6  95817003.02145  23021595.844 6  23021598.430 5
        41.000          37.000
  22772668.249 7 119671187.265 7  93250288.46043  22772668.423 3  22772670.708 3
        45.000          29.000
  21445557.894 8 112697191.180 8  87816019.56146  21445557.570 6  21445560.679 6
        51.000          40.000
  21986480.317 7 117695326.193 7  91540842.92046  21986479.641 7  21986480.167 6
        46.000          40.000
  20964001.751 8 111907284.748 8  87039040.83347  20964001.410 8  20964006.629 7
        51.000          47.000
  24807848.498 5 130366132.613 5
        35.000
  21163319.836 8 111214030.223 8  86660297.00945  21163319.293 5  21163322.225 5
        51.000          39.000
  22949050.632 7 120598085.686 7  93972550.95644  22949050.636 4  22949052.812 4
        46.000          31.000
 10  1  4  0 29  0.0000000  0 17G08R08G22G28G15R19R10G26R09R17G18G27
                                R07R18G11G09G17
  24613742.571 5 129346101.760 5 100789179.23741  24613741.836 1  24613747.577 1
        38.000          15.000
  20673288.645 8 110704529.213 8  86103551.64647  20673288.315 8  20673289.840 7
        51.000          49.000
  23960402.414 6 125912766.735 6  98113863.25942  23960401.763 2  23960403.642 2
        43.000          23.000
  22209857.125 8 116713614.858 8  90945685.95745  22209856.388 5  22209858.450 5
        50.000          36.000
  20919933.221 8 109935000.326 8  85663654.17146  20919933.186 6  20919935.581 6
        52.000          43.000
  22359167.497 7 119606473.628 7  93027282.67746  22359166.211 6  22359169.232 6
        46.000          43.000
  21217312.988 8 113100235.294 8  87966883.94846  21217312.000 8  21217317.004 6
        51.000          41.000
  24497686.899 5 128736230.192 5 100313955.61941  24497687.014 1  24497689.511 1
        36.000          13.000
  19257435.279 8 102833658.394 8  79981766.05742  19257434.873 8  19257588.053 2
        54.000          20.000
  23039018.025 6 123286453.201 6  95889507.34545  23039016.791 6  23039018.772 5
        41.000          38.000
  22773238.099 7 119674175.536 7  93252616.96943  22773237.560 3  22773238.838 3
        46.000          29.000
  21436392.424 8 112649024.495 8  87778487.08246  21436392.004 6  21436394.624 6
        51.000          40.000
  22008147.192 7 117811308.731 7  91631051.49545  22008146.406 6  22008146.394 5
        45.000          39.000
  20961249.269 8 111892587.326 8  87027609.52347  20961247.901 8  20961252.375 7
        50.000          46.000
  24800498.862 5 130327511.354 5
        35.000
  21147052.216 8 111128541.447 8  86593682.37845  21147051.579 5  21147054.341 5
        51.000          39.000
  22934331.241 7 120520736.585 7  93912278.93744  22934331.357 4  22934334.047 4
        46.000          32.000
 10  1  4  0 29 30.0000000  0 17G08R08G22G28G15R19R10G26R09R17G18G27
                                R07R18G11G09G17
  24634033.760 5 129452724.117 5 100872261.58541  24634032.937 1  24634036.462 1
        38.000          14.000
  20674523.714 8 110711143.371 8  86108695.98547  20674523.333 8  20674525.022 7
        50.000          49.000
  23950456.424 6 125860498.099 6  98073134.43342  23950456.538 2  23950456.641 2
        43.000          24.000
  22222344.242 7 116779231.781 7  90996816.01545  22222343.479 5  22222345.222 5
        49.000          35.000
  20928814.882 8 109981674.265 8  85700023.46146  20928815.035 6  20928817.246 6
        51.000          43.000
  22336889.003 7 119487302.427 7  92934594.00946  22336887.770 6  22336892.182 6
        45.000          43.000
  21200128.914 8 113008640.566 8  87895643.60246  21200128.813 8  21200134.156 6
        50.000          41.000
  24474955.222 5 128616772.442 5 100220871.67041  24474953.403 1  24474957.612 1
        36.000          14.000
  19259301.596 8 102843622.173 8  79989515.17942  19259301.100 8  19259309.096 2
        53.000          20.000
  23056544.472 6 123380236.131 6  95962449.61445  23056542.111 6  23056545.988 5
        41.000          39.000
  22773918.694 7 119677748.691 7  93255401.24443  22773917.673 3  22773918.748 3
        47.000          29.000
  21427280.340 8 112601139.780 8  87741174.31646  21427279.628 6  21427282.559 6
        51.000          40.000
  22029888.045 7 117927689.177 7  91721569.55645  22029887.386 6  22029887.395 5
        45.000          39.000
  20958654.978 8 111878741.421 8  87016840.49247  20958654.386 8  20958658.990 7
        50.000          47.000
  24793240.878 4 130289379.864 4
        34.000
  21130852.712 8 111043412.405 8  86527348.06345  21130852.081 5  21130854.526 5
        50.000          39.000
  22919686.248 7 120443776.983 7  93852310.42544  22919686.353 4  22919689.245 4
        45.000          32.000
 10  1  4  0 30  0.0000000  0 17G08R08G22G28G15R19R10G26R09R17G18G27
                                R07R18G11G09G17
  24654338.506 5 129559429.146 5 100955408.28441  24654336.447 1  24654341.257 1
        37.000          14.000
  20675919.092 8 110718613.312 8  86114505.94247  20675918.629 8  20675920.113 7
        51.000          49.000
  23940602.642 6 125808722.537 6  98032789.83142  23940603.460 2  23940603.415 2
        42.000          23.000
  22234896.155 7 116845195.445 7  91048216.27345  22234895.331 5  22234897.393 5
        48.000          35.000
  20937795.346 8 110028865.572 8  85736795.88446  20937795.425 6  20937797.490 6
        52.000          44.000
  22314680.258 7 119368504.203 7  92842195.40646  22314679.860 6  22314683.920 6
        46.000          43.000
  21183001.358 8 112917328.618 8  87824623.20446  21182999.542 8  21183004.210 6
        52.000          41.000
  24452249.087 5 128497454.485 5 100127896.65441  24452247.708 1  24452251.182 1
        37.000          14.000
  19261264.070 8 102854102.992 8  79997666.95042  19261263.613 8  19261271.570 2
        54.000          20.000
  23074173.530 6 123474578.100 6  96035826.72345  23074172.569 6  23074174.832 5
        41.000          38.000
  22774709.148 7 119681906.706 7  93258641.23943  22774708.856 3  22774710.463 3
        46.000          29.000
  21418221.732 8 112553537.674 8  87704081.76646  21418221.303 6  21418224.197 6
        52.000          40.000
  22051703.064 7 118044464.262 7  91812394.56345  22051701.766 6  22051701.851 5
        45.000          39.000
  20956221.051 8 111865748.030 8  87006734.53447  20956219.960 7  20956225.385 7
        50.000          47.000
  24786081.587 5 130251740.138 5
        37.000
  21114722.134 8 110958644.801 8  86461295.39245  21114721.545 5  21114723.833 5
        51.000          39.000
  22905115.619 7 120367209.426 7  93792647.40844  22905116.052 4  22905118.857 4
        45.000          32.000
 10  1  4  0 30 30.0000000  0 17G08R08G22G28G15R19R10G26R09R17G18G27
                                R07R18G11G09G17
  24674660.459 5 129666215.794 5 101038618.67241  24674660.131 1  24674663.382 1
        38.000          15.000
  20677473.420 8 110726938.896 8  86120981.39647  20677473.315 8  20677474.374 7
        50.000          49.000
  23930845.461 6 125757441.780 6  97992830.80142  23930845.254 2  23930845.646 2
        42.000          24.000
  22247514.145 7 116911503.751 7  91099885.08845  22247513.602 5  22247515.373 5
        49.000          35.000
  20946873.637 8 110076572.986 8  85773970.46746  20946873.791 6  20946876.058 6
        53.000          43.000
  22292542.552 7 119250083.600 7  92750090.50846  22292542.192 6  22292545.722 6
        45.000          43.000
  21165923.148 8 112826300.774 8  87753823.77846  21165922.436 8  21165927.629 6
        51.000          41.000
  24429570.786 5 128378278.418 5 100035032.20841  24429570.639 1  24429572.007 1
        38.000          16.000
  19263323.752 8 102865100.832 8  80006220.68342  19263323.315 8  19263331.252 2
        54.000          20.000
  23091907.652 6 123569475.165 6  96109635.55045  23091905.994 6  23091909.313 5
        41.000          38.000
  22775610.853 7 119686649.132 7  93262336.62843  22775611.091 3  22775612.538 3
        45.000          29.000
  21409217.262 8 112506218.882 8  87667209.98646  21409216.611 6  21409219.583 6
        51.000          41.000
  22073591.146 7 118161628.986 7  91903522.61245  22073589.718 6  22073589.859 5
        45.000          39.000
  20953946.211 8 111853607.236 8  86997291.71647  20953945.704 8  20953950.542 7
        50.000          46.000
  24779013.772 4 130214593.803 4
        34.000
  21098660.177 8 110874240.168 8  86395525.54645  21098659.667 6  21098662.320 5
        50.000          39.000
  22890621.052 7 120291036.823 7  93733292.13444  22890621.082 4  22890623.833 4
        45.000          32.000
 10  1  4  0 31  0.0000000  0 17G08R08G22G28G15R19R10G26R09R17G18G27
                                R07R18G11G09G17
  24694994.026 5 129773082.607 5 101121891.46541  24694996.115 1  24694997.811 1
        37.000          14.000
  20679188.162 8 110736119.751 8  86128122.06247  20679187.696 8  20679189.365 7
        51.000          49.000
  23921181.592 6 125706657.622 6  97953258.73442  23921180.533 2  23921181.803 2
        42.000          24.000
  22260197.457 7 116978155.454 7  91151821.48645  22260197.134 5  22260198.874 5
        49.000          35.000
  20956050.033 8 110124795.967 8  85811546.77546  20956050.264 6  20956052.592 6
        52.000          43.000
  22270476.891 7 119132045.130 7  92658282.83146  22270476.469 6  22270479.780 6
        45.000          43.000
  21148900.850 8 112735558.276 8  87683246.28746  21148899.815 8  21148904.420 6
        52.000          40.000
  24406919.445 5 128259247.256 5  99942280.64641  24406919.152 1  24406921.447 1
        38.000          16.000
  19265479.832 8 102876615.271 8  80015176.38342  19265479.325 8  19265487.332 2
        53.000          20.000
  23109744.241 6 123664923.727 6  96183873.29045  23109743.337 6  23109743.824 5
        42.000          37.000
  22776625.275 7 119691975.480 7  93266487.00543  22776624.335 3  22776625.956 3
        46.000          29.000
  21400266.747 8 112459184.033 8  87630559.45046  21400266.364 6  21400269.043 6
        52.000          40.000
  22095550.319 7 118279179.102 7  91994950.43546  22095549.018 6  22095549.601 6
        45.000          40.000
  20951832.446 8 111842320.122 8  86988512.86947  20951831.676 8  20951836.897 7
        51.000          47.000
  24772036.271 3 130177942.898 3
        25.000
  21082668.023 8 110790200.831 8  86330040.35345  21082667.535 5  21082670.098 5
        51.000          39.000
  22876201.969 7 120215261.494 7  93674246.43144  22876201.598 4  22876203.942 4
        47.000          32.000
 10  1  4  0 31 30.0000000  0 18G08R08G22G28G15R19R10G26R09R17G18G27
                                R07R18G12G11G09G17
  24715347.233 5 129880028.307 5 101205225.77541  24715345.372 1  24715347.944 1
        36.000          13.000
  20681061.738 8 110746155.265 8  86135927.46047  20681061.331 7  20681063.237 7
        50.000          49.000
  23911612.144 6 125656371.815 6  97914074.98043  23911611.681 3  23911612.864 3
        43.000          25.000
  22272946.123 7 117045148.332 7  91204023.73144  22272944.913 4  22272946.663 4
        48.000          34.000
  20965324.869 8 110173533.331 8  85849523.90846  20965324.856 6  20965326.956 6
        52.000          43.000
  22248483.114 7 119014393.173 7  92566775.77846  22248482.398 6  22248485.904 6
        45.000          43.000
  21131931.504 8 112645102.849 8  87612892.09246  21131930.432 8  21131935.505 6
        52.000          41.000
  24384297.608 5 128140363.229 5  99849643.77241  24384297.594 1  24384299.360 1
        38.000          17.000
  19267732.866 8 102888646.116 8  80024533.65442  19267732.284 8  19267740.366 2
        53.000          20.000
  23127683.129 6 123760919.773 6  96258536.89445  23127682.002 6  23127685.152 5
        41.000          38.000
  22777750.190 7 119697885.584 7  93271092.27143  22777749.333 3  22777750.663 3
        46.000          29.000
  21391370.066 8 112412433.575 8  87594130.52546  21391369.919 6  21391372.771 6
        51.000          40.000
  22117580.905 7 118397110.812 7  92086675.04845  22117579.338 6  22117579.763 5
        45.000          39.000
  20949878.435 8 111831886.851 8  86980398.11447  20949877.519 8  20949881.809 7
        51.000          46.000
  25164776.436 5 132241783.270 5
        37.000
  24765155.155 4 130141788.754 4
        32.000
  21066745.962 8 110706528.455 8  86264841.10446  21066745.173 6  21066748.114 6
        51.000          40.000
  22861858.327 7 120139886.202 7  93615512.44844  22861858.005 4  22861860.420 4
        45.000          32.000
 10  1  4  0 32  0.0000000  0 17G08R08G22G28G15R19R10G26R09R17G18G27
                                R07R18G12G09G17
  24735710.517 5 129987051.681 5 101288620.59841  24735710.516 1  24735717.343 1
        35.000          13.000
  20683095.624 8 110757045.051 8  86144397.27747  20683095.203 8  20683096.778 7
        51.000          49.000
  23902138.753 6 125606585.857 6  97875280.69943  23902138.950 3  23902138.388 3
        44.000          25.000
  22285758.668 8 117112480.449 8  91256490.31645  22285758.288 5  22285759.687 5
        50.000          35.000
  20974696.746 8 110222783.786 8  85887900.85246  20974696.769 6  20974699.125 6
        53.000          43.000
  22226561.754 7 118897132.023 7  92475572.66746  22226561.474 6  22226564.515 6
        45.000          42.000
  21115016.296 8 112554936.055 8  87542762.37046  21115015.705 8  21115020.069 6
        52.000          40.000
  24361702.090 5 128021629.163 5  99757123.73541  24361703.803 1  24361705.990 1
        37.000          18.000
  19270082.458 8 102901192.801 8  80034292.22142  19270082.013 8  19270089.958 2
        54.000          20.000
  23145725.208 6 123857459.228 6  96333623.13845  23145723.700 6  23145725.433 5
        41.000          37.000
  22778985.711 7 119704379.059 7  93276152.12343  22778985.096 3  22778986.750 3
        46.000          29.000
  21382528.531 8 112365968.372 8  87557923.87146  21382528.181 6  21382530.897 6
        52.000          40.000
  22139680.761 7 118515418.677 7  92178692.24546  22139680.278 6  22139681.292 6
        45.000          40.000
  20948082.838 8 111822308.137 8  86972948.02747  20948082.779 8  20948087.280 7
        51.000          47.000
  25142700.383 5 132125791.805 5 102955181.88741  25142701.363 1  25142706.100 1
        36.000          14.000
  21050893.484 8 110623224.992 8  86199929.31745  21050892.940 5  21050895.580 5
        51.000          39.000
  22847591.653 7 120064913.480 7  93557092.15144  22847591.467 4  22847593.680 4
        47.000          33.000
 10  1  4  0 32 30.0000000  0 18G08R08G22G28G15R19R10G26R09R17G18G27
                                R07R18G12G11G09G17
  24756091.598 5 130094151.614 5 101372075.00241  24756092.707 1  24756094.958 1
        36.000          13.000
  20685288.728 8 110768788.654 8  86153531.18447  20685288.374 8  20685290.018 7
        50.000          49.000
  23892759.868 6 125557301.423 6  97836877.26442  23892759.929 3  23892760.517 2
        43.000          24.000
  22298635.704 7 117180149.997 7  91309219.83244  22298635.178 4  22298637.212 4
        48.000          34.000
  20984166.383 8 110272546.344 8  85926676.83746  20984166.347 6  20984168.613 6
        52.000          43.000
  22204715.708 7 118780266.463 7  92384677.25546  22204714.914 6  22204718.388 6
        45.000          42.000
  21098155.749 8 112465059.042 8  87472858.04346  21098154.522 8  21098159.704 6
        52.000          41.000
  24339137.411 5 127903047.667 5  99664722.60041  24339137.925 1  24339142.028 1
        38.000          17.000
  19272528.644 8 102914254.827 8  80044451.47442  19272528.019 8  19272536.144 2
        53.000          20.000
  23163865.992 6 123954538.558 6  96409129.30845  23163864.379 6  23163866.073 5
        41.000          35.000
  22780332.654 7 119711455.504 7  93281666.22943  22780331.646 3  22780333.705 3
        46.000          29.000
  21373740.912 8 112319789.315 8  87521940.19146  21373740.451 6  21373743.311 6
        52.000          41.000
  22161852.436 7 118634099.211 7  92270999.25946  22161850.704 6  22161851.422 6
        45.000          40.000
  20946448.714 8 111813584.972 8  86966163.33747  20946448.070 8  20946453.339 7
        50.000          47.000
  25120639.174 4 132009859.782 4 102864845.27041  25120640.188 1  25120646.057 1
        34.000          12.000
  24751685.777 4 130070973.468 4
        30.000
  21035111.902 8 110540292.565 8  86135306.64745  21035111.519 5  21035114.208 5
        50.000          39.000
  22833401.459 7 119990345.969 7  93498987.61644  22833401.974 4  22833403.888 4
        47.000          32.000
 10  1  4  0 33  0.0000000  0 18G08R08G22G28G15R19R10G26R09R17G18G27
                                R07R18G12G11G09G17
  24776487.285 5 130201327.512 5 101455588.68541  24776486.390 1  24776491.130 1
        35.000          12.000
  20687641.047 8 110781385.604 8  86163328.79747  20687640.653 7  20687641.970 7
        51.000          48.000
  23883476.857 6 125508520.567 6  97798866.22442  23883477.466 3  23883477.541 2
        43.000          24.000
  22311577.288 7 117248155.429 7  91362211.08345  22311576.437 4  22311577.735 5
        49.000          35.000
  20993733.255 8 110322819.993 8  85965851.06846  20993733.186 6  20993735.442 6
        52.000          43.000
  22182943.447 7 118663800.830 7  92294092.90446  22182943.594 7  22182946.118 6
        46.000          43.000
  21081349.473 8 112375473.771 8  87403180.60546  21081348.439 8  21081353.823 6
        52.000          41.000
  24316601.858 5 127784621.219 5  99572442.27541  24316600.757 1  24316605.959 1
        39.000          17.000
  19275070.567 8 102927832.035 8  80055011.54542  19275070.404 8  19275078.067 2
        53.000          20.000
  23182107.019 6 124052153.132 6  96485051.76645  23182106.071 6  23182107.696 5
        42.000          37.000
  22781789.704 7 119719114.808 7  93287634.50243  22781789.272 3  22781790.926 3
        45.000          29.000
  21365008.131 8 112273896.900 8  87486179.86146  21365007.469 6  21365010.057 6
        51.000          40.000
  22184090.515 6 118753148.007 6  92363592.71646  22184089.783 6  22184091.027 6
        44.000          40.000
  20944975.085 8 111805716.897 8  86960043.74847  20944974.525 8  20944979.224 7
        51.000          47.000
  25098592.825 5 131893988.862 5 102774556.20341  25098592.044 1  25098596.185 1
        37.000          15.000
  24745087.468 4 130036319.666 4
        32.000
  21019401.221 8 110457733.095 8  86070974.59446  21019400.872 5  21019403.724 6
        51.000          40.000
  22819289.521 7 119916186.209 7  93441200.79844  22819289.754 4  22819291.702 4
        46.000          33.000
 10  1  4  0 33 30.0000000  0 18G08R08G22G28G15R19R10G26R09R17G18G27
                                R07R18G12G11G09G17
  24796895.453 5 130308577.581 5 101539160.14241  24796896.202 1  24796898.959 1
        36.000          13.000
  20690152.057 8 110794835.330 8  86173789.70247  20690152.126 7  20690154.034 7
        50.000          48.000
  23874290.812 6 125460244.273 6  97761248.32543  23874291.058 3  23874291.436 3
        44.000          25.000
  22324582.138 8 117316494.593 8  91415462.36345  22324581.326 5  22324582.939 5
        50.000          35.000
  21003396.668 8 110373603.422 8  86005422.54446  21003396.935 6  21003399.238 6
        52.000          43.000
  22161247.057 7 118547739.359 7  92203822.90146  22161246.712 6  22161249.866 6
        45.000          43.000
  21064598.486 8 112286181.275 8  87333730.89646  21064597.665 8  21064602.701 6
        51.000          41.000
  24294095.399 5 127666352.421 5  99480284.78541  24294093.546 1  24294099.962 1
        38.000          15.000
  19277709.955 8 102941923.897 8  80065971.86742  19277709.458 8  19277717.455 2
        54.000          20.000
  23200447.898 6 124150299.272 6  96561387.65645  23200446.656 5  23200448.881 5
        40.000          38.000
  22783358.082 7 119727356.148 7  93294056.33143  22783357.545 3  22783359.053 3
        46.000          29.000
  21356329.357 8 112228291.915 8  87450643.51646  21356328.784 6  21356332.006 6
        51.000          40.000
  22206397.805 6 118872560.539 6  92456469.09645  22206396.980 6  22206397.899 5
        44.000          39.000
  20943661.693 8 111798705.105 8  86954590.13747  20943660.949 8  20943665.913 7
        51.000          47.000
  25076556.357 5 131778180.864 5 102684316.22941  25076553.679 1  25076559.809 1
        36.000          14.000
  24738589.249 3 130002169.570 3
        29.000
  21003762.479 8 110375548.192 8  86006934.41846  21003761.778 6  21003764.524 6
        51.000          40.000
  22805255.239 7 119842436.943 7  93383733.86144  22805255.054 4  22805257.840 4
        45.000          32.000
 10  1  4  0 34  0.0000000  0 18G08R08G22G28G15R19R10G26R09R17G18G27
                                R07R18G12G11G09G17
  24817321.346 5 130415900.993 5 101622788.76641  24817317.264 1  24817322.928 1
        37.000          12.000
  20692823.469 8 110809136.966 8  86184913.18147  20692823.272 8  20692824.437 7
        51.000          49.000
  23865199.556 6 125412474.262 6  97724024.91543  23865200.255 3  23865201.054 3
        43.000          25.000
  22337648.606 7 117385165.589 7  91468972.23645  22337648.180 5  22337650.170 5
        49.000          35.000
  21013157.366 8 110424895.463 8  86045390.33946  21013157.490 6  21013159.660 6
        52.000          43.000
  22139628.128 7 118432086.658 7  92113870.82846  22139627.247 7  22139629.891 6
        47.000          43.000
  21047901.913 8 112197183.490 8  87264510.40046  21047901.618 8  21047906.983 6
        52.000          41.000
  24271620.617 5 127548243.884 5  99388252.15141  24271619.923 1  24271624.784 1
        38.000          14.000
  19280445.225 8 102956529.815 8  80077331.87342  19280444.834 8  19280452.725 2
        54.000          20.000
  23218889.136 6 124248973.143 6  96638133.97145  23218887.421 6  23218888.187 5
        41.000          38.000
  22785037.166 7 119736179.150 7  93300931.37843  22785036.408 3  22785037.995 3
        46.000          29.000
  21347705.846 8 112182975.000 8  87415331.63146  21347705.458 6  21347708.441 6
        52.000          41.000
  22228771.423 6 118992331.646 6  92549624.33845  22228771.403 6  22228772.525 5
        44.000          39.000
  20942508.937 8 111792549.600 8  86949802.53447  20942508.003 8  20942513.053 7
        51.000          47.000
  25054528.827 5 131662438.047 5 102594126.98441  25054531.327 1  25054533.796 1
        38.000          16.000
  24732189.115 5 129968524.290 5
        35.000
  20988194.447 8 110293739.912 8  85943187.70946  20988194.169 6  20988196.680 6
        51.000          40.000
  22791299.956 7 119769100.441 7  93326588.53144  22791300.103 4  22791302.224 4
        47.000          32.000
 10  1  4  0 34 30.0000000  0 18G08R08G22G28G15R19R10G26R09R17G18G27
                                R07R18G12G11G09G17
  24837757.087 5 130523296.209 5 101706473.37441  24837755.136 1  24837758.562 1
        36.000          12.000
  20695653.084 8 110824290.235 8  86196699.05447  20695652.933 8  20695654.756 7
        50.000          49.000
  23856205.789 6 125365212.323 6  97687197.44042  23856206.730 2  23856205.592 2
        42.000          24.000
  22350779.916 8 117454166.617 8  91522739.26545  22350779.485 5  22350781.266 5
        50.000          35.000
  21023014.374 8 110476695.012 8  86085753.59346  21023014.610 6  21023016.846 6
        52.000          42.000
  22118085.089 7 118316847.030 7  92024240.01846  22118084.250 7  22118087.168 6
        47.000          43.000
  21031262.174 8 112108481.771 8  87195520.19046  21031261.236 8  21031266.878 6
        51.000          41.000
  24249176.452 5 127430298.338 5  99296346.55341  24249176.085 1  24249179.217 1
        39.000          15.000
  19283276.733 8 102971649.685 8  80089091.79842  19283276.240 8  19283442.054 2
        54.000          20.000
  23237425.165 6 124348170.739 6  96715287.64745  23237424.462 6  23237425.811 5
        41.000          37.000
  22786826.651 7 119745583.507 7  93308259.44343  22786826.119 3  22786828.117 3
        47.000          29.000
  21339137.552 8 112137947.052 8  87380244.92446  21339136.928 6  21339139.954 6
        52.000          41.000
  22251212.447 6 119112458.384 6  92643056.20945  22251212.230 6  22251212.727 5
        44.000          38.000
  20941516.729 8 111787251.050 8  86945681.45547  20941515.639 8  20941519.957 7
        51.000          47.000
  25032518.032 5 131546761.692 5 102503989.53541  25032517.124 1  25032521.211 1
        38.000          16.000
  24725879.215 3 129935385.934 3
        29.000
  20972698.680 8 110212310.016 8  85879735.84646  20972698.385 6  20972701.434 6
        51.000          40.000
  22777423.630 7 119696179.317 7  93269766.89644  22777423.163 4  22777425.785 4
        46.000          32.000
 10  1  4  0 35  0.0000000  0 18G08R08G22G28G15R19R10G26R09R17G18G27
                                R07R18G12G11G09G17
  24858204.753 5 130630762.403 5 101790213.23441  24858204.649 1  24858208.583 1
        36.000          12.000
  20698641.900 8 110840294.261 8  86209146.61347  20698641.651 8  20698643.074 7
        50.000          49.000
  23847309.967 6 125318459.787 6  97650766.89642  23847309.913 2  23847310.160 2
        43.000          24.000
  22363972.562 7 117523495.778 7  91576761.97545  22363971.664 4  22363973.386 5
        48.000          35.000
  21032967.727 8 110529001.032 8  86126511.49746  21032968.078 6  21032970.502 6
        52.000          43.000
  22096620.139 7 118202025.142 7  91934934.12346  22096619.221 7  22096622.730 6
        46.000          44.000
  21014677.887 8 112020077.529 8  87126761.34046  21014677.181 8  21014682.291 6
        52.000          41.000
  24226763.014 5 127312518.279 5  99204569.90241  24226762.111 1  24226765.941 1
        39.000          16.000
  19286204.016 8 102987282.744 8  80101250.84342  19286203.801 8  19286211.516 2
        53.000          20.000
  23256060.196 6 124447887.921 6  96792845.44145  23256058.613 6  23256060.224 5
        41.000          37.000
  22788727.285 7 119755568.483 7  93316039.92543  22788726.621 3  22788727.410 3
        48.000          29.000
  21330623.834 8 112093208.578 8  87345383.77946  21330623.524 6  21330626.521 6
        52.000          41.000
  22273719.676 6 119232934.974 6  92736760.17445  22273718.798 6  22273719.143 5
        44.000          39.000
  20940683.648 8 111782808.743 8  86942226.34647  20940682.993 8  20940687.660 7
        51.000          47.000
  25010517.240 5 131431153.982 5 102413905.53741  25010517.208 1  25010520.522 1
        39.000          15.000
  24719674.179 3 129902755.813 3
        29.000
  20957276.255 8 110131260.289 8  85816580.21446  20957275.436 6  20957277.705 6
        52.000          40.000
  22763626.505 7 119623676.300 7  93213271.06444  22763626.464 4  22763628.895 4
        47.000          33.000
 10  1  4  0 35 30.0000000  0 18G08R08G22G28G15R19R10G26R09R17G18G27
                                R07R18G12G11G09G17
  24878669.725 5 130738298.325 5 101874007.43741  24878668.049 1  24878671.726 1
        36.000          13.000
  20701789.630 8 110857148.143 8  86222255.18147  20701789.114 8  20701790.644 7
        51.000          49.000
  23838511.165 7 125272218.312 7  97614734.56143  23838511.293 3  23838510.875 3
        45.000          25.000
  22377227.361 7 117593151.201 7  91631038.94244  22377226.533 4  22377228.196 4
        49.000          34.000
  21043017.932 8 110581812.287 8  86167663.09846  21043017.907 6  21043020.117 6
        52.000          43.000
  22075233.996 7 118087625.286 7  91845956.48546  22075233.113 7  22075236.789 6
        46.000          44.000
  20998149.023 8 111931972.438 8  87058235.16646  20998148.483 8  20998154.146 6
        51.000          41.000
  24204382.091 5 127194906.653 5  99112924.45941  24204382.971 1  24204385.183 1
        38.000          17.000
  19289227.946 8 103003428.693 8  80113809.48242  19289227.440 8  19289391.559 2
        54.000          20.000
  23274791.163 6 124548120.725 6  96870804.31745  23274789.013 5  23274792.393 5
        40.000          38.000
  22790737.993 7 119766133.629 7  93324272.50743  22790736.613 3  22790738.147 3
        47.000          29.000
  21322165.696 8 112048760.381 8  87310748.82746  21322165.325 6  21322168.324 6
        51.000          41.000
  22296291.133 6 119353758.700 6  92830734.12145  22296289.824 6  22296289.731 5
        44.000          38.000
  20940012.399 8 111779224.277 8  86939438.43147  20940011.697 8  20940016.071 7
        51.000          47.000
  24988532.937 6 131315616.479 6 102323876.20641  24988532.441 1  24988534.207 1
        40.000          15.000
  24713559.434 4 129870635.429 4
        30.000
  20941925.138 8 110050592.919 8  85753722.52346  20941924.743 6  20941927.269 6
        51.000          40.000
  22749910.033 7 119551594.005 7  93157103.05944  22749909.444 4  22749912.039 4
        47.000          32.000
 10  1  4  0 36  0.0000000  0 18G08R08G22G28G15R19R10G26R09R17G18G27
                                R07R18G12G11G09G17
  24899146.317 5 130845902.568 5 101957854.88041  24899145.701 1  24899148.535 1
        36.000          11.000
  20705095.243 8 110874850.995 8  86236024.05347  20705094.610 8  20705096.306 7
        50.000          49.000
  23829808.616 6 125226489.341 6  97579101.59443  23829809.076 3  23829808.048 3
        44.000          25.000
  22390543.900 7 117663131.198 7  91685568.79344  22390543.436 4  22390545.313 4
        49.000          34.000
  21053163.477 8 110635127.458 8  86209207.35846  21053163.316 6  21053165.802 6
        52.000          43.000
  22053928.582 7 117973651.914 7  91757310.53546  22053927.134 7  22053930.280 6
        47.000          44.000
  20981677.808 8 111844167.822 8  86989942.68746  20981676.815 8  20981681.999 6
        52.000          41.000
  24182034.371 5 127077465.676 5  99021412.01041  24182032.457 1  24182036.938 1
        38.000          17.000
  19292347.909 8 103020087.009 8  80126765.44042  19292347.229 8  19292355.409 2
        54.000          20.000
  23293616.901 6 124648865.278 6  96949161.19645  23293617.241 6  23293618.195 5
        41.000          38.000
  22792858.221 7 119777278.565 7  93332956.89143  22792857.575 3  22792859.030 3
        46.000          29.000
  21313762.874 8 112004602.964 8  87276340.44846  21313762.495 6  21313765.319 6
        52.000          41.000
  22318925.394 6 119474923.884 6  92924973.65945  22318924.487 6  22318924.484 5
        44.000          38.000
  20939501.080 8 111776497.065 8  86937317.28547  20939500.480 8  20939505.182 7
        51.000          47.000
  24966559.243 5 131200151.239 5 102233903.19841  24966561.196 1  24966561.395 1
        38.000          13.000
  24707547.753 4 129839026.253 4
        31.000
  20926647.935 8 109970309.723 8  85691164.18946  20926647.376 6  20926649.815 6
        51.000          40.000
  22736273.609 7 119479934.876 7  93101264.79844  22736273.672 4  22736275.553 4
        47.000          33.000
 10  1  4  0 36 30.0000000  0 18G08R08G22G28G15R19R10G26R09R17G18G27
                                R07R18G12G11G09G17
  24919636.958 5 130953574.472 5 102041755.09641  24919634.696 1  24919638.312 1
        37.000          12.000
  20708559.343 8 110893402.435 8  86250452.93547  20708559.128 7  20708560.611 7
        50.000          48.000
  23821204.588 6 125181274.427 6  97543869.19843  23821203.499 3  23821204.865 3
        44.000          25.000
  22403921.920 7 117733433.810 7  91740350.06544  22403921.213 4  22403923.255 4
        47.000          33.000
  21063404.728 8 110688945.486 8  86251143.45946  21063404.693 6  21063406.959 6
        52.000          43.000
  22032701.884 7 117860109.391 7  91668999.68246  22032701.450 7  22032704.924 6
        47.000          43.000
  20965263.026 8 111756665.375 8  86921885.22446  20965262.026 8  20965266.712 6
        52.000          41.000
  24159718.600 5 126960198.280 5  98930034.82541  24159719.079 1  24159721.610 1
        38.000          18.000
  19295562.959 8 103037257.360 8  80140120.23642  19295562.525 8  19295570.459 2
        54.000          20.000
  23312538.915 6 124750117.454 6  97027912.84245  23312537.027 5  23312539.936 5
        40.000          37.000
  22795089.677 7 119789002.643 7  93342092.51843  22795088.527 3  22795089.671 3
        46.000          29.000
  21305415.534 8 111960737.155 8  87242159.29946  21305415.034 6  21305417.935 6
        52.000          41.000
  22341623.636 7 119596427.050 7  93019476.07045  22341622.212 6  22341622.971 5
        45.000          38.000
  20939150.854 8 111774627.255 8  86935862.97347  20939150.160 8  20939154.741 7
        51.000          47.000
  24944602.480 5 131084759.709 5 102143987.64641  24944599.607 1  24944603.370 1
        39.000          15.000
  24701630.410 3 129807930.412 3
        27.000
  20911443.942 8 109890412.546 8  85628906.64446  20911443.343 6  20911446.095 6
        51.000          40.000
  22722718.439 7 119408701.286 7  93045758.12844  22722718.044 4  22722720.203 4
        46.000          33.000
 10  1  4  0 37  0.0000000  0 17R08G22G28G15R19R10G26R09R17G18G27R07
                                R18G12G11G09G17
  20712181.871 8 110912801.201 8  86265540.83847  20712181.615 7  20712183.389 7
        50.000          49.000
  23812698.733 6 125136575.239 6  97509038.63743  23812698.269 3  23812698.837 3
        44.000          25.000
  22417361.951 7 117804057.376 7  91795381.39744  22417361.117 4  22417363.076 4
        49.000          34.000
  21073741.497 8 110743264.740 8  86293470.13946  21073741.427 6  21073743.691 6
        52.000          43.000
  22011558.540 7 117747002.257 7  91581027.45946  22011557.313 7  22011560.495 6
        46.000          44.000
  20948904.267 8 111669466.479 8  86854063.86546  20948903.669 8  20948908.527 6
        52.000          41.000
  24137436.901 5 126843107.113 5  98838794.96341  24137437.250 1  24137440.294 1
        38.000          18.000
  19298874.351 8 103054939.088 8  80153872.57842  19298874.025 8  19298881.851 2
        54.000          20.000
  23331554.728 6 124851873.176 6  97107056.16545  23331552.443 5  23331555.314 5
        40.000          38.000
  22797430.158 7 119801305.154 7  93351678.89043  22797430.037 3  22797430.713 3
        46.000          29.000
  21297123.777 8 111917163.494 8  87208205.80146  21297123.271 6  21297126.087 6
        52.000          41.000
  22364383.210 6 119718263.278 6  93114237.53445  22364382.350 6  22364383.541 5
        44.000          38.000
  20938961.708 8 111773614.907 8  86935075.60247  20938961.108 8  20938965.131 7
        51.000          47.000
  24922656.220 5 130969443.700 5 102054130.96841  24922657.538 1  24922661.302 1
        39.000          16.000
  24695807.445 4 129777348.845 4
        31.000
  20896314.195 8 109810903.350 8  85566951.41846  20896313.412 6  20896316.258 6
        51.000          40.000
  22709243.814 7 119337895.702 7  92990584.95244  22709244.296 4  22709246.429 4
        45.000          33.000
 10  1  4  0 37 30.0000000  0 17R08G22G28G15R19R10G26R09R17G18G27R07
                                R18G12G11G09G17
  20715962.798 8 110933046.547 8  86281287.21047  20715962.397 7  20715963.915 7
        50.000          48.000
  23804291.167 7 125092393.085 7  97474610.98843  23804291.108 3  23804291.402 3
        45.000          26.000
  22430860.924 7 117874999.630 7  91850661.07944  22430860.613 4  22430862.420 4
        47.000          33.000
  21084172.949 8 110798084.424 8  86336186.75046  21084173.190 6  21084175.523 6
        51.000          42.000
  21990496.580 7 117634334.857 7  91493397.27446  21990495.061 7  21990498.223 6
        46.000          44.000
  20932603.159 8 111582572.824 8  86786479.91046  20932602.396 8  20932607.282 6
        52.000          41.000
  24115190.613 6 126726194.825 6  98747694.46441  24115190.430 1  24115192.488 1
        41.000          18.000
  19302281.263 8 103073131.828 8  80168022.36642  19302280.858 8  19302288.763 2
        54.000          20.000
  23350663.336 6 124954128.119 6  97186587.83045  23350662.578 6  23350663.397 5
        41.000          37.000
  22799881.221 7 119814185.652 7  93361715.64343  22799880.992 3  22799882.108 3
        46.000          29.000
  21288887.824 8 111873882.746 8  87174480.54646  21288887.236 6  21288890.053 6
        51.000          40.000
  22387204.635 6 119840428.015 6  93209254.53145  22387203.868 6  22387204.580 5
        44.000          38.000
  20938932.826 8 111773460.595 8  86934955.59547  20938931.909 8  20938936.502 7
        51.000          47.000
  24900728.524 6 130854204.929 6 101964334.43641  24900728.887 1  24900730.515 1
        41.000          18.000
  24690085.766 4 129747283.239 4
        30.000
  20881257.462 8 109731783.871 8  85505299.87946  20881257.300 6  20881260.161 6
        50.000          40.000
  22695851.659 7 119267520.726 7  92935747.31844  22695852.227 4  22695854.457 4
        47.000          33.000
 10  1  4  0 38  0.0000000  0 17R08G22G28G15R19R10G26R09R17G18G27R07
                                R18G12G11G09G17
  20719901.625 8 110954137.421 8  86297691.20647  20719901.190 7  20719902.693 7
        50.000          49.000
  23795982.053 7 125048729.509 7  97440587.41343  23795982.732 3  23795982.199 3
        45.000          26.000
  22444421.839 7 117946258.807 7  91906187.71244  22444421.454 4  22444423.107 4
        49.000          34.000
  21094699.887 8 110853403.136 8  86379292.20646  21094699.992 6  21094702.299 6
        51.000          43.000
  21969517.230 7 117522111.594 7  91406112.52446  21969516.222 7  21969519.184 6
        47.000          44.000
  20916359.722 8 111495985.657 8  86719134.33146  20916358.769 8  20916363.804 6
        52.000          41.000
  24092977.067 5 126609464.028 5  98656735.37341  24092977.087 1  24092979.148 1
        39.000          18.000
  19305783.797 8 103091835.120 8  80182569.48242  19305783.455 8  19305791.297 2
        54.000          20.000
  23369863.625 6 125056878.540 6  97266504.84445  23369863.324 5  23369864.022 5
        40.000          37.000
  22802442.209 7 119827643.494 7  93372202.27043  22802441.713 3  22802442.805 3
        46.000          29.000
  21280707.257 8 111830895.581 8  87140984.05846  21280706.993 6  21280709.966 6
        52.000          41.000
  22410086.440 6 119962916.916 6  93304523.63045  22410085.545 6  22410086.043 5
        44.000          38.000
  20939064.550 8 111774163.837 8  86935502.58547  20939064.020 8  20939068.602 7
        51.000          47.000
  24878815.752 6 130739045.625 6 101874599.84241  24878815.009 1  24878816.399 1
        41.000          18.000
  24684466.205 3 129717735.040 3
        28.000
  20866276.686 8 109653055.917 8  85443953.42446  20866275.959 6  20866278.512 6
        52.000          40.000
  22682542.732 7 119197578.831 7  92881247.14944  22682543.058 4  22682545.201 4
        47.000          34.000
 10  1  4  0 38 30.0000000  0 17R08G22G28G15R19R10G26R09R17G18G27R07
                                R18G12G11G09G17
  20723997.651 8 110976072.805 8  86314752.05047  20723997.336 8  20723998.777 7
        50.000          48.000
  23787772.190 7 125005585.753 7  97406968.88843  23787772.205 3  23787771.859 3
        45.000          25.000
  22458041.620 7 118017833.113 7  91961959.89544  22458041.197 4  22458042.814 4
        48.000          34.000
  21105321.455 8 110909219.669 8  86422785.57946  21105321.538 6  21105323.813 6
        51.000          42.000
  21948621.899 7 117410336.901 7  91319176.65946  21948621.386 7  21948624.604 6
        47.000          44.000
  20900174.176 8 111409707.025 8  86652028.73346  20900172.943 8  20900178.149 6
        53.000          41.000
  24070798.496 5 126492917.654 5  98565920.02641  24070798.393 1  24070800.538 1
        38.000          18.000
  19309381.685 8 103111048.194 8  80197512.84842  19309381.251 8  19309389.185 2
        54.000          20.000
  23389157.788 6 125160120.623 6  97346804.23645  23389156.837 5  23389157.888 5
        40.000          37.000
  22805112.588 7 119841677.789 7  93383138.06543  22805111.935 3  22805113.946 3
        45.000          29.000
  21272583.251 8 111788202.899 8  87107717.03746  21272582.805 6  21272585.790 6
        51.000          41.000
  22433028.480 6 120085725.760 6  93400041.58045  22433027.681 6  22433027.653 5
        44.000          38.000
  20939356.318 8 111775724.322 8  86936716.30547  20939355.692 8  20939360.674 7
        51.000          47.000
  24856913.586 5 130623967.271 5 101784928.35741  24856915.451 1  24856919.493 1
        38.000          18.000
  24678939.603 3 129688705.839 3
        27.000
  20851369.894 8 109574721.537 8  85382913.65646  20851369.549 6  20851372.071 6
        51.000          40.000
  22669315.871 7 119128072.708 7  92827086.55644  22669316.006 4  22669318.414 4
        47.000          33.000
 10  1  4  0 39  0.0000000  0 17R08G22G28G15R19R10G26R09R17G18G27R07
                                R18G12G11G09G17
  20728251.595 8 110998851.361 8  86332468.69647  20728250.981 8  20728252.470 7
        50.000          49.000
  23779662.205 6 124962963.832 6  97373756.98443  23779661.480 3  23779662.553 3
        44.000          25.000
  22471722.117 7 118089720.631 7  92017976.14344  22471721.088 4  22471722.873 4
        48.000          34.000
  21116037.597 8 110965532.497 8  86466665.66546  21116037.502 6  21116039.827 6
        51.000          42.000
  21927811.749 7 117299015.233 7  91232593.16146  21927811.314 7  21927813.738 6
        47.000          44.000
  20884046.377 8 111323737.830 8  86585163.80246  20884045.734 8  20884050.935 6
        52.000          41.000
  24048657.292 5 126376558.098 5  98475250.22241  24048655.850 1  24048658.159 1
        39.000          18.000
  19313074.811 8 103130770.812 8  80212852.61842  19313074.529 8  19313082.311 2
        54.000          20.000
  23408540.441 5 125263849.984 5  97427482.54845  23408539.668 5  23408542.335 5
        38.000          36.000
  22807893.328 7 119856287.936 7  93394522.58543  22807892.282 3  22807893.993 3
        46.000          29.000
  21264515.320 8 111745805.224 8  87074679.88946  21264514.805 6  21264517.701 6
        51.000          41.000
  22456029.279 6 120208850.803 6  93495805.48945  22456027.899 6  22456028.592 5
        44.000          37.000
  20939809.479 8 111778142.279 8  86938596.94947  20939808.780 8  20939813.557 7
        51.000          47.000
  24835032.017 5 130508971.734 5 101695321.37541  24835032.163 1  24835034.633 1
        38.000          18.000
  24673518.095 2 129660197.927 2
        24.000
  20836538.439 8 109496782.403 8  85322181.87046  20836538.070 6  20836540.695 6
        52.000          40.000
  22656172.769 7 119059004.573 7  92773267.24844  22656172.662 4  22656175.163 4
        47.000          34.000
 10  1  4  0 39 30.0000000  0 17R08G22G28G15R19R10G26R09R17G18G27R07
                                R18G12G11G09G17
  20732662.522 8 111022472.505 8  86350840.68447  20732662.278 7  20732663.540 7
        50.000          49.000
  23771650.858 6 124920864.571 6  97340952.37943  23771651.264 3  23771651.103 3
        44.000          26.000
  22485460.183 7 118161919.610 7  92074235.07144  22485459.631 4  22485461.856 4
        47.000          33.000
  21126847.157 8 111022340.427 8  86510931.55246  21126847.695 6  21126850.148 6
        52.000          42.000
  21907086.689 7 117188150.790 7  91146365.28446  21907085.812 7  21907088.943 6
        47.000          44.000
  20867977.029 8 111238079.951 8  86518541.01146  20867976.265 8  20867981.147 6
        52.000          41.000
  24026550.166 5 126260388.262 5  98384728.31041  24026548.931 1  24026552.671 1
        39.000          17.000
  19316864.022 8 103151002.284 8  80228588.41142  19316863.368 8  19316871.522 2
        54.000          20.000
  23428015.337 6 125368062.566 6  97508536.83945  23428015.027 5  23428017.009 5
        40.000          36.000
  22810782.474 7 119871473.468 7  93406355.45843  22810782.549 3  22810783.544 3
        46.000          29.000
  21256503.741 8 111703703.319 8  87041873.21446  21256503.006 6  21256506.061 6
        52.000          41.000
  22479088.659 6 120332286.985 6  93591811.39345  22479086.902 6  22479088.182 5
        44.000          38.000
  20940423.506 8 111781417.729 8  86941144.51747  20940422.544 8  20940426.578 7
        51.000          46.000
  24813166.802 5 130394061.133 5 101605780.59641  24813165.493 1  24813168.730 1
        39.000          18.000
  24668188.650 3 129632209.804 3
        29.000
  20821783.127 8 109419240.830 8  85261759.87246  20821782.501 6  20821784.926 6
        52.000          40.000
  22643113.487 7 118990376.766 7  92719791.05744  22643113.101 4  22643116.078 4
        47.000          34.000
 10  1  4  0 40  0.0000000  0 17R08G22G28G15R19R10G26R09R17G18G27R07
                                R18G12G11G09G17
  20737230.325 8 111046934.697 8  86369866.82147  20737230.406 7  20737231.751 7
        50.000          48.000
  23763738.814 6 124879289.351 6  97308556.11143  23763737.727 3  23763738.392 3
        44.000          25.000
  22499258.220 7 118234428.117 7  92130735.22044  22499258.095 4  22499259.776 4
        48.000          34.000
  21137751.780 8 111079642.233 8  86555582.27546  21137751.855 6  21137754.350 6
        52.000          42.000
  21886447.557 7 117077748.058 7  91060496.51346  21886447.398 7  21886450.282 6
        47.000          44.000
  20851966.359 8 111152734.889 8  86452161.52546  20851965.952 8  20851970.695 6
        52.000          42.000
  24004479.932 5 126144410.681 5  98294356.17041  24004480.279 1  24004482.132 1
        39.000          18.000
  19320747.619 8 103171742.120 8  80244719.38542  19320747.258 8  19320755.119 2
        54.000          20.000
  23447580.385 5 125472754.388 5  97589963.77645  23447579.446 5  23447582.238 5
        39.000          38.000
  22813781.747 7 119887233.477 7  93418635.97643  22813781.203 3  22813782.823 3
        45.000          29.000
  21248548.208 8 111661897.683 8  87009297.39046  21248547.733 6  21248550.627 6
        52.000          41.000
  22502205.009 6 120456030.580 6  93688056.39845  22502203.300 6  22502204.441 5
        44.000          38.000
  20941197.779 8 111785550.471 8  86944358.88247  20941196.856 8  20941200.820 7
        51.000          46.000
  24791315.220 6 130279236.761 6 101516306.99741  24791314.953 1  24791319.446 1
        40.000          19.000
  24662963.302 4 129604744.550 4
        31.000
  20807103.295 8 109342098.266 8  85201648.78146  20807102.636 6  20807105.481 6
        51.000          41.000
  22630138.623 7 118922191.775 7  92666659.92644  22630137.889 4  22630140.812 4
        47.000          34.000
 10  1  4  0 40 30.0000000  0 17R08G22G28G15R19R10G26R09R17G18G27R07
                                R18G12G11G09G17
  20741955.921 8 111072236.946 8  86389546.34247  20741955.228 7  20741956.841 7
        50.000          49.000
  23755927.123 6 124838239.761 6  97276569.41843  23755927.446 3  23755927.211 3
        43.000          25.000
  22513115.417 7 118307244.161 7  92187474.99044  22513114.378 4  22513116.198 4
        48.000          33.000
  21148749.714 8 111137436.303 8  86600616.58046  21148749.801 6  21148752.163 6
        51.000          42.000
  21865895.427 7 116967811.226 7  90974990.11046  21865895.462 7  21865898.585 6
        47.000          44.000
  20836015.411 8 111067703.967 8  86386026.36246  20836014.279 8  20836019.201 6
        53.000          42.000
  23982446.595 5 126028628.305 5  98204136.11341  23982445.929 1  23982450.341 1
        38.000          19.000
  19324726.583 8 103192989.844 8  80261245.48042  19324726.210 8  19324734.083 2
        54.000          20.000
  23467231.175 5 125577921.290 5  97671760.28645  23467230.566 5  23467234.314 5
        36.000          37.000
  22816890.166 7 119903567.314 7  93431363.63443  22816889.157 3  22816891.220 3
        46.000          29.000
  21240649.411 8 111620389.268 8  86976953.17246  21240648.871 6  21240651.894 6
        52.000          41.000
  22525376.554 6 120580076.740 6  93784536.72645  22525376.008 6  22525377.468 5
        43.000          38.000
  20942132.395 8 111790540.271 8  86948239.84547  20942131.783 8  20942135.848 7
        52.000          47.000
  24769482.239 5 130164500.943 5 101426902.39241  24769482.753 1  24769483.481 1
        39.000          19.000
  24657832.844 3 129577803.927 3
        28.000
  20792500.001 8 109265356.743 8  85141850.19946  20792499.327 6  20792502.096 6
        51.000          41.000
  22617247.424 7 118854452.135 7  92613875.82444  22617247.467 4  22617250.352 4
        46.000          34.000
 10  1  4  0 41  0.0000000  0 17R08G22G28G15R19R10G26R09R17G18G27R07
                                R18G12G11G09G17
  20746837.448 8 111098377.827 8  86409878.13647  20746836.799 7  20746838.500 7
        50.000          49.000
  23748216.087 6 124797717.386 6  97244993.53843  23748216.143 3  23748215.903 3
        44.000          25.000
  22527029.724 7 118380365.689 7  92244452.80444  22527028.712 4  22527030.080 4
        48.000          32.000
  21159840.845 8 111195721.561 8  86646033.62546  21159841.241 6  21159843.415 6
        52.000          42.000
  21845432.414 7 116858344.711 7  90889849.51346  21845431.618 7  21845435.108 6
        47.000          44.000
  20820122.432 8 110982988.850 8  86320136.84646  20820121.737 8  20820127.209 6
        52.000          42.000
  23960451.299 5 125913043.764 5  98114070.23641  23960451.479 1  23960455.583 1
        38.000          18.000
  19328800.258 8 103214744.838 8  80278166.13442  19328800.032 8  19328807.758 2
        53.000          20.000
  23486974.780 5 125683558.967 5  97753922.86545  23486973.508 5  23486975.596 5
        39.000          37.000
  22820107.505 7 119920474.150 7  93444537.76343  22820106.660 3  22820108.472 3
        45.000          29.000
  21232807.180 8 111579178.676 8  86944841.01746  21232806.755 6  21232809.739 6
        51.000          41.000
  22548606.503 6 120704421.149 6  93881249.01445  22548604.853 6  22548606.236 5
        43.000          38.000
  20943227.752 8 111796386.902 8  86952787.23647  20943227.006 8  20943231.348 7
        52.000          47.000
  24747665.933 6 130049855.008 6 101337567.87741  24747666.258 1  24747668.447 1
        40.000          19.000
  24652810.593 4 129551388.691 4
        31.000
  20777972.904 8 109189018.292 8  85082365.69446  20777972.489 6  20777975.248 6
        52.000          41.000
  22604442.766 7 118787160.419 7  92561440.75245  22604442.596 4  22604445.174 5
        46.000          35.000
 10  1  4  0 41 30.0000000  0 17R08G22G28G15R19R10G26R09R17G18G27R07
                                R18G12G11G09G17
  20751875.235 8 111125356.307 8  86430861.39647  20751874.815 7  20751876.509 7
        50.000          49.000
  23740605.418 6 124757723.428 6  97213829.41043  23740605.303 3  23740605.351 3
        44.000          25.000
  22541001.628 7 118453791.247 7  92301667.52844  22541000.990 4  22541003.036 4
        48.000          33.000
  21171026.012 8 111254496.529 8  86691832.26146  21171025.776 6  21171027.916 6
        51.000          42.000
  21825057.756 7 116749353.087 7  90805078.25747  21825057.310 7  21825060.641 7
        47.000          45.000
  20804289.615 8 110898591.120 8  86254494.16246  20804288.872 8  20804294.151 6
        52.000          41.000
  23938495.386 6 125797659.780 6  98024160.67341  23938495.370 1  23938497.641 1
        40.000          18.000
  19332969.787 8 103237006.677 8  80295480.91842  19332969.117 8  19332977.287 2
        54.000          20.000
  23506803.231 6 125789663.849 6  97836448.84445  23506802.652 5  23506802.905 5
        40.000          36.000
  22823433.887 7 119937953.279 7  93458157.86744  22823432.821 3  22823434.715 4
        46.000          30.000
  21225022.038 8 111538266.607 8  86912961.48746  21225021.628 6  21225024.474 6
        52.000          41.000
  22571889.727 6 120829060.714 6  93978190.84845  22571888.467 6  22571889.410 5
        42.000          38.000
  20944482.637 8 111803089.788 8  86958000.61347  20944482.175 8  20944487.119 7
        52.000          46.000
  24725867.930 5 129935300.942 5 101248304.93141  24725866.369 1  24725869.775 1
        39.000          18.000
  24647882.048 3 129525500.449 3
        29.000
  20763523.218 8 109113084.497 8  85023196.51646  20763522.942 6  20763525.402 6
        52.000          41.000
  22591723.229 7 118720318.798 7  92509356.40744  22591723.155 4  22591725.585 4
        48.000          34.000
 10  1  4  0 42  0.0000000  0 16R08G22G28G15R19R10G26R09R17G18G27R07
                                R18G12G09G17
  20757069.547 8 111153170.766 8  86452494.85347  20757069.150 7  20757070.779 7
        50.000          48.000
  23733096.611 7 124718258.501 7  97183077.51143  23733096.573 3  23733095.714 3
        45.000          26.000
  22555031.776 7 118527518.608 7  92359117.42144  22555031.251 4  22555032.813 4
        46.000          33.000
  21182303.229 8 111313759.746 8  86738011.34046  21182303.190 6  21182305.489 6
        50.000          42.000
  21804772.650 7 116640840.586 7  90720679.66346  21804771.836 7  21804775.518 6
        47.000          44.000
  20788516.630 8 110814512.328 8  86189099.54546  20788516.241 8  20788521.214 6
        52.000          42.000
  23916577.438 5 125682479.033 5  97934409.41341  23916577.583 1  23916580.563 1
        37.000          19.000
  19337233.561 8 103259774.667 8  80313189.30842  19337232.998 8  19337241.061 2
        54.000          20.000
  23526716.945 5 125896231.297 5  97919334.68645  23526715.300 5  23526718.837 5
        39.000          37.000
  22826868.870 7 119956003.493 7  93472222.94443  22826868.008 3  22826869.750 3
        46.000          29.000
  21217293.617 8 111497653.788 8  86881315.13146  21217293.063 6  21217296.012 6
        52.000          41.000
  22595227.822 6 120953988.400 6  94075356.79445  22595226.688 6  22595226.332 5
        43.000          37.000
  20945898.676 8 111810648.788 8  86963879.84347  20945898.464 8  20945902.907 7
        51.000          46.000
  24704086.022 5 129820840.297 5 101159114.80141  24704085.500 1  24704089.162 1
        39.000          18.000
  20749150.822 8 109037557.122 8  84964344.02046  20749150.435 6  20749153.041 6
        52.000          41.000
  22579089.502 7 118653929.321 7  92457624.38144  22579089.664 5  22579092.285 4
        48.000          34.000
 10  1  4  0 42 30.0000000  0 16R08G22G28G15R19R10G26R09R17G18G27R07
                                R18G12G09G17
  20762419.499 8 111181820.303 8  86474777.81847  20762419.169 7  20762420.851 7
        50.000          48.000
  23725687.398 7 124679324.722 7  97152739.49343  23725687.159 3  23725687.078 3
        45.000          26.000
  22569118.114 7 118601546.171 7  92416801.24444  22569117.627 4  22569119.836 4
        46.000          32.000
  21193672.770 8 111373509.795 8  86784569.76446  21193673.175 6  21193675.817 6
        52.000          42.000
  21784577.746 7 116532811.818 7  90636657.30647  21784577.187 7  21784580.915 7
        47.000          45.000
  20772803.974 8 110730753.924 8  86123954.13046  20772803.158 8  20772808.016 6
        52.000          42.000
  23894698.156 6 125567504.411 6  97844818.79241  23894698.946 1  23894701.389 1
        41.000          18.000
  19341591.667 8 103283048.169 8  80331291.25342  19341591.309 8  19341753.674 2
        53.000          20.000
  23546717.956 5 126003257.447 5  98002577.23945  23546716.389 5  23546719.103 5
        38.000          36.000
  22830411.514 7 119974624.292 7  93486732.63943  22830411.495 3  22830412.711 3
        46.000          29.000
  21209622.363 8 111457340.841 8  86849902.43746  21209621.965 6  21209624.863 6
        51.000          41.000
  22618618.358 6 121079201.184 6  94172744.49045  22618616.742 6  22618617.605 5
        43.000          37.000
  20947475.072 8 111819063.284 8  86970424.45647  20947474.554 8  20947478.877 7
        51.000          46.000
  24682321.865 6 129706474.717 6 101069998.77142  24682322.822 2  24682325.964 2
        40.000          20.000
  20734856.356 8 108962438.355 8  84905809.92446  20734855.940 6  20734858.430 6
        51.000          41.000
  22566543.052 7 118587994.942 7  92406246.97445  22566542.779 4  22566544.958 5
        47.000          35.000
 10  1  4  0 43  0.0000000  0 16R08G22G28G15R19R10G26R09R17G18G27R07
                                R18G12G09G17
  20767925.266 8 111211302.977 8  86497708.77747  20767924.771 7  20767926.292 7
        50.000          48.000
  23718379.213 6 124640923.182 6  97122816.21543  23718378.638 3  23718378.561 3
        44.000          25.000
  22583262.519 7 118675871.977 7  92474717.45544  22583261.574 4  22583263.224 4
        47.000          33.000
  21205135.736 8 111433745.515 8  86831506.65646  21205135.779 6  21205138.290 6
        52.000          42.000
  21764474.277 7 116425270.634 7  90553014.17246  21764473.801 7  21764476.734 6
        47.000          44.000
  20757151.917 8 110647317.425 8  86059059.10246  20757150.738 8  20757155.865 6
        52.000          42.000
  23872860.074 6 125452738.547 6  97755390.84641  23872858.946 1  23872861.916 1
        40.000          19.000
  19346044.842 8 103306826.455 8  80349784.85642  19346044.491 8  19346052.342 2
        54.000          20.000
  23566804.265 6 126110738.129 6  98086173.28045  23566802.851 5  23566802.291 5
        40.000          35.000
  22834063.819 7 119993814.705 7  93501686.20543  22834063.033 3  22834064.818 3
        46.000          29.000
  21202008.007 8 111417328.330 8  86818723.85546  21202007.768 6  21202010.511 6
        51.000          41.000
  22642061.049 6 121204696.087 6  94270351.60445  22642060.463 6  22642061.291 5
        43.000          38.000
  20949212.173 8 111828333.308 8  86977634.49047  20949211.330 8  20949215.175 7
        51.000          46.000
  24660578.155 5 129592206.819 5 100980958.81742  24660577.684 2  24660581.445 2
        39.000          20.000
  20720639.632 8 108887729.977 8  84847595.60446  20720639.208 6  20720641.833 6
        52.000          41.000
  22554082.366 7 118522517.723 7  92355225.79444  22554082.802 4  22554084.980 4
        47.000          34.000
 10  1  4  0 43 30.0000000  0 16R08G22G28G15R19R10G26R09R17G18G27R07
                                R18G12G09G17
  20773586.739 8 111241618.018 8  86521287.14047  20773586.131 7  20773587.709 7
        50.000          48.000
  23711173.067 6 124603055.030 6  97093308.56443  23711172.629 3  23711173.103 3
        44.000          26.000
  22597461.866 7 118750493.946 7  92532864.43444  22597461.185 4  22597463.773 4
        46.000          32.000
  21216690.463 8 111494465.248 8  86878820.70446  21216690.467 6  21216692.801 6
        52.000          42.000
  21744463.033 7 116318221.717 7  90469753.90946  21744461.850 7  21744464.686 6
        48.000          44.000
  20741559.364 8 110564204.509 8  85994415.73146  20741558.275 8  20741564.002 6
        52.000          42.000
  23851057.775 5 125338184.185 5  97666127.72741  23851059.789 1  23851062.218 1
        38.000          18.000
  19350592.095 8 103331109.318 8  80368671.51342  19350591.581 8  19350599.595 2
        54.000          20.000
  23586973.144 5 126218669.204 5  98170119.65445  23586971.883 5  23586972.596 5
        39.000          35.000
  22837823.027 7 120013573.871 7  93517082.94443  22837822.631 3  22837823.791 3
        46.000          29.000
  21194451.140 8 111377616.895 8  86787779.87246  21194450.890 6  21194453.789 6
        52.000          41.000
  22665556.457 6 121330466.721 6  94368173.16945  22665555.722 6  22665556.079 5
        43.000          37.000
  20951108.552 8 111838458.027 8  86985509.29447  20951107.765 8  20951112.668 7
        51.000          47.000
  24638853.383 5 129478038.016 5 100891996.09642  24638852.712 2  24638855.410 2
        39.000          20.000
  20706501.612 8 108813434.055 8  84789702.68846  20706501.236 6  20706504.037 6
        52.000          41.000
  22541710.518 7 118457500.042 7  92304562.69644  22541710.286 4  22541712.181 4
        47.000          34.000
 10  1  4  0 44  0.0000000  0 17R08G22G28G15R19R10G26R09R17G18G27R07
                                R18G12G11G09G17
  20779402.770 8 111272762.962 8  86545510.98247  20779402.291 7  20779403.726 7
        50.000          48.000
  23704067.764 6 124565721.700 6  97064217.65943  23704068.373 3  23704069.133 3
        43.000          25.000
  22611718.687 7 118825410.662 7  92591241.09744  22611717.973 4  22611719.909 4
        47.000          32.000
  21228336.626 8 111555667.685 8  86926510.89846  21228336.793 6  21228339.253 6
        51.000          42.000
  21724544.267 7 116211669.019 7  90386879.60546  21724543.069 7  21724545.300 6
        48.000          44.000
  20726028.880 8 110481416.556 8  85930025.11246  20726028.094 8  20726033.332 6
        52.000          42.000
  23829301.774 5 125223844.222 5  97577031.63441  23829301.053 1  23829303.684 1
        39.000          17.000
  19355233.499 8 103355895.933 8  80387949.89742  19355233.468 8  19355240.999 2
        53.000          20.000
  23607227.814 6 126327046.554 6  98254413.12945  23607225.326 5  23607225.787 5
        40.000          35.000
  22841691.456 7 120033900.866 7  93532922.14943  22841690.846 3  22841692.344 3
        46.000          28.000
  21186951.932 8 111338207.375 8  86757071.15146  21186951.594 6  21186954.417 6
        51.000          42.000
  22689102.570 6 121456509.902 6  94466206.73045  22689101.628 6  22689102.490 5
        43.000          37.000
  20953165.210 8 111849436.801 8  86994048.33947  20953164.422 8  20953169.097 7
        51.000          46.000
  24617145.272 5 129363969.970 5 100803111.89942  24617145.794 2  24617148.949 2
        39.000          20.000
  24624763.598 4 129404005.624 4
        34.000
  20692442.047 8 108739552.053 8  84732132.30246  20692441.761 6  20692444.492 6
        51.000          41.000
  22529425.608 7 118392944.273 7  92254259.53145  22529425.582 4  22529428.019 5
        47.000          35.000
 10  1  4  0 44 30.0000000  0 17R08G22G28G15R19R10G26R09R17G18G27R07
                                R18G12G11G09G17
  20785373.927 8 111304737.221 8  86570379.84847  20785373.331 7  20785374.667 7
        50.000          48.000
  23697067.537 6 124528924.309 6  97035544.36743  23697066.275 3  23697066.216 3
        43.000          25.000
  22626030.237 7 118900619.953 7  92649845.73644  22626029.393 4  22626031.876 4
        46.000          32.000
  21240074.705 8 111617351.282 8  86974576.01546  21240074.692 6  21240077.366 6
        50.000          42.000
  21704717.935 7 116105617.179 7  90304394.85147  21704717.505 7  21704720.270 7
        48.000          45.000
  20710559.381 8 110398955.162 8  85865888.48346  20710558.716 8  20710563.978 6
        53.000          42.000
  23807585.670 6 125109721.415 6  97488104.76041  23807585.378 1  23807587.241 1
        40.000          18.000
  19359969.970 8 103381185.875 8  80407619.67542  19359969.495 8  19359977.470 2
        54.000          20.000
  23627561.269 5 126435865.978 5  98339050.40945  23627560.721 5  23627561.895 5
        39.000          35.000
  22845668.105 7 120054794.671 7  93549203.02843  22845667.404 3  22845668.249 3
        46.000          29.000
  21179510.114 8 111299100.449 8  86726598.21346  21179509.762 6  21179512.497 6
        52.000          41.000
  22712698.401 6 121582820.401 6  94564448.16845  22712697.347 6  22712697.954 5
        43.000          37.000
  20955382.350 8 111861269.395 8  87003251.48347  20955381.730 8  20955385.284 7
        52.000          46.000
  24595458.350 5 129250004.518 5 100714307.62441  24595459.699 1  24595462.895 1
        39.000          19.000
  24620440.935 3 129381305.549 3
        27.000
  20678462.515 8 108666086.041 8  84674886.06346  20678461.785 6  20678464.481 6
        52.000          42.000
  22517228.987 7 118328852.597 7  92204317.99444  22517229.439 4  22517231.610 4
        46.000          34.000
 10  1  4  0 45  0.0000000  0 17R08G22G28G15R19R10G26R09R17G18G27R07
                                R18G12G11G09G17
  20791498.738 8 111337538.544 8  86595891.98747  20791498.579 7  20791500.195 7
        50.000          48.000
  23690167.370 6 124492664.044 6  97007289.62143  23690166.849 3  23690166.511 3
        43.000          25.000
  22640397.902 7 118976119.897 7  92708676.85944  22640397.521 4  22640398.851 4
        47.000          32.000
  21251904.387 8 111679514.564 8  87023014.91746  21251904.062 6  21251906.688 6
        51.000          42.000
  21684987.531 7 116000070.154 7  90222302.73147  21684986.495 7  21684989.240 7
        48.000          45.000
  20695150.921 8 110316821.771 8  85802006.97846  20695150.083 8  20695155.303 6
        53.000          42.000
  23785909.515 5 124995818.386 5  97399349.15341  23785910.920 1  23785912.553 1
        39.000          19.000
  19364799.863 8 103406978.400 8  80427680.61042  19364799.556 8  19364807.363 2
        54.000          20.000
  23647978.209 5 126545123.585 5  98424028.53745  23647977.281 5  23647979.558 5
        38.000          35.000
  22849752.099 7 120076254.734 7  93565925.15943  22849751.033 3  22849752.398 3
        46.000          29.000
  21172125.923 8 111260296.622 8  86696361.45246  21172125.508 6  21172128.404 6
        52.000          41.000
  22736343.622 6 121709394.154 6  94662894.39245  22736342.325 6  22736342.528 5
        43.000          37.000
  20957757.930 8 111873954.949 8  87013118.02447  20957757.078 8  20957762.332 7
        51.000          46.000
  24573793.814 6 129136143.587 6 100625584.79342  24573792.176 2  24573795.270 2
        40.000          20.000
  24616229.780 3 129359141.147 3
        28.000
  20664561.763 8 108593037.618 8  84617965.21346  20664561.103 6  20664563.753 6
        52.000          41.000
  22505121.261 7 118265227.333 7  92154739.89144  22505121.691 4  22505124.158 4
        46.000          34.000
 10  1  4  0 45 30.0000000  0 16R08G22G28G15R19R10G26R09R17G18G27R07
                                R18G12G09G17
  20797778.621 8 111371165.752 8  86622046.47647  20797778.134 7  20797779.733 7
        50.000          48.000
  23683369.323 6 124456941.962 6  96979454.22843  23683368.870 3  23683369.098 3
        44.000          26.000
  22654819.742 7 119051908.677 7  92767733.05244  22654819.082 4  22654820.633 4
        47.000          32.000
  21263824.340 8 111742155.968 8  87071826.37946  21263824.432 6  21263826.851 6
        51.000          42.000
  21665351.374 7 115895032.546 7  90140606.82046  21665351.038 7  21665353.441 6
        48.000          44.000
  20679805.221 8 110235017.942 8  85738381.78846  20679804.122 8  20679809.748 6
        53.000          42.000
  23764277.445 6 124882137.972 6  97310767.00041  23764278.526 1  23764278.817 1
        40.000          19.000
  19369724.081 8 103433272.945 8  80448131.77842  19369723.527 8  19369731.581 2
        54.000          20.000
  23668475.655 5 126654814.947 5  98509343.99645  23668474.693 5  23668477.862 5
        38.000          35.000
  22853942.973 7 120098279.571 7  93583087.34943  22853942.147 3  22853943.466 3
        47.000          29.000
  21164799.902 8 111221796.699 8  86666361.50646  21164799.406 6  21164802.206 6
        51.000          41.000
  22760037.608 6 121836227.824 6  94761542.78645  22760036.414 6  22760036.154 5
        43.000          37.000
  20960295.151 8 111887492.776 8  87023647.46147  20960294.375 8  20960298.244 7
        52.000          46.000
  24552145.461 5 129022388.716 5 100536944.59042  24552146.386 2  24552148.368 2
        39.000          20.000
  20650741.561 8 108520408.759 8  84561371.30146  20650740.566 6  20650743.142 6
        52.000          42.000
  22493104.038 7 118202071.060 7  92105527.23744  22493103.502 5  22493105.971 4
        46.000          34.000
 10  1  4  0 46  0.0000000  0 17R08G22G28G15R19R10G26R09R17G18G27R07
                                R18G12G11G09G17
  20804212.151 8 111405616.935 8  86648841.83047  20804211.661 7  20804213.541 7
        50.000          48.000
  23676674.559 6 124421759.664 6  96952039.44943  23676673.345 3  23676673.527 3
        44.000          26.000
  22669296.708 7 119127984.364 7  92827012.79744  22669296.250 4  22669297.750 4
        47.000          32.000
  21275835.264 8 111805273.957 8  87121009.19746  21275835.406 6  21275837.707 6
        51.000          41.000
  21645811.940 7 115790508.381 7  90059310.25847  21645811.264 7  21645813.970 7
        48.000          45.000
  20664520.951 8 110153545.352 8  85675014.21846  20664520.069 8  20664525.408 6
        53.000          42.000
  23742687.583 6 124768682.988 6  97222360.51142  23742687.331 2  23742689.299 2
        40.000          20.000
  19374742.340 8 103460068.836 8  80468973.08242  19374741.618 8  19374749.840 2
        54.000          20.000
  23689056.520 6 126764936.088 6  98594993.79944  23689055.411 5  23689058.001 4
        40.000          34.000
  22858240.959 7 120120868.197 7  93600688.86743  22858240.186 3  22858242.248 3
        46.000          29.000
  21157531.554 8 111183601.504 8  86636599.00446  21157531.091 6  21157534.080 6
        51.000          41.000
  22783777.556 6 121963315.684 6  94860388.86845  22783777.011 6  22783776.605 5
        43.000          36.000
  20962990.048 8 111901882.087 8  87034839.16047  20962989.499 8  20962993.653 7
        51.000          46.000
  24530519.559 5 128908741.802 5 100448388.56442  24530519.387 2  24530522.553 2
        39.000          21.000
  24608095.130 4 129316431.850 4
        31.000
  20637000.459 8 108448201.432 8  84505105.85246  20636999.800 6  20637002.347 6
        53.000          42.000
  22481175.041 7 118139385.546 7  92056681.41645  22481174.986 5  22481177.153 5
        48.000          35.000
 10  1  4  0 46 30.0000000  0 17R08G22G28G15R19R10G26R09R17G18G27R07
                                R18G12G11G09G17
  20810799.008 8 111440890.642 8  86676276.92447  20810798.697 7  20810800.358 7
        50.000          49.000
  23670082.136 7 124387117.953 7  96925045.90543  23670081.850 3  23670081.924 3
        45.000          26.000
  22683827.073 7 119204345.075 7  92886514.66344  22683826.387 4  22683828.706 4
        47.000          32.000
  21287936.904 8 111868867.232 8  87170562.38146  21287936.958 6  21287939.210 6
        52.000          42.000
  21626368.828 7 115686502.029 7  89978416.43747  21626368.593 7  21626371.259 7
        47.000          45.000
  20649299.280 8 110072405.568 8  85611905.51146  20649298.511 8  20649303.684 6
        52.000          42.000
  23721141.654 6 124655456.262 6  97134131.87642  23721141.933 2  23721144.366 2
        41.000          20.000
  19379853.973 8 103487365.584 8  80490203.96242  19379853.466 8  19379861.473 2
        54.000          20.000
  23709713.058 5 126875482.973 5  98680974.68844  23709712.127 5  23709713.289 4
        38.000          31.000
  22862646.595 7 120144019.944 7  93618729.16743  22862645.742 3  22862647.818 3
        45.000          29.000
  21150321.157 8 111145711.665 8  86607074.44546  21150320.861 6  21150323.782 6
        52.000          41.000
  22807566.037 6 122090654.302 6  94959429.97945  22807565.179 6  22807565.499 5
        43.000          37.000
  20965845.214 8 111917122.668 8  87046692.94947  20965844.617 8  20965849.001 7
        51.000          47.000
  24508912.556 5 128795204.603 5 100359917.99742  24508913.239 2  24508916.951 2
        39.000          20.000
  24604189.046 4 129295880.726 4
        34.000
  20623340.338 8 108376417.320 8  84449170.18546  20623339.864 6  20623342.367 6
        52.000          42.000
  22469336.591 7 118077173.519 7  92008204.53045  22469336.466 5  22469338.586 5
        48.000          35.000
 10  1  4  0 47  0.0000000  0 16R08G22G28G15R19R10G26R09R17G18G27R07
                                R18G12G09G17
  20817539.700 8 111476984.793 8  86704350.15347  20817539.351 7  20817540.847 7
        50.000          48.000
  23663592.278 6 124353017.969 6  96898474.48543  23663592.756 3  23663592.771 3
        43.000          26.000
  22698412.416 7 119280988.874 7  92946237.09644  22698411.994 4  22698412.961 4
        47.000          32.000
  21300128.188 8 111932934.265 8  87220484.72046  21300128.394 6  21300130.690 6
        51.000          41.000
  21607023.588 7 115583017.878 7  89897928.78047  21607022.928 7  21607026.096 7
        48.000          45.000
  20634141.000 8 109991600.139 8  85549056.85046  20634139.698 8  20634144.605 6
        53.000          42.000
  23699638.345 5 124542460.559 5  97046083.31542  23699638.893 1  23699641.176 2
        39.000          20.000
  19385059.378 8 103515162.319 8  80511823.83342  19385058.852 8  19385066.878 2
        54.000          20.000
  23730452.691 5 126986451.338 5  98767283.42844  23730450.423 5  23730453.167 4
        39.000          33.000
  22867158.807 7 120167733.479 7  93637207.22243  22867158.518 3  22867159.862 3
        45.000          29.000
  21143169.169 8 111108127.835 8  86577788.33446  21143168.869 6  21143171.859 6
        51.000          41.000
  22831400.069 6 122218239.307 6  95058662.72445  22831399.239 6  22831399.884 5
        43.000          37.000
  20968859.117 8 111933212.992 8  87059207.66647  20968858.446 8  20968862.926 7
        51.000          46.000
  24487328.648 5 128681778.906 5 100271534.33142  24487328.480 2  24487332.732 2
        39.000          20.000
  20609760.899 8 108305058.324 8  84393565.77346  20609760.577 6  20609763.094 6
        52.000          42.000
  22457588.345 7 118015437.196 7  91960098.32745  22457588.251 5  22457590.562 5
        47.000          35.000
 10  1  4  0 47 30.0000000  0 16R08G22G28G15R19R10G26R09R17G18G27R07
                                R18G12G09G17
  20824433.013 8 111513897.746 8  86733060.21347  20824432.561 7  20824434.105 7
        50.000          48.000
  23657206.631 6 124319460.950 6  96872326.16743  23657206.507 3  23657206.675 3
        44.000          26.000
  22713050.581 7 119357914.006 7  93006178.76544  22713049.981 4  22713052.036 4
        47.000          32.000
  21312409.909 8 111997473.489 8  87270775.00446  21312409.951 6  21312412.233 6
        52.000          41.000
  21587776.742 7 115480059.917 7  89817850.38047  21587775.906 7  21587779.172 7
        47.000          45.000
  20619044.625 8 109911130.291 8  85486469.19746  20619043.767 8  20619048.992 6
        53.000          42.000
  23678181.261 6 124429698.846 6  96958217.03242  23678180.625 1  23678182.911 2
        41.000          20.000
  19390358.386 8 103543458.392 8  80533831.94642  19390357.979 8  19390365.886 2
        54.000          20.000
  23751267.695 6 127097836.796 6  98853916.57644  23751265.324 5  23751266.820 4
        40.000          34.000
  22871779.061 7 120192007.844 7  93656122.31043  22871778.332 3  22871779.266 3
        45.000          28.000
  21136076.000 8 111070850.867 8  86548741.33646  21136075.452 6  21136078.379 6
        52.000          42.000
  22855279.932 6 122346065.969 6  95158083.45045  22855278.144 6  22855279.163 5
        43.000          37.000
  20972033.098 8 111950152.856 8  87072383.12047  20972032.098 8  20972036.767 7
        52.000          47.000
  24465766.311 5 128568466.643 5 100183239.05841  24465766.971 1  24465770.671 1
        38.000          19.000
  20596263.082 8 108234126.254 8  84338294.04046  20596262.555 6  20596265.211 6
        52.000          42.000
  22445931.688 7 117954178.486 7  91912364.29145  22445931.289 5  22445933.370 5
        47.000          35.000
 10  1  4  0 48  0.0000000  0 17R08G22G28G15R19R10G26R09R17G18G27R07
                                R18G12G11G09G17
  20831478.150 8 111551628.207 8  86762406.12347  20831478.229 7  20831479.776 7
        50.000          48.000
  23650925.945 7 124286447.777 7  96846601.63243  23650924.862 3  23650925.326 3
        45.000          26.000
  22727741.416 7 119435118.711 7  93066338.25144  22727741.125 4  22727743.577 4
        46.000          31.000
  21324781.108 8 112062483.327 8  87321432.01046  21324780.951 6  21324783.148 6
        52.000          41.000
  21568629.578 7 115377632.533 7  89738184.64647  21568628.277 7  21568631.356 7
        48.000          45.000
  20604012.256 8 109830997.859 8  85424143.98746  20604011.064 8  20604016.547 6
        53.000          43.000
  23656768.405 6 124317173.680 6  96870535.07541  23656767.206 1  23656768.797 1
        40.000          19.000
  19395750.548 8 103572253.395 8  80556228.11442  19395750.069 8  19395758.048 2
        54.000          20.000
  23772160.746 6 127209635.628 6  98940871.23844  23772158.866 6  23772159.058 4
        41.000          33.000
  22876504.384 7 120216842.018 7  93675473.60543  22876503.452 3  22876505.208 3
        46.000          28.000
  21129040.911 8 111033881.274 8  86519933.85046  21129040.286 6  21129043.147 6
        51.000          42.000
  22879202.838 6 122474130.151 6  95257688.89645  22879202.223 6  22879203.012 5
        43.000          37.000
  20975365.292 8 111967940.979 8  87086218.33247  20975364.466 8  20975368.958 7
        51.000          46.000
  24444226.534 5 128455269.703 5 100095033.66842  24444226.245 1  24444230.086 2
        39.000          20.000
  24593074.750 4 129237473.024 4
        31.000
  20582846.708 8 108163622.796 8  84283356.27946  20582846.194 6  20582849.030 6
        52.000          42.000
  22434365.765 7 117893399.734 7  91865004.24845  22434365.371 5  22434367.561 5
        48.000          35.000
 10  1  4  0 48 30.0000000  0 16R08G22G28G15R19R10G26R09R17G18G27R07
                                R18G12G09G17
  20838676.455 8 111590173.597 8  86792385.85747  20838676.183 7  20838677.879 7
        50.000          48.000
  23644746.559 6 124253979.803 6  96821301.89443  23644746.277 3  23644746.219 3
        42.000          25.000
  22742486.705 7 119512600.899 7  93126714.00944  22742486.051 4  22742487.559 4
        47.000          32.000
  21337240.511 8 112127962.207 8  87372454.50246  21337241.103 6  21337243.460 6
        51.000          41.000
  21549581.007 7 115275739.816 7  89658934.76847  21549580.459 7  21549583.740 7
        48.000          45.000
  20589042.803 8 109751204.219 8  85362082.26746  20589041.935 8  20589046.977 6
        53.000          42.000
  23635402.453 6 124204888.147 6  96783039.82741  23635401.083 1  23635403.401 1
        41.000          19.000
  19401235.898 8 103601546.471 8  80579011.61942  19401235.558 8  19401243.398 2
        54.000          20.000
  23793126.175 5 127321843.539 5  99028144.05344  23793124.789 5  23793128.793 4
        37.000          34.000
  22881335.408 6 120242234.576 6  93695260.00043  22881334.823 3  22881337.280 3
        44.000          28.000
  21122064.571 8 110997219.454 8  86491366.18746  21122063.939 6  21122066.797 6
        51.000          42.000
  22903168.780 6 122602427.102 6  95357475.38545  22903168.452 6  22903169.609 5
        41.000          37.000
  20978856.067 8 111986576.633 8  87100712.72547  20978855.262 8  20978859.683 7
        51.000          46.000
  24422708.752 6 128342189.533 6 100006919.24942  24422708.814 2  24422711.505 2
        40.000          22.000
  20569512.066 8 108093549.894 8  84228754.02346  20569511.745 6  20569514.430 6
        52.000          42.000
  22422891.126 7 117833103.267 7  91818020.01145  22422891.252 5  22422893.772 5
        48.000          35.000
 10  1  4  0 49  0.0000000  0 16R08G22G28G15R19R10G26R09R17G18G27R07
                                R18G12G09G17
  20846026.858 8 111629532.348 8  86822998.19747  20846026.394 7  20846027.955 7
        50.000          48.000
  23638672.671 6 124222057.739 6  96796427.56043  23638671.727 3  23638671.921 3
        43.000          26.000
  22757282.995 7 119590358.694 7  93187304.48244  22757282.501 4  22757284.385 4
        46.000          31.000
  21349790.092 8 112193908.506 8  87423841.21246  21349790.108 6  21349792.680 6
        51.000          41.000
  21530634.387 7 115174386.009 7  89580104.04047  21530633.377 7  21530636.650 7
        48.000          45.000
  20574138.098 8 109671751.015 8  85300285.34346  20574136.913 8  20574142.096 6
        54.000          42.000
  23614081.066 6 124092844.858 6  96695733.35742  23614080.206 2  23614082.826 2
        41.000          20.000
  19406815.061 8 103631336.841 8  80602181.86142  19406814.672 8  19406822.561 2
        54.000          20.000
  23814172.551 6 127434455.997 6  99115731.54145  23814171.071 5  23814172.120 5
        40.000          35.000
  22886274.015 7 120268184.641 7  93715480.81143  22886273.647 3  22886275.388 3
        46.000          28.000
  21115146.468 8 110960866.346 8  86463039.07646  21115146.033 6  21115149.041 6
        51.000          41.000
  22927180.040 6 122730953.835 6  95457440.57945  22927178.667 6  22927179.439 5
        42.000          37.000
  20982506.462 8 112006058.812 8  87115865.55147  20982505.395 8  20982508.890 7
        52.000          46.000
  24401213.709 6 128229228.129 6  99918897.40642  24401212.427 2  24401215.833 2
        41.000          21.000
  20556260.205 8 108023909.470 8  84174488.76346  20556259.628 6  20556262.375 6
        52.000          42.000
  22411509.326 7 117773291.191 7  91771413.22145  22411509.331 5  22411511.889 5
        48.000          35.000
 10  1  4  0 49 30.0000000  0 16R08G22G28G15R19R10G26R09R17G18G27R07
                                R18G12G09G17
  20853528.423 8 111669702.388 8  86854241.55147  20853527.959 7  20853529.329 7
        50.000          48.000
  23632701.849 6 124190682.897 6  96771979.65143  23632701.555 3  23632701.305 3
        43.000          26.000
  22772133.412 7 119668390.365 7  93248108.37044  22772132.487 4  22772133.539 4
        47.000          31.000
  21362427.821 8 112260320.610 8  87475590.89246  21362427.884 6  21362430.513 6
        51.000          41.000
  21511788.963 7 115073575.397 7  89501695.79847  21511788.115 7  21511790.890 7
        48.000          45.000
  20559297.154 8 109592639.853 8  85238754.44346  20559296.235 8  20559300.671 6
        54.000          42.000
  23592805.258 6 123981046.712 6  96608617.94042  23592804.808 2  23592808.507 2
        40.000          21.000
  19412486.654 8 103661623.902 8  80625738.28242  19412486.388 8  19412494.154 2
        54.000          20.000
  23835291.828 5 127547469.199 5  99203630.68245  23835290.271 5  23835292.289 5
        39.000          36.000
  22891319.172 7 120294691.157 7  93736135.22943  22891317.860 3  22891319.612 3
        46.000          28.000
  21108287.481 8 110924822.539 8  86434952.98146  21108287.209 6  21108290.251 6
        51.000          41.000
  22951231.655 6 122859704.842 6  95557580.22545  22951230.403 6  22951231.262 5
        41.000          36.000
  20986313.168 8 112026386.487 8  87131675.97747  20986312.806 8  20986317.860 7
        50.000          46.000
  24379738.670 6 128116387.340 6  99830969.54542  24379739.008 2  24379741.958 2
        40.000          20.000
  20543090.645 8 107954703.353 8  84120561.92346  20543090.180 6  20543092.703 6
        53.000          42.000
  22400219.864 7 117713965.887 7  91725185.73145  22400219.956 5  22400222.475 5
        48.000          35.000
 10  1  4  0 50  0.0000000  0 17R08G22G28G15R19R10G26R09R17G18G27R07
                                R18G12G11G09G17
  20861181.101 8 111710681.957 8  86886114.54247  20861180.775 7  20861182.173 7
        50.000          48.000
  23626835.308 6 124159856.246 6  96747958.88343  23626835.347 3  23626835.704 3
        42.000          26.000
  22787032.709 7 119746693.944 7  93309124.17044  22787032.230 4  22787033.873 4
        46.000          30.000
  21375153.522 8 112327196.868 8  87527702.24346  21375154.100 6  21375156.719 6
        51.000          41.000
  21493045.689 7 114973312.073 7  89423713.21847  21493044.968 7  21493047.671 7
        48.000          45.000
  20544520.527 8 109513872.100 8  85177490.64446  20544519.247 8  20544524.263 6
        54.000          43.000
  23571577.851 6 123869496.562 6  96521695.75042  23571578.242 2  23571579.966 2
        40.000          20.000
  19418251.453 8 103692407.105 8  80649680.63042  19418250.989 8  19418258.953 2
        54.000          20.000
  23856484.481 5 127660878.883 5  99291838.17944  23856483.727 5  23856484.741 4
        39.000          34.000
  22896468.426 7 120321752.772 7  93757222.18143  22896467.573 3  22896469.144 3
        45.000          29.000
  21101487.943 8 110889088.801 8  86407108.49846  21101487.065 6  21101490.188 6
        52.000          41.000
  22975323.941 6 122988675.798 6  95657890.93645  22975323.552 6  22975323.468 5
        41.000          36.000
  20990280.001 8 112047558.588 8  87148143.16147  20990279.503 8  20990283.622 7
        51.000          46.000
  24358290.645 6 128003668.949 6  99743137.06742  24358290.160 2  24358292.214 2
        41.000          22.000
  24579698.220 5 129167191.844 5
        35.000
  20530004.454 8 107885933.358 8  84066974.91646  20530003.785 6  20530006.229 6
        53.000          42.000
  22389024.238 7 117655129.056 7  91679338.87645  22389023.693 5  22389026.256 5
        49.000          35.000
 10  1  4  0 50 30.0000000  0 17R08G22G28G15R19R10G26R09R17G18G27R07
                                R18G12G11G09G17
  20868984.569 8 111752468.678 8  86918615.31847  20868984.034 7  20868985.701 7
        50.000          48.000
  23621073.355 6 124129578.839 6  96724366.12143  23621073.672 3  23621072.924 3
        43.000          26.000
  22801985.418 7 119825267.610 7  93370350.39344  22801984.501 4  22801985.746 4
        47.000          31.000
  21387968.131 8 112394535.699 8  87580174.03246  21387968.159 6  21387970.738 6
        51.000          41.000
  21474406.159 7 114873600.125 7  89346159.49047  21474405.127 7  21474407.978 7
        48.000          45.000
  20529808.045 8 109435449.382 8  85116495.19846  20529807.357 8  20529812.371 6
        53.000          43.000
  23550398.088 6 123758197.259 6  96434969.01642  23550398.807 2  23550401.004 2
        41.000          21.000
  19424109.345 8 103723685.625 8  80674008.35242  19424108.763 8  19424116.845 2
        54.000          20.000
  23877749.621 6 127774680.924 6  99380350.91445  23877749.352 5  23877752.745 5
        40.000          35.000
  22901723.832 7 120349368.009 7  93778740.53943  22901722.705 3  22901724.480 3
        45.000          28.000
  21094747.067 8 110853665.933 8  86379506.24646  21094746.546 6  21094749.530 6
        52.000          42.000
  22999457.791 6 123117862.421 6  95758369.37845  22999456.679 6  22999457.346 5
        42.000          36.000
  20994404.496 8 112069573.947 8  87165266.23347  20994403.832 8  20994407.641 7
        51.000          46.000
  24336864.523 6 127891074.503 6  99655401.12142  24336863.684 2  24336867.421 2
        42.000          22.000
  24576616.136 3 129150989.408 3
        27.000
  20517000.800 8 107817601.321 8  84013729.17746  20517000.548 6  20517003.042 6
        52.000          42.000
  22377921.160 7 117596782.955 7  91633874.40145  22377920.947 5  22377923.062 5
        48.000          35.000
 10  1  4  0 51  0.0000000  0 17R08G22G28G15R19R10G26R09R17G18G27R07
                                R18G12G11G09G17
  20876937.043 7 111795060.711 7  86951742.44647  20876937.432 7  20876939.406 7
        49.000          48.000
  23615417.034 6 124099851.467 6  96701201.92943  23615416.630 3  23615416.680 3
        43.000          26.000
  22816988.080 7 119904109.679 7  93431785.78144  22816988.234 4  22816989.187 4
        47.000          31.000
  21400869.783 8 112462335.667 8  87633005.15746  21400870.088 6  21400872.654 6
        50.000          40.000
  21455870.156 7 114774443.814 7  89269037.92347  21455868.834 7  21455871.805 7
        49.000          45.000
  20515161.605 8 109357373.206 8  85055769.29346  20515160.569 8  20515165.522 6
        54.000          42.000
  23529267.310 6 123647151.623 6  96348439.93242  23529267.642 2  23529269.702 2
        42.000          23.000
  19430058.928 8 103755458.664 8  80698720.65942  19430058.509 8  19430066.428 2
        54.000          20.000
  23899090.115 5 127888871.236 5  99469165.54645  23899088.928 5  23899090.527 5
        38.000          35.000
  22907083.875 7 120377536.003 7  93800689.59743  22907083.087 3  22907083.981 3
        46.000          28.000
  21088065.377 8 110818554.364 8  86352146.57446  21088064.939 6  21088068.040 6
        52.000          42.000
  23023631.113 6 123247261.702 6  95859013.21845  23023629.897 6  23023629.842 5
        41.000          36.000
  20998685.973 8 112092431.526 8  87183044.35047  20998685.373 8  20998690.438 7
        51.000          46.000
  24315461.295 6 127778605.968 6  99567763.37342  24315461.751 2  24315465.203 2
        41.000          22.000
  24573635.505 3 129135334.763 3
        28.000
  20504081.393 8 107749708.984 8  83960826.06146  20504081.031 6  20504083.520 6
        51.000          42.000
  22366912.449 7 117538929.973 7  91588794.17545  22366911.882 5  22366914.292 5
        47.000          36.000
 10  1  4  0 51 30.0000000  0 16R08G22G28G15R19R10G26R09R17G18G27R07
                                R18G12G09G17
  20885041.565 8 111838455.933 8  86985494.26747  20885041.400 7  20885042.970 7
        50.000          48.000
  23609865.357 6 124070675.307 6  96678467.25843  23609864.731 3  23609864.901 3
        44.000          26.000
  22832042.208 7 119983218.008 7  93493428.63244  22832041.616 4  22832043.354 4
        46.000          31.000
  21413859.578 8 112530595.022 8  87686194.25246  21413859.610 6  21413861.957 6
        51.000          41.000
  21437437.965 7 114675847.143 7  89192351.64847  21437437.249 7  21437440.270 7
        49.000          45.000
  20500579.949 8 109279645.367 8  84995314.30346  20500579.118 8  20500583.682 6
        54.000          42.000
  23508185.207 6 123536362.465 6  96262110.73542  23508185.055 2  23508187.739 2
        41.000          22.000
  19436101.414 8 103787725.835 8  80723817.30842  19436101.211 8  19436273.773 2
        54.000          20.000
  23920500.347 5 128003445.443 5  99558278.78645  23920499.409 5  23920502.936 5
        36.000          36.000
  22912549.042 7 120406255.531 7  93823068.42243  22912547.392 3  22912549.665 3
        45.000          28.000
  21081443.675 8 110783754.955 8  86325030.14146  21081443.002 6  21081446.002 6
        52.000          42.000
  23047841.795 6 123376867.422 6  95959817.63145  23047840.989 6  23047841.045 5
        40.000          35.000
  21003126.376 8 112116129.812 8  87201476.35147  21003125.504 8  21003129.906 7
        52.000          47.000
  24294084.732 6 127666265.186 6  99480225.12542  24294083.079 2  24294086.891 2
        42.000          22.000
  20491245.792 8 107682258.054 8  83908266.89046  20491245.359 6  20491248.067 6
        53.000          42.000
  22355997.474 7 117481572.084 7  91544099.74245  22355997.097 5  22355999.139 5
        48.000          36.000
 10  1  4  0 52  0.0000000  0 17R08G22G28G15R19R10G26R09R17G18G27R07
                                R18G12G11G09G17
  20893295.149 7 111882652.330 7  87019869.22647  20893294.684 7  20893296.422 7
        49.000          48.000
  23604417.910 6 124042051.017 6  96656162.63343  23604417.952 3  23604417.617 3
        44.000          26.000
  22847146.797 7 120062590.879 7  93555277.62844  22847145.643 4  22847147.463 4
        46.000          31.000
  21426935.894 8 112599311.968 8  87739739.90346  21426935.976 6  21426938.398 6
        50.000          41.000
  21419111.523 7 114577814.336 7  89116103.92847  21419110.704 7  21419114.051 7
        49.000          46.000
  20486063.274 8 109202267.008 8  84935131.13746  20486062.687 8  20486067.953 6
        53.000          43.000
  23487151.459 6 123425832.682 6  96175983.64142  23487151.873 2  23487154.511 2
        40.000          22.000
  19442236.845 8 103820486.029 8  80749297.41542  19442236.303 8  19442244.345 2
        54.000          20.000
  23941984.248 5 128118399.648 5  99647687.62545  23941983.244 5  23941985.288 5
        38.000          36.000
  22918118.295 6 120435525.256 6  93845875.97343  22918117.818 3  22918118.866 3
        44.000          27.000
  21074880.878 8 110749268.260 8  86298157.38546  21074880.220 6  21074883.437 6
        53.000          41.000
  23072092.106 6 123506675.719 6  96060779.61644  23072090.355 6  23072090.838 4
        41.000          34.000
  21007722.607 8 112140668.320 8  87220561.87047  21007721.937 8  21007726.195 7
        51.000          46.000
  24272729.627 6 127554053.722 6  99392787.63942  24272730.773 2  24272733.855 2
        41.000          22.000
  24567991.634 4 129105693.902 4
        31.000
  20478494.910 8 107615250.332 8  83856053.07646  20478494.491 6  20478496.944 6
        53.000          42.000
  22345177.023 7 117424711.318 7  91499792.68145  22345176.983 5  22345179.221 5
        49.000          36.000
 10  1  4  0 52 30.0000000  0 17R08G22G28G15R19R10G26R09R17G18G27R07
                                R18G12G11G09G17
  20901697.030 7 111927647.659 7  87054865.57847  20901697.291 7  20901699.099 7
        49.000          48.000
  23599076.297 6 124013979.764 6  96634288.93643  23599075.075 3  23599075.910 3
        42.000          26.000
  22862300.295 7 120142226.172 7  93617331.09844  22862299.648 4  22862301.645 4
        47.000          31.000
  21440099.171 8 112668484.985 8  87793640.94846  21440099.027 6  21440101.491 6
        51.000          40.000
  21400890.827 7 114480349.537 7  89040297.99547  21400890.765 7  21400893.758 7
        49.000          46.000
  20471613.870 8 109125239.990 8  84875221.24046  20471613.125 8  20471617.727 6
        53.000          43.000
  23466167.914 6 123315565.194 6  96090060.89442  23466168.463 2  23466171.443 2
        41.000          22.000
  19448463.552 8 103853738.718 8  80775160.68842  19448463.091 8  19448471.052 2
        54.000          20.000
  23963535.152 5 128233729.706 5  99737388.67944  23963533.861 4  23963535.438 4
        35.000          34.000
  22923793.073 7 120465343.956 7  93869111.31943  22923792.510 3  22923794.067 3
        46.000          28.000
  21068377.561 8 110715095.068 8  86271528.92246  21068377.242 6  21068380.329 6
        51.000          42.000
  23096377.266 6 123636683.199 6  96161896.49645  23096376.711 6  23096376.777 5
        41.000          35.000
  21012476.363 8 112166045.418 8  87240299.62347  21012475.849 8  21012480.170 7
        51.000          46.000
  24251402.635 6 127441973.452 6  99305452.43142  24251402.564 2  24251405.912 2
        41.000          22.000
  24565330.652 3 129091688.949 3
        28.000
  20465828.668 8 107548687.675 8  83804186.06446  20465827.913 6  20465830.533 6
        53.000          42.000
  22334451.881 7 117368350.073 7  91455874.85045  22334451.534 5  22334453.782 5
        49.000          36.000
 10  1  4  0 53  0.0000000  0 17R08G22G28G15R19R10G26R09R17G18G27R07
                                R18G12G11G09G17
  20910248.845 8 111973439.688 8  87090481.58547  20910248.586 7  20910250.637 7
        50.000          48.000
  23593839.265 6 123986462.379 6  96612846.79843  23593838.280 3  23593839.803 3
        44.000          26.000
  22877504.395 7 120222122.364 7  93679587.86244  22877503.559 4  22877505.913 4
        47.000          31.000
  21453348.607 8 112738112.326 8  87847896.00446  21453348.681 6  21453351.334 6
        51.000          40.000
  21382778.431 7 114383456.720 7  88964936.94247  21382777.544 7  21382780.704 7
        49.000          46.000
  20457229.881 8 109048565.673 8  84815585.66746  20457228.857 8  20457234.080 6
        53.000          43.000
  23445235.685 6 123205562.900 6  96004344.81642  23445235.055 2  23445237.950 2
        40.000          22.000
  19454783.148 8 103887483.152 8  80801406.27742  19454782.662 8  19454790.648 2
        54.000          20.000
  23985157.348 5 128349431.009 5  99827378.51245  23985155.476 5  23985156.927 5
        36.000          35.000
  22929571.225 7 120495710.290 7  93892773.37243  22929570.533 3  22929572.412 3
        46.000          28.000
  21061934.498 8 110681235.866 8  86245145.11646  21061934.218 6  21061937.222 6
        51.000          41.000
  23120700.098 6 123766884.971 6  96263164.52544  23120699.299 6  23120699.196 4
        41.000          34.000
  21017387.342 8 112192259.389 8  87260688.26347  21017386.577 8  21017391.795 7
        51.000          46.000
  24230100.010 6 127330026.077 6  99218220.73642  24230099.864 2  24230104.203 2
        41.000          22.000
  24562768.640 3 129078234.407 3
        28.000
  20453246.977 8 107482571.773 8  83752667.17146  20453246.629 6  20453249.024 6
        52.000          43.000
  22323821.460 7 117312489.933 7  91412347.48745  22323821.612 5  22323824.088 5
        46.000          36.000
 10  1  4  0 53 30.0000000  0 17R08G22G28G15R19R10G26R09R17G18G27R07
                                R18G12G11G09G17
  20918948.315 7 112020026.085 7  87126715.43047  20918948.230 7  20918949.910 7
        49.000          48.000
  23588707.991 6 123959499.687 6  96591836.90343  23588708.336 3  23588708.535 3
        43.000          26.000
  22892757.468 7 120302277.489 7  93742046.39944  22892755.995 4  22892758.530 4
        47.000          30.000
  21466683.802 8 112808191.950 8  87902503.47746  21466684.564 6  21466687.037 6
        51.000          40.000
  21364773.144 7 114287140.034 7  88890023.99347  21364772.327 7  21364775.116 7
        49.000          46.000
  20442912.460 8 108972245.629 8  84756225.63946  20442911.771 8  20442916.328 6
        54.000          43.000
  23424354.622 6 123095828.520 6  95918837.49942  23424353.701 2  23424356.398 2
        40.000          21.000
  19461194.675 8 103921718.413 8  80828033.73642  19461193.953 8  19461202.175 2
        54.000          20.000
  24006847.977 5 128465499.809 5  99917654.16744  24006846.848 5  24006847.553 4
        38.000          34.000
  22935454.027 7 120526622.777 7  93916861.01943  22935452.975 3  22935454.471 3
        45.000          28.000
  21055551.233 8 110647691.583 8  86219006.70746  21055550.938 6  21055553.912 6
        52.000          42.000
  23145058.963 6 123897277.335 6  96364580.77845  23145057.647 6  23145058.110 5
        42.000          35.000
  21022455.258 8 112219309.434 8  87281727.19547  21022454.476 8  21022458.714 7
        51.000          46.000
  24208820.997 6 127218213.388 6  99131094.00842  24208821.591 2  24208824.689 2
        41.000          21.000
  24560310.778 4 129065332.057 4
        31.000
  20440750.991 8 107416904.154 8  83701497.58746  20440750.296 6  20440753.161 6
        53.000          43.000
  22313287.887 7 117257133.230 7  91369212.41645  22313287.640 5  22313290.327 5
        47.000          36.000
 10  1  4  0 54  0.0000000  0 17R08G22G28G15R19R10G26R09R17G18G27R07
                                R18G12G11G09G17
  20927796.884 7 112067404.834 7  87163565.56447  20927795.961 7  20927797.689 7
        49.000          48.000
  23583683.176 6 123933092.474 6  96571259.86643  23583683.603 3  23583683.185 3
        44.000          26.000
  22908058.573 7 120382689.597 7  93804705.16844  22908057.669 3  22908059.794 4
        46.000          30.000
  21480105.930 8 112878722.886 8  87957462.64046  21480106.079 6  21480108.485 6
        50.000          40.000
  21346876.155 7 114191403.457 7  88815562.24547  21346875.688 7  21346878.240 7
        49.000          46.000
  20428661.534 8 108896281.705 8  84697142.59246  20428660.892 8  20428665.905 6
        53.000          43.000
  23403523.300 6 122986365.042 6  95833541.31542  23403523.797 2  23403526.838 2
        41.000          21.000
  19467697.232 8 103956443.911 8  80855042.46842  19467696.892 8  19467704.732 2
        54.000          20.000
  24028604.970 5 128581931.750 5 100008212.37745  24028604.099 5  24028607.292 5
        38.000          35.000
  22941439.553 7 120558080.055 7  93941373.17643  22941439.356 3  22941440.336 3
        46.000          27.000
  21049228.095 8 110614462.761 8  86193114.11546  21049227.648 6  21049230.650 6
        52.000          42.000
  23169452.809 6 124027855.530 6  96466141.56945  23169451.177 6  23169452.115 5
        42.000          35.000
  21027678.302 8 112247193.931 8  87303415.14847  21027677.424 8  21027682.134 7
        51.000          46.000
  24187571.855 6 127106537.517 6  99044073.90442  24187571.627 2  24187574.342 2
        41.000          22.000
  24557961.196 4 129052982.802 4
        34.000
  20428340.398 8 107351687.110 8  83650679.10246  20428340.071 6  20428342.586 6
        53.000          42.000
  22302850.120 7 117202281.960 7  91326471.19545  22302849.595 5  22302852.092 5
        49.000          36.000
 10  1  4  0 54 30.0000000  0 17R08G22G28G15R19R10G26R09R17G18G27R07
                                R18G12G11G09G17
  20936791.848 7 112115573.243 7  87201029.87147  20936791.436 7  20936792.951 7
        49.000          48.000
  23578763.692 6 123907241.478 6  96551116.24143  23578764.214 3  23578764.721 3
        43.000          27.000
  22923409.679 7 120463356.860 7  93867562.77444  22923408.714 4  22923410.698 4
        46.000          30.000
  21493613.207 8 112949703.009 8  88012771.82946  21493613.160 6  21493615.470 6
        51.000          40.000
  21329088.453 7 114096251.142 7  88741554.92147  21329087.947 7  21329090.834 7
        49.000          46.000
  20414478.111 8 108820675.374 8  84638337.67046  20414477.102 8  20414482.055 6
        53.000          42.000
  23382745.783 6 122877175.553 6  95748458.58442  23382745.990 2  23382747.698 2
        40.000          22.000
  19474292.086 8 103991658.687 8  80882431.62242  19474291.433 8  19474299.586 2
        54.000          20.000
  24050430.897 5 128698722.934 5 100099049.93245  24050429.942 5  24050431.230 5
        37.000          35.000
  22947529.894 7 120590080.790 7  93966308.79343  22947528.668 3  22947530.524 3
        45.000          27.000
  21042965.396 8 110581549.983 8  86167467.79846  21042964.699 6  21042967.565 6
        52.000          41.000
  23193879.357 6 124158616.118 6  96567844.24845  23193878.621 6  23193878.756 5
        42.000          35.000
  21033058.173 8 112275911.478 8  87325751.02247  21033057.247 8  21033061.750 7
        51.000          46.000
  24166347.134 6 126995000.084 6  98957161.67342  24166345.521 2  24166348.334 2
        41.000          22.000
  24555717.340 5 129041186.959 5
        35.000
  20416015.985 8 107286921.868 8  83600212.66946  20416015.630 6  20416018.264 6
        52.000          43.000
  22292508.429 7 117147938.296 7  91284125.51545  22292508.574 5  22292511.264 5
        48.000          36.000
 10  1  4  0 55  0.0000000  0 17R08G22G28G15R19R10G26R09R17G18G27R07
                                R18G12G11G09G17
  20945933.802 7 112164529.329 7  87239106.83547  20945933.538 7  20945934.873 7
        49.000          48.000
  23573951.377 7 123881947.425 7  96531406.56743  23573951.217 3  23573951.554 3
        45.000          27.000
  22938807.795 7 120544277.295 7  93930617.68343  22938807.683 3  22938809.218 3
        46.000          29.000
  21507205.401 8 113021130.264 8  88068429.41746  21507205.271 6  21507207.920 6
        50.000          40.000
  21311409.472 7 114001687.010 7  88668005.06847  21311409.424 7  21311412.887 7
        49.000          46.000
  20400361.693 8 108745427.877 8  84579811.84046  20400360.919 8  20400365.918 6
        54.000          43.000
  23362020.037 6 122768262.561 6  95663591.32542  23362019.274 2  23362024.184 2
        40.000          23.000
  19480978.218 8 104027362.127 8  80910200.90442  19480977.416 8  19480985.718 2
        54.000          20.000
  24072322.047 5 128815868.724 5 100190163.22345  24072321.810 4  24072322.351 5
        35.000          35.000
  22953722.557 7 120622623.545 7  93991666.75643  22953721.619 3  22953723.579 3
        45.000          27.000
  21036762.325 8 110548953.716 8  86142068.11146  21036761.663 6  21036764.700 6
        52.000          41.000
  23218338.799 6 124289553.771 6  96669684.64945  23218337.964 6  23218340.540 5
        40.000          36.000
  21038593.588 8 112305460.623 8  87348733.68447  21038593.038 8  21038597.658 7
        51.000          46.000
  24145147.833 6 126883602.587 6  98870358.46842  24145147.801 2  24145151.077 2
        41.000          22.000
  24553578.031 4 129029945.708 4
        33.000
  20403778.007 8 107222610.656 8  83550100.02646  20403777.588 6  20403780.201 6
        53.000          42.000
  22282264.672 7 117094103.840 7  91242176.61145  22282264.158 5  22282266.669 5
        49.000          37.000
 10  1  4  0 55 30.0000000  0 17R08G22G28G15R19R10G26R09R17G18G27R07
                                R18G12G11G09G17
  20955222.225 7 112214270.314 7  87277794.25647  20955222.143 7  20955223.793 7
        49.000          48.000
  23569244.430 7 123857211.451 7  96512131.78043  23569244.408 3  23569243.791 3
        45.000          27.000
  22954254.702 7 120625449.155 7  93993868.46343  22954254.122 3  22954255.696 3
        46.000          29.000
  21520882.266 8 113093003.232 8  88124434.31746  21520882.375 6  21520884.905 6
        51.000          40.000
  21293843.292 7 113907715.114 7  88594915.84547  21293842.463 7  21293845.552 7
        49.000          46.000
  20386313.368 8 108670540.793 8  84521566.33246  20386312.484 8  20386317.188 6
        54.000          43.000
  23341346.526 6 122659629.050 6  95578941.82342  23341346.807 2  23341350.196 2
        40.000          23.000
  19487755.477 8 104063553.707 8  80938349.89342  19487755.039 8  19487762.977 2
        54.000          20.000
  24094279.913 4 128933365.578 4 100281549.65145  24094277.787 4  24094279.090 5
        33.000          35.000
  22960017.768 6 120655707.185 6  94017446.19943  22960016.741 3  22960018.530 3
        44.000          27.000
  21030619.498 8 110516674.821 8  86116915.73046  21030619.144 6  21030622.203 6
        52.000          41.000
  23242831.758 6 124420663.819 6  96771659.11245  23242830.699 5  23242832.830 5
        41.000          35.000
  21044284.449 8 112335839.634 8  87372361.82147  21044284.011 8  21044288.607 7
        51.000          46.000
  24123975.755 6 126772346.978 6  98783665.81642  24123976.817 2  24123979.593 2
        42.000          23.000
  24551540.983 3 129019259.428 3
        28.000
  20391626.634 8 107158755.040 8  83500342.39046  20391626.059 6  20391628.937 6
        52.000          43.000
  22272117.319 8 117040780.817 8  91200626.23045  22272117.297 5  22272119.587 5
        50.000          37.000
 10  1  4  0 56  0.0000000  0 16R08G22G28G15R19R10G26R09R17G18G27R07
                                R18G12G09G17
  20964657.998 8 112264793.938 8  87317090.38047  20964657.196 7  20964658.632 7
        50.000          48.000
  23564643.539 6 123833034.229 6  96493292.37743  23564642.969 3  23564642.497 3
        44.000          26.000
  22969749.299 7 120706870.708 7  94057313.83344  22969748.290 4  22969749.886 4
        47.000          30.000
  21534643.458 8 113165320.717 8  88180785.59146  21534643.861 6  21534646.381 6
        51.000          40.000
  21276388.143 7 113814339.530 7  88522290.41647  21276387.334 7  21276389.743 7
        49.000          46.000
  20372332.695 8 108596015.818 8  84463602.46246  20372331.538 8  20372336.585 6
        54.000          43.000
  23320727.885 6 122551278.054 6  95494512.49242  23320728.614 2  23320732.261 2
        40.000          23.000
  19494624.209 8 104100232.423 8  80966877.82242  19494623.895 8  19494631.709 2
        54.000          20.000
  24116303.143 5 129051208.770 5 100373205.37044  24116301.846 4  24116301.558 4
        35.000          34.000
  22966416.883 7 120689330.087 7  94043645.83543  22966416.073 3  22966416.936 3
        45.000          27.000
  21024537.853 8 110484714.002 8  86092011.19846  21024537.277 6  21024540.364 6
        52.000          41.000
  23267355.072 6 124551943.453 6  96873765.49745  23267354.262 6  23267355.783 5
        40.000          35.000
  21050130.814 8 112367047.632 8  87396634.71247  21050130.349 8  21050134.794 7
        51.000          46.000
  24102832.925 6 126661235.107 6  98697085.18642  24102832.879 2  24102836.011 2
        41.000          22.000
  20379562.549 8 107095356.857 8  83450941.19846  20379562.053 6  20379564.655 6
        53.000          43.000
  22262067.734 7 116987971.085 7  91159475.80945  22262067.749 5  22262069.850 5
        47.000          37.000
 10  1  4  0 56 30.0000000  0 16R08G22G28G15R19R10G26R09R17G18G27R07
                                R18G12G09G17
  20974238.296 7 112316097.749 7  87356993.32547  20974238.032 7  20974239.329 7
        49.000          48.000
  23560148.781 7 123809416.295 7  96474888.79743  23560148.611 3  23560148.676 3
        45.000          26.000
  22985289.935 7 120788539.923 7  94120952.19843  22985288.944 3  22985290.272 3
        46.000          29.000
  21548489.465 8 113238080.408 8  88237481.43646  21548489.721 6  21548492.191 6
        50.000          40.000
  21259044.260 8 113721563.971 8  88450131.68347  21259043.562 7  21259046.228 7
        50.000          46.000
  20358419.905 8 108521854.852 8  84405921.71246  20358418.928 8  20358424.384 6
        54.000          43.000
  23300164.570 6 122443212.228 6  95410305.36042  23300165.201 2  23300167.732 2
        41.000          23.000
  19501583.938 8 104137397.447 8  80995783.98542  19501583.342 8  19501591.438 2
        54.000          20.000
  24138386.730 4 129169394.466 4 100465127.54945  24138383.919 4  24138388.199 5
        32.000          35.000
  22972915.877 6 120723490.735 6  94070264.51843  22972915.349 3  22972917.255 3
        44.000          27.000
  21018516.622 8 110453071.837 8  86067354.96946  21018516.053 6  21018519.040 6
        52.000          42.000
  23291910.055 6 124683388.259 6  96976000.35545  23291909.117 5  23291910.382 5
        40.000          35.000
  21056132.467 8 112399082.216 8  87421550.50947  21056131.707 8  21056136.530 7
        51.000          46.000
  24081716.565 6 126550268.575 6  98610617.81842  24081716.729 2  24081719.415 2
        40.000          21.000
  20367585.530 8 107032417.753 8  83401897.73446  20367585.009 6  20367587.798 6
        53.000          43.000
  22252116.392 7 116935676.673 7  91118726.93245  22252116.306 5  22252118.579 5
        48.000          37.000
 10  1  4  0 57  0.0000000  0 16R08G22G28G15R19R10G26R09R17G18G27R07
                                R18G12G09G17
  20983964.204 7 112368179.248 7  87397501.12747  20983963.881 7  20983965.166 7
        49.000          48.000
  23555761.112 7 123786358.660 7  96456921.79243  23555760.601 3  23555760.946 3
        45.000          26.000
  23000877.445 7 120870455.196 7  94184782.25543  23000876.933 3  23000878.900 3
        47.000          29.000
  21562418.962 8 113311280.116 8  88294520.15946  21562418.958 6  21562421.712 6
        51.000          41.000
  21241813.961 7 113629392.591 7  88378442.86347  21241813.259 7  21241815.827 7
        49.000          46.000
  20344576.104 8 108448059.071 8  84348524.99846  20344575.138 8  20344580.398 6
        54.000          42.000
  23279655.809 6 122335434.629 6  95326322.81742  23279656.103 2  23279657.734 2
        43.000          23.000
  19508634.565 8 104175048.122 8  81025067.77942  19508634.153 8  19508642.065 2
        54.000          20.000
  24160535.397 5 129287918.578 5 100557312.92745  24160535.071 4  24160537.039 5
        35.000          35.000
  22979519.212 7 120758187.897 7  94097301.23843  22979518.474 3  22979520.406 3
        45.000          27.000
  21012555.866 8 110421749.093 8  86042947.63846  21012555.498 6  21012558.489 6
        51.000          42.000
  23316495.896 6 124814992.648 6  97078359.31745  23316494.774 6  23316495.859 5
        41.000          35.000
  21062288.417 8 112431942.481 8  87447108.50247  21062287.541 8  21062291.706 7
        52.000          46.000
  24060627.319 6 126439449.312 6  98524265.16142  24060627.876 2  24060631.141 2
        41.000          22.000
  20355696.624 8 106969939.372 8  83353213.27046  20355695.948 6  20355698.491 6
        52.000          43.000
  22242263.746 7 116883899.440 7  91078381.05245  22242263.560 5  22242265.509 5
        49.000          37.000
 10  1  4  0 57 30.0000000  0 17R08G22G28G15R19R10G26R09R17G18G27R07
                                R18G12G11G09G17
  20993834.067 7 112421035.804 7  87438611.77047  20993834.207 7  20993835.563 7
        49.000          47.000
  23551481.296 7 123763861.785 7  96439391.75843  23551479.950 3  23551479.950 3
        46.000          27.000
  23016511.843 7 120952614.423 7  94248802.44243  23016512.018 3  23016513.066 3
        46.000          29.000
  21576431.847 8 113384918.425 8  88351900.65246  21576432.150 5  21576434.494 6
        51.000          40.000
  21224697.173 7 113537829.228 7  88307226.94447  21224696.395 7  21224699.062 7
        49.000          46.000
  20330801.022 8 108374629.748 8  84291413.30246  20330800.193 8  20330805.156 6
        54.000          43.000
  23259201.443 6 122227948.268 6  95242567.21042  23259201.629 2  23259205.248 2
        40.000          24.000
  19515777.095 8 104213183.599 8  81054728.87442  19515776.438 8  19515784.595 2
        54.000          20.000
  24182748.207 5 129406776.823 5 100649758.14645  24182747.836 5  24182748.248 5
        36.000          35.000
  22986223.846 7 120793419.960 7  94124754.78243  22986222.766 3  22986224.430 3
        45.000          27.000
  21006656.344 8 110390746.430 8  86018789.71946  21006655.876 6  21006658.932 6
        51.000          42.000
  23341109.583 6 124946753.731 6  97180840.16245  23341108.355 6  23341110.690 5
        40.000          36.000
  21068598.105 8 112465626.177 8  87473306.93647  21068597.566 8  21068602.052 7
        51.000          46.000
  24039568.499 6 126328778.860 6  98438028.48842  24039567.429 2  24039570.947 2
        41.000          22.000
  24544470.571 4 128982069.549 4
        30.000
  20343895.024 8 106907923.409 8  83304889.13046  20343894.665 6  20343897.365 6
        52.000          43.000
  22232509.588 7 116832641.437 7  91038439.77745  22232509.368 5  22232511.320 5
        49.000          36.000
 10  1  4  0 58  0.0000000  0 17R08G22G28G15R19R10G26R09R17G18G27R07
                                R18G12G11G09G17
  21003849.515 7 112474665.105 7  87480323.45047  21003849.086 7  21003850.776 7
        49.000          48.000
  23547306.248 7 123741926.525 7  96422299.33243  23547305.802 3  23547305.858 3
        45.000          27.000
  23032192.401 6 121035015.735 6  94313011.23743  23032191.688 3  23032193.447 3
        44.000          29.000
  21590527.860 8 113458993.838 8  88409621.75146  21590528.061 6  21590530.680 6
        50.000          40.000
  21207694.231 7 113446877.877 7  88236487.03647  21207693.789 7  21207696.865 7
        49.000          46.000
  20317094.698 8 108301568.981 8  84234588.25346  20317093.765 8  20317099.311 6
        53.000          43.000
  23238804.700 6 122120755.986 6  95159040.76942  23238803.948 2  23238806.156 2
        42.000          24.000
  19523008.454 8 104251802.801 8  81084766.17042  19523007.836 8  19523015.954 2
        53.000          20.000
  24205020.306 5 129525965.071 5 100742460.09445  24205019.618 4  24205021.244 5
        35.000          36.000
  22993029.454 7 120829185.177 7  94152623.77943  22993029.122 3  22993030.551 3
        45.000          27.000
  21000817.913 8 110360064.389 8  85994881.63546  21000817.388 6  21000820.344 6
        52.000          41.000
  23365752.512 5 125078667.400 5  97283439.68345  23365750.646 5  23365753.228 5
        39.000          36.000
  21075062.193 8 112500131.885 8  87500144.71847  21075061.660 8  21075066.395 7
        51.000          46.000
  24018535.538 6 126218259.069 6  98351909.22242  24018536.081 2  24018539.102 2
        41.000          22.000
  24542961.543 3 128974168.217 3
        27.000
  20332182.425 8 106846371.645 8  83256926.70846  20332181.722 6  20332184.724 6
        53.000          43.000
  22222854.330 7 116781904.617 7  90998904.60345  22222854.548 5  22222856.329 5
        48.000          36.000
 10  1  4  0 58 30.0000000  0 16R08G22G28G15R19R10G26R09G18G27R07R18
                                G12G11G09G17
  21014008.360 7 112529064.237 7  87522633.86947  21014007.814 7  21014009.316 7
        49.000          47.000
  23543239.917 7 123720553.284 7  96405644.85343  23543239.261 3  23543238.356 3
        45.000          26.000
  23047918.841 7 121117657.437 7  94377407.37543  23047917.999 3  23047919.546 3
        45.000          29.000
  21604707.025 8 113533504.204 8  88467681.77446  21604706.941 6  21604709.383 6
        51.000          40.000
  21190807.134 8 113356542.450 8  88166226.18247  21190806.576 7  21190809.670 7
        50.000          46.000
  20303458.658 8 108228877.779 8  84178050.64446  20303457.551 8  20303462.616 6
        54.000          43.000
  23218462.639 6 122013860.552 6  95075745.59942  23218462.569 2  23218465.139 2
        42.000          23.000
  19530331.094 8 104290905.192 8  81115179.08442  19530330.673 8  19530338.594 2
        53.000          20.000
  22999936.868 7 120865482.219 7  94180907.15243  22999935.968 3  22999937.723 3
        45.000          27.000
  20995040.231 8 110329703.769 8  85971224.01146  20995039.755 6  20995042.878 6
        51.000          42.000
  23390422.479 6 125210728.183 6  97386153.61145  23390421.608 5  23390422.998 5
        40.000          35.000
  21081680.462 8 112535457.685 8  87527620.34247  21081679.439 8  21081683.847 7
        51.000          46.000
  23997533.563 6 126107891.716 6  98265908.69542  23997535.098 2  23997537.129 2
        41.000          23.000
  24541569.220 4 128966824.728 4
        32.000
  20320558.141 8 106785286.086 8  83209327.56846  20320557.509 6  20320560.201 6
        53.000          43.000
  22213299.320 7 116731690.462 7  90959776.70245  22213299.094 5  22213301.253 5
        48.000          36.000
 10  1  4  0 59  0.0000000  0 16R08G22G28G15R19R10G26R09G18G27R07R18
                                G12G11G09G17
  21024309.687 7 112584230.852 7  87565541.22747  21024309.641 7  21024311.496 7
        48.000          47.000
  23539278.692 6 123699742.821 6  96389428.89843  23539278.744 3  23539279.180 3
        44.000          27.000
  23063690.340 7 121200537.626 7  94441989.33643  23063689.485 3  23063691.361 3
        47.000          29.000
  21618968.318 8 113608447.892 8  88526079.46046  21618968.270 6  21618970.722 6
        51.000          40.000
  21174036.335 8 113266826.808 8  88096447.37547  21174035.190 7  21174037.357 7
        50.000          46.000
  20289891.319 8 108156558.245 8  84121802.11646  20289890.470 8  20289895.696 6
        54.000          43.000
  23198179.090 6 121907265.026 6  94992684.15242  23198178.564 2  23198180.557 2
        43.000          24.000
  19537743.930 8 104330489.849 8  81145967.12242  19537743.531 8  19537751.430 2
        54.000          20.000
  23006944.683 7 120902309.380 7  94209603.61943  23006944.358 3  23006945.518 3
        45.000          27.000
  20989324.171 8 110299665.231 8  85947817.35546  20989323.704 6  20989326.757 6
        52.000          42.000
  23415119.360 6 125342932.589 6  97488979.27345  23415118.538 6  23415119.456 5
        41.000          35.000
  21088450.741 8 112571602.223 8  87555732.76347  21088450.638 8  21088454.974 7
        51.000          46.000
  23976561.254 6 125997678.596 6  98180028.36142  23976561.673 2  23976564.669 2
        41.000          23.000
  24540280.061 5 128960041.625 5
        35.000
  20309022.720 8 106724668.112 8  83162092.78246  20309022.175 6  20309025.066 6
        52.000          43.000
  22203843.785 7 116682001.098 7  90921057.74045  22203843.644 5  22203845.566 5
        47.000          37.000
 10  1  4  0 59 30.0000000  0 16R08G22G28G15R19R10G26R09G18G27R07R18
                                G12G11G09G17
  21034755.129 7 112640161.983 7  87609043.20447  21034754.391 7  21034756.033 7
        49.000          47.000
  23535425.909 6 123679495.830 6  96373652.04043  23535425.766 3  23535426.473 3
        44.000          27.000
  23079507.156 7 121283654.511 7  94506755.71943  23079506.072 3  23079508.227 3
        45.000          29.000
  21633311.589 8 113683822.948 8  88584813.27345  21633311.436 5  21633314.043 5
        50.000          39.000
  21157381.358 7 113177734.747 7  88027153.58647  21157380.592 7  21157382.945 7
        49.000          46.000
  20276394.687 8 108084611.877 8  84065843.82746  20276393.561 8  20276398.820 6
        54.000          43.000
  23177951.046 6 121800972.234 6  94909858.57642  23177951.052 2  23177952.681 2
        42.000          23.000
  19545246.978 8 104370556.076 8  81177129.80342  19545246.659 8  19545436.500 2
        54.000          20.000
  23014053.019 7 120939665.344 7  94238712.10743  23014053.155 3  23014054.688 3
        46.000          28.000
  20983669.182 8 110269949.292 8  85924662.07646  20983669.143 6  20983671.961 6
        51.000          42.000
  23439841.921 6 125475276.636 6  97591913.52245  23439841.533 5  23439842.792 5
        40.000          35.000
  21095374.437 8 112608563.161 8  87584480.17547  21095374.022 8  21095378.750 7
        50.000          46.000
  23955619.290 6 125887621.587 6  98094269.69642  23955618.556 2  23955621.602 2
        41.000          24.000
  24539094.561 4 128953818.312 4
        30.000
  20297577.148 8 106664519.627 8  83115223.82946  20297576.470 6  20297579.033 6
        52.000          43.000
  22194487.957 7 116632838.266 7  90882749.04645  22194487.974 5  22194490.414 5
        49.000          37.000
                            4  4
RINEX FILE SPLICE                                           COMMENT
teqc  2009Dec10                         20100104 02:00:07UTCCOMMENT
Forced Modulo Decimation to 30 seconds                      COMMENT
IMoS GFileSrv 3.52  Lantmäteriet        04.01.2010          COMMENT
 10  1  4  1  0  0.0000000  0 16R08G22G28G15R19R10G26R09G18G27R07R18
                                G12G11G09G17
  21045341.955 7 112696854.801 7  87653137.59547  21045341.445 7  21045343.511 7
        49.000          48.000
  23531679.603 6 123659813.055 6  96358314.79143  23531679.408 3  23531679.960 3
        43.000          27.000
  23095368.018 7 121367006.239 7  94571705.12143  23095367.636 3  23095369.600 3
        45.000          29.000
  21647736.358 7 113759627.446 7  88643881.69446  21647736.685 6  21647739.104 6
        49.000          40.000
  21140843.503 7 113089270.175 7  87958347.84447  21140842.795 7  21140845.550 7
        49.000          47.000
  20262967.851 8 108013039.547 8  84010176.45746  20262967.006 8  20262971.894 6
        54.000          43.000
  23157783.080 6 121694985.141 6  94827271.23142  23157782.227 2  23157785.221 2
        42.000          23.000
  19552840.173 8 104411102.856 8  81208666.23442  19552839.566 8  19552847.673 2
        54.000          20.000
  23021262.653 6 120977548.339 6  94268231.28543  23021261.568 3  23021263.524 3
        44.000          27.000
  20978076.564 8 110240556.464 8  85901758.57646  20978075.725 6  20978078.598 6
        51.000          42.000
  23464590.715 6 125607755.125 6  97694952.34145  23464589.995 5  23464591.554 5
        40.000          36.000
  21102451.794 8 112646338.860 8  87613861.27247  21102451.042 8  21102455.494 7
        51.000          46.000
  23934705.347 6 125777722.209 6  98008633.84042  23934704.817 2  23934708.855 2
        42.000          24.000
  24538014.491 4 128948155.249 4
        30.000
  20286220.989 8 106604842.234 8  83068721.95646  20286220.337 6  20286222.822 6
        53.000          43.000
  22185233.596 7 116584203.933 7  90844852.18345  22185233.186 5  22185235.646 5
        49.000          37.000
 10  1  4  1  0 30.0000000  0 16R08G22G28G15R19R10G26R09G18G27R07R18
                                G12G11G09G17
  21056070.845 7 112754306.573 7  87697822.27947  21056070.374 7  21056071.705 7
        49.000          47.000
  23528042.385 6 123640695.099 6  96343417.68243  23528042.223 3  23528042.554 3
        44.000          27.000
  23111273.270 7 121450590.908 7  94636836.00643  23111273.150 3  23111275.388 3
        45.000          28.000
  21662243.140 7 113835859.631 7  88703283.38746  21662243.199 5  21662245.689 6
        49.000          40.000
  21124423.114 7 113001436.833 7  87890033.05847  21124422.889 7  21124426.057 7
        49.000          46.000
  20249611.347 8 107941843.528 8  83954801.77146  20249610.438 8  20249615.701 6
        54.000          43.000
  23137672.295 6 121589306.640 6  94744924.36243  23137672.764 3  23137675.508 3
        43.000          25.000
  19560523.411 8 104452129.557 8  81240575.74842  19560522.908 8  19560530.911 2
        54.000          20.000
  23028571.175 7 121015956.830 7  94298159.95143  23028570.663 3  23028572.022 3
        45.000          27.000
  20972544.269 8 110211487.644 8  85879107.54746  20972544.095 6  20972547.094 6
        50.000          42.000
  23489362.638 5 125740365.399 5  97798093.65945  23489362.349 5  23489362.754 5
        39.000          35.000
  21109680.523 8 112684927.389 8  87643874.56947  21109680.082 8  21109684.579 7
        51.000          46.000
  23913822.299 6 125667982.460 6  97923122.37943  23913821.981 3  23913825.595 3
        43.000          25.000
  24537046.541 4 128943053.225 4
        34.000
  20274954.393 8 106545637.728 8  83022588.57246  20274953.999 6  20274956.740 6
        51.000          43.000
  22176078.894 7 116536099.774 7  90807368.44645  22176079.254 5  22176081.592 5
        46.000          37.000
 10  1  4  1  1  0.0000000  0 16R08G22G28G15R19R10G26R09G18G27R07R18
                                G12G11G09G17
  21066939.820 7 112812514.870 7  87743095.38547  21066940.003 7  21066942.140 7
        49.000          48.000
  23524512.553 6 123622142.572 6  96328961.16643  23524511.868 3  23524511.733 3
        44.000          26.000
  23127223.554 7 121534406.788 7  94702147.08243  23127223.024 3  23127224.931 3
        45.000          28.000
  21676830.636 7 113912517.794 7  88763017.00245  21676831.029 6  21676833.328 5
        49.000          39.000
  21108123.673 8 112914238.634 8  87822212.26147  21108122.338 7  21108125.257 7
        50.000          47.000
  20236325.623 8 107871025.167 8  83899720.81946  20236325.136 8  20236330.490 6
        54.000          43.000
  23117622.113 6 121483939.597 6  94662820.17142  23117621.597 2  23117624.302 2
        41.000          24.000
  19568295.664 8 104493635.060 8  81272857.80242  19568295.376 8  19568303.164 2
        54.000          20.000
  23035979.922 6 121054889.124 6  94328496.76143  23035979.136 3  23035980.565 3
        44.000          27.000
  20967074.656 8 110182743.376 8  85856709.41546  20967074.235 6  20967077.225 6
        52.000          42.000
  23514158.107 5 125873102.080 5  97901333.28144  23514158.115 5  23514158.244 4
        38.000          34.000
  21117061.145 8 112724327.019 8  87674518.73347  21117060.480 8  21117065.387 7
        51.000          46.000
  23892970.706 6 125558404.017 6  97837736.60243  23892970.668 3  23892974.065 3
        42.000          26.000
  24536180.021 4 128938512.371 4
        30.000
  20263778.616 8 106486907.646 8  82976824.86346  20263777.967 6  20263780.627 6
        52.000          43.000
  22167026.697 7 116488527.696 7  90770299.30845  22167026.758 5  22167028.988 5
        47.000          37.000
 10  1  4  1  1 30.0000000  0 16R08G22G28G15R19R10G26R09G18G27R07R18
                                G12G11G09G17
  21077950.800 7 112871476.747 7  87788954.59447  21077950.692 7  21077952.834 7
        48.000          47.000
  23521088.913 6 123604155.353 6  96314945.13043  23521089.001 3  23521088.516 3
        44.000          27.000
  23143216.494 6 121618452.102 6  94767636.91943  23143215.638 3  23143218.127 3
        44.000          28.000
  21691498.785 8 113989599.588 8  88823080.71645  21691499.047 5  21691501.494 5
        51.000          39.000
  21091941.898 8 112827679.331 8  87754888.38547  21091940.755 7  21091943.828 7
        50.000          47.000
  20223112.079 8 107800585.726 8  83844934.58246  20223111.020 8  20223116.083 6
        54.000          43.000
  23097630.905 6 121378887.240 6  94580961.17543  23097630.528 3  23097633.319 3
        42.000          25.000
  19576157.829 8 104535618.659 8  81305511.61742  19576157.553 8  19576165.329 2
        54.000          20.000
  23043488.365 7 121094343.656 7  94359240.52843  23043487.131 3  23043488.741 3
        45.000          27.000
  20961666.676 8 110154324.381 8  85834564.74346  20961666.283 6  20961669.281 6
        53.000          42.000
  23538977.818 5 126005961.323 5  98004668.24345  23538976.847 5  23538979.312 5
        39.000          35.000
  21124593.931 8 112764535.059 8  87705791.66747  21124592.850 8  21124597.482 7
        50.000          46.000
  23872149.039 6 125448988.463 6  97752477.73543  23872149.906 3  23872152.287 3
        41.000          25.000
  24535421.033 4 128934533.257 4
        32.000
  20252693.304 8 106428653.669 8  82931432.14646  20252692.848 6  20252695.304 6
        53.000          43.000
  22158075.531 7 116441489.211 7  90733645.95645  22158075.614 5  22158077.642 5
        49.000          37.000
 10  1  4  1  2  0.0000000  0 16R08G22G28G15R19R10G26R09G18G27R07R18
                                G12G11G09G17
  21089102.788 7 112931189.453 7  87835397.78747  21089102.141 7  21089103.512 7
        49.000          47.000
  23517773.532 6 123586734.299 6  96301370.27943  23517773.887 3  23517774.062 3
        42.000          27.000
  23159253.576 7 121702724.836 7  94833303.96643  23159252.594 3  23159254.800 3
        45.000          28.000
  21706247.625 8 114067103.615 8  88883473.45245  21706247.785 5  21706250.072 5
        50.000          39.000
  21075880.704 8 112741762.647 8  87688064.32647  21075880.010 7  21075882.457 7
        50.000          46.000
  20209969.370 8 107730527.189 8  83790444.59946  20209968.500 8  20209973.028 6
        54.000          43.000
  23077701.418 6 121274152.107 6  94499349.38742  23077700.181 2  23077703.024 2
        42.000          24.000
  19584109.693 8 104578079.545 8  81338536.76842  19584109.276 8  19584117.193 2
        54.000          20.000
  23051094.794 6 121134318.242 6  94390389.52243  23051094.227 3  23051095.110 3
        44.000          26.000
  20956321.143 8 110126231.316 8  85812674.04146  20956320.440 6  20956323.441 6
        52.000          42.000
  23563819.586 5 126138939.285 5  98108095.56845  23563818.295 5  23563820.863 5
        38.000          35.000
  21132277.574 8 112805550.398 8  87737692.47547  21132276.764 7  21132281.250 7
        51.000          46.000
  23851360.071 6 125339737.827 6  97667347.38943  23851360.227 3  23851362.467 3
        44.000          25.000
  24534774.713 4 128931116.470 4
        33.000
  20241698.574 8 106370877.623 8  82886411.84346  20241698.189 6  20241701.013 6
        53.000          43.000
  22149226.222 7 116394986.386 7  90697410.01245  22149226.361 5  22149228.677 5
        48.000          37.000
 10  1  4  1  2 30.0000000  0 16R08G22G28G15R19R10G26R09G18G27R07R18
                                G12G11G09G17
  21100392.985 7 112991650.013 7  87882422.64047  21100392.728 7  21100394.235 7
        48.000          47.000
  23514566.436 7 123569879.905 7  96288236.98643  23514565.923 3  23514566.929 3
        45.000          26.000
  23175332.487 7 121787223.064 7  94899146.74143  23175332.283 3  23175333.570 3
        45.000          27.000
  21721076.327 8 114145027.634 8  88944193.44746  21721076.232 6  21721078.674 6
        50.000          40.000
  21059940.688 8 112656492.190 8  87621742.88947  21059939.640 7  21059941.954 7
        50.000          47.000
  20196897.993 8 107660850.812 8  83736251.85646  20196896.819 8  20196901.984 6
        54.000          43.000
  23057832.031 6 121169737.420 6  94417987.31542  23057831.495 3  23057833.037 2
        43.000          24.000
  19592150.352 8 104621016.839 8  81371932.26642  19592149.892 8  19592157.852 2
        54.000          20.000
  23058800.785 7 121174811.586 7  94421942.73643  23058799.643 3  23058801.680 3
        45.000          27.000
  20951036.919 8 110098464.663 8  85791037.68746  20951036.513 6  20951039.423 6
        51.000          42.000
  23588683.037 5 126272032.178 5  98211612.24544  23588681.906 5  23588683.046 4
        37.000          34.000
  21140111.926 8 112847370.576 8  87770219.28247  21140111.412 8  21140115.689 7
        51.000          46.000
  23830602.343 6 125230653.682 6  97582346.76243  23830601.721 3  23830604.415 3
        42.000          25.000
  24534229.762 4 128928261.858 4
        33.000
  20230795.316 8 106313581.031 8  82841765.14446  20230794.984 6  20230797.772 6
        53.000          43.000
  22140479.437 7 116349020.746 7  90661592.64445  22140479.182 5  22140481.651 5
        48.000          37.000
 10  1  4  1  3  0.0000000  0 16R08G22G28G15R19R10G26R09G18G27R07R18
                                G12G11G09G17
  21111822.739 7 113052855.266 7  87930026.68647  21111822.207 7  21111824.240 7
        49.000          48.000
  23511467.824 7 123553592.729 7  96275545.67043  23511467.291 3  23511467.801 3
        45.000          27.000
  23191454.270 6 121871945.308 6  94965164.08043  23191454.418 3  23191455.552 3
        44.000          27.000
  21735984.195 8 114223369.740 8  89005239.23545  21735984.144 5  21735986.862 5
        50.000          39.000
  21044121.300 8 112571871.827 8  87555927.07347  21044120.565 7  21044122.965 7
        50.000          47.000
  20183899.104 8 107591558.437 8  83682357.77946  20183898.214 8  20183902.832 6
        54.000          43.000
  23038023.499 6 121065645.919 6  94336877.01443  23038024.064 2  23038025.454 3
        42.000          25.000
  19600279.946 8 104664429.420 8  81405697.59142  19600279.708 8  19600287.446 2
        54.000          20.000
  23066604.165 7 121215821.928 7  94453898.79043  23066603.890 3  23066605.858 3
        45.000          27.000
  20945815.299 8 110071025.192 8  85769656.29046  20945815.056 6  20945817.971 6
        51.000          42.000
  23613566.502 5 126405234.739 5  98315214.22744  23613564.500 5  23613565.169 4
        39.000          34.000
  21148096.021 8 112889993.345 8  87803370.34947  21148095.485 8  21148100.360 7
        50.000          46.000
  23809874.685 6 125121737.869 6  97497477.32643  23809875.567 3  23809878.752 3
        42.000          26.000
  24533792.223 5 128925970.283 5 100461790.62841  24533792.830 1  24533795.142 1
        36.000          12.000
  20219983.571 8 106256765.433 8  82797493.24746  20219983.377 6  20219986.047 6
        53.000          43.000
  22131834.830 7 116303594.009 7  90626195.20345  22131834.900 5  22131837.070 5
        48.000          37.000
 10  1  4  1  3 30.0000000  0 16R08G22G28G15R19R10G26R09G18G27R07R18
                                G12G11G09G17
  21123390.686 7 113114802.329 7  87978207.70347  21123390.496 7  21123392.003 7
        49.000          48.000
  23508475.526 6 123537873.258 6  96263296.71743  23508475.215 3  23508475.513 3
        44.000          27.000
  23207619.457 6 121956889.448 6  95031354.29543  23207619.282 3  23207621.007 3
        44.000          27.000
  21750971.286 8 114302128.357 8  89066609.57245  21750971.405 5  21750974.079 5
        50.000          39.000
  21028424.247 8 112487905.212 8  87490619.73947  21028423.886 7  21028426.609 7
        50.000          47.000
  20170972.297 8 107522651.395 8  83628763.41346  20170971.436 8  20170976.038 6
        54.000          43.000
  23018277.636 6 120961880.717 6  94256021.01743  23018277.850 3  23018279.981 3
        44.000          25.000
  19608498.830 8 104708316.467 8  81439832.41742  19608498.452 8  19608662.335 2
        54.000          20.000
  23074506.114 7 121257347.813 7  94486256.60043  23074506.185 3  23074507.883 3
        45.000          26.000
  20940656.236 8 110043913.487 8  85748530.29046  20940656.024 6  20940658.607 6
        52.000          42.000
  23638471.622 6 126538544.119 6  98418899.36844  23638469.551 6  23638468.487 4
        41.000          32.000
  21156231.179 8 112933416.839 8  87837144.17047  21156230.648 8  21156234.855 7
        51.000          45.000
  23789181.802 6 125012991.937 6  97412740.26143  23789181.606 3  23789184.492 3
        44.000          26.000
  24533465.676 5 128924241.968 5 100460443.87641  24533463.140 1  24533463.360 1
        35.000          13.000
  20209264.538 8 106200432.840 8  82753597.71446  20209263.831 6  20209266.365 6
        54.000          43.000
  22123293.344 7 116258708.039 7  90591219.14145  22123293.344 5  22123295.822 5
        49.000          37.000
 10  1  4  1  4  0.0000000  0 16R08G22G28G15R19R10G26R09G18G27R07R18
                                G12G11G09G17
  21135097.007 7 113177488.593 7  88026963.65447  21135096.692 7  21135098.386 7
        49.000          47.000
  23505593.024 7 123522721.640 7  96251490.27643  23505592.417 3  23505592.840 3
        45.000          26.000
  23223825.949 7 122042053.909 7  95097716.21243  23223825.331 3  23223826.859 3
        45.000          28.000
  21766037.235 7 114381301.323 7  89128302.76645  21766037.427 5  21766040.043 5
        48.000          39.000
  21012850.486 8 112404596.126 8  87425823.81547  21012849.944 7  21012852.724 7
        50.000          47.000
  20158118.234 9 107454131.394 9  83575470.06646  20158117.155 8  20158122.061 6
        55.000          43.000
  22998594.525 6 120858444.727 6  94175421.54943  22998594.619 3  22998595.822 3
        44.000          25.000
  19616806.148 8 104752677.467 8  81474334.95742  19616805.860 8  19616813.648 2
        54.000          20.000
  23082506.574 7 121299387.340 7  94519014.65143  23082505.637 3  23082508.080 3
        45.000          26.000
  20935559.384 8 110017130.065 8  85727660.09546  20935559.049 6  20935561.996 6
        52.000          42.000
  23663390.899 5 126671955.217 5  98522663.56544  23663390.859 5  23663391.342 4
        39.000          33.000
  21164515.477 8 112977638.597 8  87871538.87047  21164514.691 8  21164519.221 7
        51.000          46.000
  23768521.092 6 124904417.901 6  97328137.14143  23768520.865 3  23768524.431 3
        42.000          26.000
  24533242.022 4 128923077.153 4 100459536.33441  24533242.655 1  24533241.925 1
        34.000          11.000
  20198636.699 8 106144584.694 8  82710079.67946  20198636.063 6  20198638.834 6
        54.000          43.000
  22114855.030 7 116214364.363 7  90556665.64745  22114854.990 5  22114857.349 5
        48.000          37.000
 10  1  4  1  4 30.0000000  0 17R20R08G22G28G15R19R10G26R09G18G27R07
                                R18G12G11G09G17
  24085784.182 5 128797503.747 5 100175874.23945  24085782.978 5  24085788.015 5
        36.000          36.000
  21146940.560 7 113240910.771 7  88076291.97447  21146940.101 7  21146942.052 7
        48.000          47.000
  23502817.419 6 123508138.517 6  96240126.80743  23502817.024 3  23502817.210 3
        42.000          26.000
  23240073.747 6 122127436.813 6  95164248.34343  23240072.807 3  23240074.937 3
        44.000          28.000
  21781182.293 8 114460886.730 8  89190317.36445  21781182.153 5  21781184.738 5
        50.000          39.000
  20997400.574 8 112321948.077 8  87361542.03247  20997399.698 7  20997402.245 7
        50.000          47.000
  20145336.992 8 107385999.813 8  83522478.83046  20145336.020 8  20145340.736 6
        54.000          43.000
  22978975.527 6 120755340.806 6  94095080.81043  22978974.828 3  22978976.609 3
        44.000          26.000
  19625202.243 8 104797510.987 8  81509205.48342  19625201.651 8  19625209.743 2
        54.000          20.000
  23090603.525 6 121341938.490 6  94552171.35743  23090603.083 3  23090605.154 3
        43.000          26.000
  20930525.265 8 109990675.668 8  85707046.28146  20930525.078 6  20930527.878 6
        52.000          42.000
  23688331.306 5 126805463.993 5  98626503.76244  23688330.641 5  23688331.237 4
        39.000          33.000
  21172948.205 8 113022656.433 8  87906552.74247  21172947.727 8  21172953.091 7
        50.000          46.000
  23747893.385 6 124796017.185 6  97243669.09143  23747893.082 3  23747896.288 3
        42.000          25.000
  24533126.639 5 128922476.287 5 100459068.13841  24533128.625 1  24533129.412 1
        35.000          11.000
  20188101.847 8 106089222.541 8  82666940.33646  20188101.134 6  20188103.729 6
        53.000          43.000
  22106519.912 7 116170564.598 7  90522535.98145  22106520.094 5  22106522.376 5
        47.000          37.000
 10  1  4  1  5  0.0000000  0 17R20R08G22G28G15R19R10G26R09G18G27R07
                                R18G12G11G09G17
  24059493.757 4 128656920.195 4 100066531.45444  24059492.399 4  24059497.074 4
        34.000          33.000
  21158921.282 7 113305065.701 7  88126190.23047  21158920.845 7  21158922.787 7
        49.000          47.000
  23500150.525 7 123494124.067 7  96229206.45543  23500150.839 3  23500150.729 3
        45.000          27.000
  23256362.338 6 122213036.435 6  95230949.33443  23256361.943 3  23256363.374 3
        44.000          27.000
  21796404.513 8 114540882.570 8  89252651.77445  21796404.702 5  21796407.298 5
        50.000          39.000
  20982074.343 8 112239964.724 8  87297777.23147  20982073.799 7  20982076.691 7
        51.000          47.000
  20132628.664 9 107318258.241 9  83469790.93446  20132627.487 8  20132632.570 6
        55.000          43.000
  22959418.245 6 120652571.910 6  94015001.16143  22959418.405 3  22959420.421 3
        44.000          26.000
  19633686.298 8 104842816.305 8  81544442.87842  19633685.852 8  19633693.798 2
        54.000          20.000
  23098797.764 6 121384999.660 6  94585725.48343  23098797.261 3  23098798.706 3
        44.000          26.000
  20925554.244 8 109964550.916 8  85686689.34046  20925553.653 6  20925556.467 6
        53.000          42.000
  23713290.865 5 126939065.944 5  98730416.39844  23713289.036 5  23713289.953 4
        38.000          33.000
  21181531.376 8 113068468.415 8  87942184.29047  21181530.508 8  21181534.842 7
        51.000          46.000
  23727298.253 6 124687791.784 6  97159337.62943  23727298.317 3  23727301.399 3
        42.000          26.000
  24533121.707 4 128922439.185 4 100459039.22841  24533119.756 1  24533119.677 1
        34.000           9.000
  20177659.238 8 106034348.276 8  82624181.16946  20177658.766 6  20177661.568 6
        54.000          43.000
  22098288.796 7 116127310.546 7  90488831.53945  22098289.081 5  22098291.526 5
        49.000          37.000
 10  1  4  1  5 30.0000000  0 17R20R08G22G28G15R19R10G26R09G18G27R07
                                R18G12G11G09G17
  24033207.128 5 128516357.132 5  99957204.58445  24033206.944 5  24033212.662 5
        38.000          38.000
  21171038.001 7 113369950.562 7  88176656.20747  21171037.410 7  21171039.508 7
        48.000          47.000
  23497592.892 7 123480678.957 7  96218729.75043  23497592.243 3  23497592.038 3
        45.000          27.000
  23272692.702 6 122298850.740 6  95297817.61543  23272690.934 3  23272693.587 3
        44.000          28.000
  21811705.121 7 114621286.838 7  89315304.45445  21811705.106 5  21811707.892 5
        49.000          39.000
  20966873.408 8 112158649.699 8  87234532.23447  20966872.787 7  20966876.006 7
        51.000          47.000
  20119993.935 8 107250908.226 8  83417407.57446  20119992.886 8  20119997.848 6
        54.000          43.000
  22939926.907 6 120550141.156 6  93935184.97443  22939926.149 3  22939928.074 3
        43.000          26.000
  19642258.854 8 104888592.794 8  81580046.85542  19642258.563 8  19642266.354 2
        54.000          20.000
  23107089.757 6 121428569.027 6  94619675.61943  23107088.474 3  23107089.877 3
        44.000          26.000
  20920645.271 8 109938756.664 8  85666589.92946  20920645.105 6  20920647.782 6
        52.000          42.000
  23738266.101 5 127072757.895 5  98834399.07444  23738263.835 5  23738265.302 4
        39.000          31.000
  21190260.943 8 113115072.007 8  87978431.53747  21190260.428 8  21190265.226 7
        50.000          46.000
  23706737.759 6 124579743.479 6  97075144.16343  23706737.618 3  23706740.195 3
        42.000          26.000
  24533224.366 5 128922966.471 5 100459450.11041  24533223.437 1  24533222.317 1
        37.000          13.000
  20167310.633 8 105979963.458 8  82581803.38346  20167309.840 6  20167312.403 6
        54.000          44.000
  22090162.306 7 116084603.592 7  90455553.40345  22090162.362 5  22090164.506 5
        49.000          37.000
 10  1  4  1  6  0.0000000  0 17R20R08G22G28G15R19R10G26R09G18G27R07
                                R18G12G11G09G17
  24006923.739 5 128375818.041 5  99847896.45846  24006924.697 5  24006931.400 6
        36.000          41.000
  21183291.020 7 113435561.956 7  88227687.25947  21183290.316 7  21183292.228 7
        49.000          48.000
  23495142.024 7 123467803.320 7  96208696.78943  23495141.976 3  23495142.416 3
        45.000          27.000
  23289063.092 6 122384878.002 6  95364851.81543  23289062.076 3  23289063.919 3
        44.000          28.000
  21827083.223 7 114702097.903 7  89378274.13145  21827083.030 5  21827085.417 5
        49.000          39.000
  20951798.479 8 112078006.579 8  87171809.82847  20951797.574 7  20951800.434 7
        51.000          47.000
  20107433.283 9 107183951.577 9  83365330.17746  20107432.234 8  20107437.030 6
        55.000          43.000
  22920499.502 6 120448051.259 6  93855634.40643  22920498.962 3  22920501.355 3
        44.000          26.000
  19650919.222 8 104934839.277 8  81616016.31642  19650918.733 8  19650926.722 2
        54.000          20.000
  23115475.832 6 121472644.795 6  94654020.34443  23115475.330 3  23115477.963 3
        43.000          26.000
  20915800.351 8 109913293.545 8  85646748.54446  20915799.651 6  20915802.480 6
        52.000          42.000
  23763257.311 5 127206535.707 5  98938448.57744  23763255.122 5  23763256.252 4
        39.000          31.000
  21199139.546 8 113162465.368 8  88015293.05147  21199138.934 7  21199143.466 7
        51.000          46.000
  23686209.600 6 124471873.799 6  96991089.87243  23686210.658 3  23686214.019 3
        42.000          26.000
  24533428.684 4 128924058.098 4 100460300.73641  24533429.412 1  24533429.397 1
        33.000          11.000
  20157054.869 8 105926069.576 8  82539808.15046  20157054.135 6  20157056.872 6
        54.000          43.000
  22082140.166 7 116042445.386 7  90422702.87545  22082139.913 5  22082141.900 5
        48.000          37.000
 10  1  4  1  6 30.0000000  0 17R20R08G22G28G15R19R10G26R09G18G27R07
                                R18G12G11G09G17
  23980649.973 5 128235307.192 5  99738610.36545  23980649.779 4  23980654.409 5
        37.000          35.000
  21195678.595 7 113501897.093 7  88279281.22447  21195677.953 7  21195679.756 7
        48.000          47.000
  23492798.991 6 123455497.519 6  96199107.85043  23492799.462 3  23492800.302 3
        42.000          26.000
  23305473.362 6 122471116.453 6  95432050.60643  23305472.831 3  23305474.341 3
        44.000          27.000
  21842537.892 8 114783313.446 8  89441558.97545  21842537.747 5  21842540.288 5
        50.000          39.000
  20936849.318 8 111998038.817 8  87109612.71047  20936848.536 7  20936850.883 7
        51.000          47.000
  20094946.053 9 107117389.302 9  83313559.50846  20094945.282 8  20094949.970 6
        55.000          44.000
  22901137.602 6 120346305.324 6  93776351.85243  22901137.397 3  22901139.896 3
        43.000          26.000
  19659667.939 8 104981554.817 8  81652350.53242  19659667.196 8  19659675.439 2
        54.000          20.000
  23123959.211 6 121517225.053 6  94688758.17743  23123959.222 3  23123961.383 3
        44.000          26.000
  20911017.763 8 109888162.023 8  85627165.54146  20911017.227 6  20911020.142 6
        52.000          42.000
  23788261.704 5 127340395.525 5  99042561.83344  23788260.900 5  23788260.687 4
        38.000          31.000
  21208165.253 8 113210645.731 8  88052766.66347  21208164.736 7  21208168.988 7
        50.000          45.000
  23665715.812 6 124364184.661 6  96907176.29643  23665717.507 3  23665721.070 3
        42.000          25.000
  24533744.403 5 128925714.817 5 100461591.67441  24533744.511 1  24533746.258 1
        35.000           8.000
  20146892.759 8 105872668.145 8  82498196.64446  20146892.235 6  20146894.740 6
        53.000          44.000
  22074222.487 7 116000837.734 7  90390281.34645  22074222.317 5  22074224.282 5
        49.000          37.000
 10  1  4  1  7  0.0000000  0 17R20R08G22G28G15R19R10G26R09G18G27R07
                                R18G12G11G09G17
  23954380.723 5 128094828.412 5  99629348.89745  23954379.235 5  23954383.977 5
        39.000          37.000
  21208199.986 7 113568952.466 7  88331435.35347  21208200.047 7  21208201.915 7
        48.000          47.000
  23490567.393 6 123443761.489 6  96189962.89043  23490566.408 3  23490566.426 3
        44.000          26.000
  23321923.287 6 122557564.390 6  95499412.60543  23321922.574 3  23321925.600 3
        43.000          27.000
  21858069.180 8 114864931.425 8  89505157.40945  21858069.181 5  21858071.703 5
        50.000          39.000
  20922027.172 8 111918749.988 8  87047943.64447  20922026.363 7  20922028.773 7
        51.000          47.000
  20082533.435 9 107051223.519 9  83262097.23346  20082532.754 8  20082537.535 6
        55.000          44.000
  22881841.741 6 120244906.129 6  93697339.49243  22881841.173 3  22881844.730 3
        43.000          25.000
  19668503.518 8 105028738.678 8  81689048.92542  19668503.079 8  19668511.018 2
        54.000          20.000
  23132538.613 6 121562307.694 6  94723887.48043  23132537.967 3  23132540.175 3
        44.000          26.000
  20906298.589 8 109863362.589 8  85607841.31146  20906298.075 6  20906301.037 6
        51.000          42.000
  23813284.335 6 127474332.198 6  99146734.86844  23813281.642 5  23813280.804 4
        40.000          32.000
  21217338.199 8 113259611.046 8  88090850.78947  21217337.664 8  21217341.684 7
        51.000          45.000
  23645258.782 6 124256677.715 6  96823404.69243  23645259.666 3  23645262.744 3
        42.000          26.000
  24534167.358 4 128927936.192 4 100463322.63841  24534166.038 1  24534167.728 1
        34.000          10.000
  20136824.820 8 105819761.070 8  82456970.34646  20136824.434 6  20136827.117 6
        54.000          44.000
  22066409.732 7 115959782.113 7  90358289.96145  22066409.529 5  22066411.676 5
        48.000          38.000
 10  1  4  1  7 30.0000000  0 17R20R08G22G28G15R19R10G26R09G18G27R07
                                R18G12G11G09G17
  23928114.955 4 127954385.126 4  99520115.37846  23928115.397 4  23928121.605 6
        33.000          41.000
  21220856.568 7 113636725.167 7  88384147.41747  21220856.020 7  21220857.733 7
        49.000          47.000
  23488442.371 6 123432595.626 6  96181262.22643  23488441.995 3  23488442.261 3
        44.000          26.000
  23338413.934 6 122644219.793 6  95566936.28743  23338413.409 3  23338415.248 3
        44.000          27.000
  21873676.873 7 114946949.909 7  89569067.92245  21873676.799 5  21873679.380 5
        48.000          38.000
  20907332.438 8 111840143.567 8  86986805.35647  20907331.498 7  20907334.092 7
        51.000          47.000
  20070195.876 9 106985455.324 9  83210944.18446  20070194.638 8  20070199.805 6
        55.000          43.000
  22862613.213 6 120143856.730 6  93618599.70643  22862612.922 3  22862614.862 3
        44.000          26.000
  19677426.989 8 105076389.603 8  81726110.79342  19677426.626 8  19677434.489 2
        53.000          20.000
  23141212.978 6 121607891.232 6  94759407.08743  23141212.421 3  23141214.306 3
        43.000          26.000
  20901642.518 8 109838896.156 8  85588776.56146  20901642.263 6  20901645.317 6
        52.000          42.000
  23838316.372 5 127608341.939 5  99250964.70844  23838315.044 5  23838316.017 4
        39.000          33.000
  21226657.674 8 113309358.505 8  88129543.27747  21226657.033 7  21226660.646 7
        51.000          45.000
  23624836.295 6 124149354.767 6  96739776.43243  23624836.812 3  23624839.498 3
        43.000          26.000
  24534697.177 4 128930722.622 4 100465493.87441  24534695.207 1  24534695.968 1
        34.000           9.000
  20126851.335 8 105767350.072 8  82416130.60746  20126850.882 6  20126853.491 6
        53.000          44.000
  22058702.548 7 115919279.947 7  90326729.84045  22058702.095 5  22058704.256 5
        48.000          38.000
 10  1  4  1  8  0.0000000  0 17R20R08G22G28G15R19R10G26R09G18G27R07
                                R18G12G11G09G17
  23901859.464 6 127813981.471 6  99410912.64745  23901860.103 5  23901864.522 5
        40.000          36.000
  21233645.794 7 113705211.886 7  88437414.83547  21233645.449 7  21233647.383 7
        48.000          47.000
  23486425.957 6 123422000.385 6  96173006.19343  23486425.575 3  23486425.641 3
        44.000          27.000
  23354943.942 7 122731080.811 7  95634620.18643  23354943.184 3  23354943.816 3
        45.000          28.000
  21889360.445 7 115029367.201 7  89633289.20245  21889360.372 5  21889362.770 5
        49.000          38.000
  20892765.711 8 111762222.952 8  86926200.45747  20892764.756 7  20892767.830 7
        50.000          47.000
  20057932.658 8 106920086.579 8  83160101.81546  20057931.723 8  20057936.885 6
        54.000          44.000
  22843450.836 6 120043159.999 6  93540134.72043  22843450.438 3  22843453.688 3
        42.000          26.000
  19686438.075 8 105124506.824 8  81763535.22742  19686437.425 8  19686445.575 2
        54.000          20.000
  23149982.126 7 121653973.712 7  94795315.48143  23149981.419 3  23149982.842 3
        45.000          26.000
  20897050.510 8 109814763.167 8  85569971.64346  20897050.032 6  20897052.830 6
        51.000          42.000
  23863363.229 5 127742421.725 5  99355249.05644  23863362.737 5  23863364.287 4
        38.000          33.000
  21236122.889 8 113359885.866 8  88168842.32647  21236122.447 7  21236126.488 7
        50.000          45.000
  23604450.653 6 124042217.569 6  96656292.91043  23604449.631 3  23604452.180 3
        43.000          27.000
  24535335.179 4 128934074.198 4 100468105.44641  24535335.910 1  24535334.446 1
        34.000          10.000
  20116972.493 8 105715436.330 8  82375678.34046  20116972.022 6  20116974.634 6
        53.000          44.000
  22051100.516 7 115879332.634 7  90295602.08345  22051100.505 5  22051102.612 5
        49.000          37.000
 10  1  4  1  8 30.0000000  0 17R20R08G22G28G15R19R10G26R09G18G27R07
                                R18G12G11G09G17
  23875611.691 5 127673621.531 5  99301743.58645  23875611.251 5  23875617.082 5
        36.000          37.000
  21246568.138 7 113774409.330 7  88491235.01947  21246567.783 7  21246569.579 7
        48.000          47.000
  23484518.013 6 123411976.020 6  96165195.01043  23484517.959 3  23484518.213 3
        44.000          26.000
  23371510.477 7 122818145.957 7  95702463.15343  23371510.283 3  23371511.610 3
        45.000          27.000
  21905119.162 7 115112181.006 7  89697819.45345  21905119.239 5  21905121.593 5
        49.000          38.000
  20878327.881 8 111684991.854 8  86866131.85047  20878327.044 7  20878329.839 7
        50.000          47.000
  20045744.548 8 106855118.571 8  83109571.13946  20045743.839 8  20045748.532 6
        54.000          43.000
  22824356.975 6 119942819.108 6  93461947.01843  22824357.167 3  22824358.488 3
        43.000          27.000
  19695535.910 8 105173089.421 8  81801321.63342  19695535.397 8  19695543.410 2
        54.000          20.000
  23158845.581 7 121700553.150 7  94831611.13843  23158845.105 3  23158847.101 3
        45.000          26.000
  20892521.520 8 109790964.088 8  85551426.91646  20892521.027 6  20892524.283 6
        52.000          42.000
  23888422.939 5 127876566.544 5  99459583.99744  23888422.380 5  23888423.628 4
        38.000          33.000
  21245734.369 8 113411190.757 8  88208746.13247  21245733.469 7  21245737.836 7
        50.000          45.000
  23584097.593 6 123935267.537 6  96572955.27343  23584097.701 3  23584100.206 3
        44.000          26.000
  24536081.221 5 128937991.199 5 100471157.67141  24536080.587 1  24536082.702 1
        36.000          12.000
  20107188.688 8 105664021.302 8  82335614.67946  20107188.225 6  20107190.678 6
        54.000          44.000
  22043604.774 7 115839941.866 7  90264907.98745  22043604.477 5  22043606.892 5
        48.000          38.000
 10  1  4  1  9  0.0000000  0 17R20R08G22G28G15R19R10G26R09G18G27R07
                                R18G12G11G09G17
  23849371.480 5 127533308.673 5  99192611.55946  23849371.848 5  23849378.232 6
        39.000          41.000
  21259622.882 7 113844314.351 7  88545605.55047  21259622.374 7  21259623.999 7
        49.000          47.000
  23482719.608 6 123402522.488 6  96157828.62043  23482719.006 3  23482719.347 3
        44.000          26.000
  23388118.213 6 122905413.328 6  95770463.70443  23388117.363 3  23388118.437 3
        44.000          27.000
  21920953.403 7 115195389.292 7  89762657.07645  21920953.315 5  21920955.675 5
        49.000          38.000
  20864019.521 8 111608453.452 8  86806601.99347  20864019.079 7  20864021.540 7
        50.000          47.000
  20033632.008 8 106790552.863 8  83059353.36046  20033631.186 8  20033636.488 6
        54.000          44.000
  22805330.936 6 119842836.819 6  93384038.73243  22805330.673 3  22805333.850 3
        44.000          27.000
  19704720.809 8 105222136.357 8  81839469.35842  19704720.448 8  19704728.309 2
        54.000          20.000
  23167804.232 6 121747627.639 6  94868292.52643  23167803.834 3  23167804.694 3
        44.000          26.000
  20888056.262 8 109767499.608 8  85533142.91746  20888055.848 6  20888058.842 6
        51.000          42.000
  23913492.467 5 128010772.795 5  99563966.72144  23913492.557 5  23913493.648 4
        37.000          31.000
  21255489.801 8 113463270.682 8  88249252.73947  21255489.252 7  21255493.551 7
        50.000          45.000
  23563781.381 6 123828506.727 6  96489765.04843  23563781.335 3  23563784.216 3
        43.000          26.000
  24536934.653 5 128942473.560 5 100474650.42441  24536932.585 1  24536934.536 1
        36.000          13.000
  20097499.804 8 105613106.762 8  82295941.00946  20097499.344 6  20097502.215 6
        53.000          44.000
  22036214.320 7 115801109.043 7  90234648.66845  22036214.747 5  22036217.282 5
        49.000          37.000
 10  1  4  1  9 30.0000000  0 17R20R08G22G28G15R19R10G26R09G18G27R07
                                R18G12G11G09G17
  23823142.858 5 127393047.231 5  99083519.29145  23823142.611 5  23823147.247 5
        38.000          35.000
  21272808.414 7 113914923.225 7  88600523.50747  21272807.847 7  21272809.776 7
        48.000          46.000
  23481029.673 6 123393639.985 6  96150907.17143  23481029.235 3  23481029.751 3
        43.000          26.000
  23404762.121 6 122992881.213 6  95838620.47443  23404760.578 3  23404763.738 3
        43.000          26.000
  21936862.054 7 115278990.071 7  89827800.54745  21936861.954 5  21936864.495 5
        49.000          38.000
  20849842.073 8 111532611.236 8  86747613.62447  20849841.359 7  20849844.014 7
        50.000          47.000
  20021595.740 8 106726391.376 8  83009449.98046  20021594.839 8  20021599.849 6
        54.000          44.000
  22786373.254 7 119743216.125 7  93306412.21443  22786373.348 3  22786375.557 3
        45.000          27.000
  19713992.443 8 105271646.752 8  81877977.48242  19713992.020 8  19713999.943 2
        53.000          20.000
  23176855.815 7 121795195.037 7  94905358.00543  23176855.586 3  23176857.436 3
        45.000          26.000
  20883655.191 8 109744370.341 8  85515120.12146  20883654.718 6  20883657.648 6
        52.000          42.000
  23938573.922 5 128145035.584 5  99668393.39244  23938573.842 5  23938575.596 4
        37.000          31.000
  21265391.858 8 113516122.701 8  88290359.86547  21265391.013 7  21265395.629 7
        50.000          45.000
  23543500.624 6 123721936.614 6  96406723.45643  23543501.517 3  23543505.495 3
        43.000          26.000
  24537893.848 4 128947520.908 4 100478583.40741  24537893.033 1  24537893.072 1
        34.000          11.000
  20087906.644 8 105562694.386 8  82256658.63646  20087906.242 6  20087908.786 6
        54.000          44.000
  22028931.249 7 115762835.660 7  90204825.25945  22028931.549 5  22028934.126 5
        48.000          37.000
 10  1  4  1 10  0.0000000  0 17R20R08G22G28G15R19R10G26R09G18G27R07
                                R18G12G11G09G17
  23796922.293 5 127252840.925 5  98974469.96545  23796922.151 5  23796928.860 5
        36.000          39.000
  21286125.133 7 113986232.923 7  88655986.56647  21286124.491 7  21286126.202 7
        48.000          47.000
  23479447.853 6 123385328.818 6  96144430.94043  23479447.403 3  23479448.504 3
        44.000          27.000
  23421444.535 7 123080547.871 7  95906932.14443  23421443.655 3  23421445.572 3
        45.000          27.000
  21952844.893 8 115362981.219 8  89893248.19745  21952844.853 5  21952847.341 5
        50.000          38.000
  20835794.611 8 111457468.740 8  86689169.48647  20835794.100 7  20835796.932 7
        50.000          47.000
  20009635.727 9 106662635.146 9  82959861.79346  20009634.597 8  20009639.568 6
        55.000          44.000
  22767485.060 6 119643960.017 6  93229069.81443  22767485.968 3  22767487.876 3
        44.000          27.000
  19723350.739 8 105321619.748 8  81916845.87242  19723350.306 8  19723544.120 2
        53.000          20.000
  23186001.093 7 121843253.534 7  94942806.13743  23186000.370 3  23186002.087 3
        45.000          26.000
  20879317.485 8 109721576.960 8  85497359.05646  20879317.204 6  20879319.994 6
        51.000          42.000
  23963667.358 5 128279352.306 5  99772862.00944  23963664.931 5  23963665.576 4
        37.000          31.000
  21275436.313 8 113569744.759 8  88332065.92847  21275436.007 7  21275440.045 7
        50.000          45.000
  23523259.293 6 123615559.218 6  96323832.01743  23523258.895 3  23523262.014 3
        43.000          26.000
  24538963.026 5 128953133.847 5 100482957.16541  24538962.033 1  24538963.687 1
        35.000          10.000
  20078408.929 8 105512785.494 8  82217768.58846  20078408.647 6  20078411.360 6
        54.000          44.000
  22021754.965 7 115725123.319 7  90175439.03445  22021755.469 5  22021757.811 5
        49.000          38.000
 10  1  4  1 10 30.0000000  0 17R20R08G22G28G15R19R10G26R09G18G27R07
                                R18G12G11G09G17
  23770715.048 5 127112693.379 5  98865466.36746  23770714.456 5  23770720.437 6
        37.000          40.000
  21299571.349 7 114058240.159 7  88711992.15347  21299571.150 7  21299573.178 7
        48.000          47.000
  23477974.470 6 123377588.890 6  96138399.82943  23477974.155 3  23477974.953 3
        42.000          26.000
  23438163.725 6 123168411.306 6  95975397.15143  23438163.213 3  23438166.385 3
        43.000          27.000
  21968901.485 7 115447360.676 7  89958998.42945  21968901.791 5  21968904.259 5
        49.000          38.000
  20821879.665 8 111383028.949 8  86631271.89947  20821878.601 8  20821881.120 7
        51.000          48.000
  19997750.958 8 106599285.974 8  82910590.21546  19997750.375 8  19997755.341 6
        54.000          44.000
  22748668.179 7 119545071.249 7  93152013.63343  22748667.820 3  22748670.560 3
        45.000          27.000
  19732795.491 8 105372054.126 8  81956071.99342  19732795.041 8  19732802.991 2
        53.000          20.000
  23195238.632 6 121891801.305 6  94980635.53243  23195238.676 3  23195239.557 3
        44.000          26.000
  20875044.247 8 109699120.096 8  85479860.21146  20875043.757 6  20875046.617 6
        51.000          42.000
  23988765.694 5 128413718.209 5  99877368.86644  23988766.191 5  23988768.278 4
        37.000          33.000
  21285625.093 7 113624133.825 7  88374368.53147  21285624.659 7  21285629.891 7
        49.000          46.000
  23503053.354 6 123509375.929 6  96241091.82743  23503052.674 3  23503055.588 3
        44.000          26.000
  24540139.831 4 128959312.258 4 100487771.47441  24540138.104 1  24540138.988 1
        33.000           9.000
  20069007.589 8 105463381.583 8  82179272.04346  20069007.542 6  20069010.141 6
        54.000          44.000
  22014685.459 8 115687973.180 8  90146490.88545  22014685.993 5  22014688.133 5
        50.000          38.000
 10  1  4  1 11  0.0000000  0 17R20R08G22G28G15R19R10G26R09G18G27R07
                                R18G12G11G09G17
  23744516.997 5 126972609.183 5  98756512.02145  23744517.369 5  23744523.200 5
        36.000          39.000
  21313148.254 7 114130941.503 7  88768537.61947  21313147.817 7  21313149.577 7
        49.000          47.000
  23476611.352 7 123370420.589 7  96132814.14543  23476610.694 3  23476610.352 3
        45.000          26.000
  23454920.731 6 123256469.979 6  96044014.29843  23454919.568 3  23454922.278 3
        42.000          25.000
  21985032.208 8 115532126.160 8  90025049.46445  21985031.940 5  21985034.606 5
        50.000          38.000
  20808095.499 8 111309295.410 8  86573923.61447  20808094.878 8  20808097.339 7
        51.000          47.000
  19985943.664 8 106536345.397 8  82861636.43746  19985942.600 8  19985947.731 6
        54.000          44.000
  22729920.415 7 119446552.983 7  93075246.16643  22729919.763 3  22729922.199 3
        45.000          27.000
  19742326.669 8 105422948.990 8  81995656.78842  19742326.317 8  19742334.169 2
        54.000          20.000
  23204570.338 6 121940835.735 6  95018844.16643  23204569.774 3  23204571.734 3
        44.000          26.000
  20870834.850 8 109677000.389 8  85462624.08346  20870834.426 6  20870837.335 6
        52.000          42.000
  24013875.241 5 128548128.784 5  99981910.45644  24013874.689 4  24013876.790 4
        35.000          32.000
  21295958.318 8 113679287.316 8  88417265.67947  21295957.454 8  21295961.383 7
        51.000          45.000
  23482884.964 6 123403388.512 6  96158504.24243  23482884.121 3  23482886.884 3
        43.000          27.000
  24541421.580 4 128966056.164 4 100493026.49441  24541421.228 1  24541421.473 1
        32.000           7.000
  20059702.957 8 105414484.322 8  82141170.27846  20059702.598 6  20059705.351 6
        54.000          44.000
  22007723.129 8 115651386.651 8  90117981.92345  22007723.736 5  22007725.923 5
        50.000          38.000
 10  1  4  1 11 30.0000000  0 17R20R08G22G28G15R19R10G26R09G18G27R07
                                R18G12G11G09G17
  23718332.174 5 126832591.834 5  98647609.67745  23718332.619 4  23718339.930 5
        35.000          39.000
  21326853.659 7 114204333.469 7  88825620.22847  21326853.398 7  21326855.105 7
        48.000          47.000
  23475355.421 6 123363823.857 6  96127673.83743  23475354.672 3  23475354.832 3
        44.000          26.000
  23471715.020 6 123344722.003 6  96112782.11242  23471714.650 2  23471715.533 2
        43.000          24.000
  22001234.858 7 115617276.251 7  90091400.18245  22001235.661 5  22001238.181 5
        49.000          38.000
  20794444.302 8 111236271.562 8  86517127.31947  20794443.904 8  20794446.569 7
        51.000          47.000
  19974212.715 8 106473814.969 8  82813001.66146  19974212.088 8  19974217.097 6
        54.000          44.000
  22711243.244 6 119348408.108 6  92998769.61443  22711243.567 3  22711246.685 3
        44.000          28.000
  19751943.638 8 105474303.433 8  82035599.18542  19751943.417 8  19751951.138 2
        53.000          20.000
  23213993.763 6 121990355.461 6  95057430.94243  23213993.130 3  23213994.798 3
        44.000          25.000
  20866689.994 8 109655218.331 8  85445651.05646  20866689.669 6  20866692.430 6
        52.000          42.000
  24038991.541 5 128682580.844 5 100086484.31144  24038991.120 4  24038992.537 4
        35.000          32.000
  21306432.778 8 113735202.573 8  88460755.33447  21306432.107 8  21306436.500 7
        51.000          45.000
  23462752.520 6 123297599.155 6  96076071.01043  23462752.955 3  23462756.086 3
        43.000          27.000
  24542813.455 4 128973365.369 4 100498722.01341  24542812.371 1  24542814.562 1
        33.000          10.000
  20050495.045 8 105366095.269 8  82103464.52746  20050494.514 6  20050497.234 6
        53.000          44.000
  22000868.727 8 115615365.198 8  90089913.27445  22000869.040 5  22000870.935 5
        50.000          38.000
 10  1  4  1 12  0.0000000  0 17R20R08G22G28G15R19R10G26R09G18G27R07
                                R18G12G11G09G17
  23692162.134 5 126692644.445 5  98538761.75945  23692163.380 5  23692168.529 5
        37.000          39.000
  21340686.492 7 114278412.597 7  88883237.29047  21340686.781 7  21340688.678 7
        48.000          47.000
  23474208.702 6 123357798.532 6  96122978.77343  23474208.794 3  23474208.943 3
        44.000          26.000
  23488544.907 6 123433165.428 6  96181699.06742  23488544.528 2  23488546.003 2
        44.000          24.000
  22017511.678 7 115702808.480 7  90158048.67545  22017512.064 5  22017514.394 5
        49.000          38.000
  20780926.968 8 111163960.513 8  86460885.41647  20780926.147 7  20780928.847 7
        51.000          48.000
  19962559.903 9 106411696.020 9  82764686.92746  19962559.063 8  19962563.810 6
        55.000          43.000
  22692639.011 6 119250639.735 6  92922586.47543  22692639.821 3  22692641.463 3
        43.000          28.000
  19761646.570 8 105526116.324 8  82075898.13142  19761646.040 8  19761654.070 2
        54.000          20.000
  23223509.069 6 122040358.473 6  95096394.30943  23223508.830 3  23223510.062 3
        44.000          25.000
  20862609.090 8 109633774.826 8  85428941.83646  20862608.962 6  20862611.834 6
        52.000          42.000
  24064115.747 5 128817070.040 5 100191086.99544  24064115.955 5  24064115.575 4
        36.000          32.000
  21317050.137 8 113791877.040 8  88504835.48147  21317049.464 7  21317053.682 7
        50.000          45.000
  23442659.725 6 123192009.004 6  95993792.98943  23442660.305 3  23442662.695 3
        44.000          27.000
  24544311.922 4 128981240.167 4 100504858.24141  24544313.193 1  24544311.423 1
        30.000           7.000
  20041383.802 8 105318216.051 8  82066156.04946  20041383.327 6  20041386.059 6
        54.000          44.000
  21994122.034 7 115579909.819 7  90062285.71845  21994122.292 5  21994124.038 5
        49.000          38.000
 10  1  4  1 12 30.0000000  0 17R20R08G22G28G15R19R10G26R09G18G27R07
                                R18G12G11G09G17
  23666006.550 5 126552771.951 5  98429972.06146  23666006.028 5  23666011.831 6
        37.000          40.000
  21354648.113 7 114353175.442 7  88941386.14547  21354648.108 7  21354650.427 7
        48.000          47.000
  23473170.241 6 123352344.858 6  96118729.15143  23473170.051 3  23473170.785 3
        43.000          26.000
  23505412.271 6 123521798.518 6  96250763.81043  23505411.496 3  23505412.080 3
        44.000          25.000
  22033860.014 7 115788720.684 7  90224993.24845  22033860.427 5  22033863.195 5
        49.000          38.000
  20767542.468 8 111092365.308 8  86405200.28647  20767541.925 7  20767544.483 7
        51.000          48.000
  19950983.938 9 106349990.193 9  82716693.50346  19950983.138 8  19950988.381 6
        55.000          44.000
  22674106.109 6 119153250.473 6  92846698.73443  22674106.736 3  22674108.942 3
        44.000          28.000
  19771434.866 8 105578386.655 8  82116552.83142  19771434.455 8  19771442.366 2
        54.000          20.000
  23233115.386 6 122090842.325 6  95135732.35342  23233115.602 2  23233116.767 2
        44.000          24.000
  20858593.469 8 109612670.492 8  85412496.90746  20858592.939 6  20858595.948 6
        52.000          42.000
  24089246.218 5 128951592.235 5 100295715.33844  24089245.248 5  24089245.263 4
        36.000          31.000
  21327808.115 8 113849308.043 8  88549504.04147  21327807.343 7  21327812.126 7
        50.000          45.000
  23422605.524 6 123086619.880 6  95911671.62343  23422605.065 3  23422608.498 3
        44.000          27.000
  24545916.960 3 128989684.657 3
        28.000
  20032370.225 8 105270848.246 8  82029246.07146  20032369.729 6  20032372.458 6
        54.000          44.000
  21987483.022 7 115545022.326 7  90035100.67645  21987483.250 5  21987485.280 5
        48.000          38.000
 10  1  4  1 13  0.0000000  0 16R20R08G22G28G15R19R10G26R09G18G27R18
                                G12G11G09G17
  23639864.439 5 126412978.566 5  98321243.86445  23639864.701 5  23639868.920 5
        38.000          37.000
  21368737.136 7 114428618.330 7  89000063.90947  21368736.911 7  21368738.436 7
        48.000          46.000
  23472242.131 6 123347462.847 6  96114925.00443  23472241.490 3  23472241.924 3
        44.000          26.000
  23522314.248 6 123610619.808 6  96319975.18743  23522313.407 3  23522315.656 3
        44.000          25.000
  22050281.079 7 115875010.809 7  90292232.30145  22050281.108 5  22050283.661 5
        49.000          37.000
  20754293.163 8 111021489.400 8  86350074.61247  20754292.637 8  20754294.984 7
        51.000          48.000
  19939485.225 8 106288699.169 8  82669022.69746  19939484.729 8  19939490.157 6
        54.000          44.000
  22655646.678 6 119056243.781 6  92771109.10243  22655646.992 3  22655648.898 3
        44.000          28.000
  19781309.161 8 105631113.473 8  82157562.47442  19781308.671 8  19781316.661 2
        53.000          20.000
  23242813.226 6 122141805.038 6  95175443.49942  23242813.075 2  23242814.553 2
        44.000          24.000
  20854642.045 8 109591905.704 8  85396316.55646  20854641.411 6  20854644.462 6
        53.000          42.000
  21338709.102 8 113907493.019 8  88594759.02047  21338708.523 8  21338712.278 7
        50.000          45.000
  23402588.123 7 122981433.671 7  95829708.37243  23402588.250 3  23402592.155 3
        45.000          28.000
  24547628.813 3 128998690.584 3
        29.000
  20023453.972 8 105223993.161 8  81992735.62546  20023453.429 6  20023456.094 6
        54.000          44.000
  21980952.483 8 115510703.891 8  90008359.06045  21980952.771 5  21980954.781 5
        50.000          38.000
 10  1  4  1 13 30.0000000  0 16R20R08G22G28G15R19R10G26R09G18G27R18
                                G12G11G09G17
  23613737.136 5 126273267.644 5  98212579.75745  23613737.598 5  23613742.626 5
        37.000          38.000
  21382953.223 7 114504737.829 7  89059267.91347  21382952.216 7  21382953.205 7
        48.000          47.000
  23471423.306 7 123343152.483 7  96111566.26643  23471421.648 3  23471421.783 3
        45.000          27.000
  23539251.451 6 123699627.379 6  96389331.72242  23539250.787 2  23539251.942 2
        43.000          24.000
  22066773.355 7 115961676.738 7  90359764.19145  22066772.839 5  22066775.555 5
        49.000          37.000
  20741178.691 8 110951335.934 8  86295510.83547  20741178.121 8  20741180.493 7
        51.000          48.000
  19928065.697 9 106227824.313 9  82621675.57346  19928065.018 8  19928070.113 6
        55.000          44.000
  22637259.529 6 118959621.989 6  92695819.37943  22637259.874 3  22637262.930 3
        44.000          28.000
  19791268.549 8 105684295.893 8  82198926.51542  19791268.081 8  19791276.049 2
        53.000          20.000
  23252603.167 6 122193244.435 6  95215526.12843  23252601.686 3  23252603.546 3
        44.000          25.000
  20850755.209 8 109571481.029 8  85380401.22646  20850754.776 6  20850757.667 6
        52.000          43.000
  21349749.042 8 113966428.798 8  88640597.95947  21349748.320 7  21349752.315 7
        50.000          45.000
  23382610.571 6 122876451.681 6  95747904.25643  23382611.024 3  23382614.029 3
        44.000          28.000
  24549451.520 3 129008235.132 3
        27.000
  20014635.087 8 105177652.117 8  81956625.72646  20014635.068 6  20014637.626 6
        54.000          44.000
  21974530.545 7 115476955.737 7  89982061.80945  21974530.669 5  21974532.669 5
        48.000          38.000
 10  1  4  1 14  0.0000000  0 16R20R08G22G28G15R19R10G26R09G18G27R18
                                G12G11G09G17
  23587627.970 5 126133643.406 5  98103983.17646  23587626.991 5  23587633.291 6
        36.000          40.000
  21397291.981 7 114581530.436 7  89118995.47547  21397292.021 7  21397293.913 7
        48.000          46.000
  23470710.204 6 123339413.755 6  96108652.96443  23470709.978 3  23470709.463 3
        43.000          26.000
  23556224.765 6 123788819.526 6  96458832.08642  23556224.442 2  23556225.321 2
        43.000          23.000
  22083335.498 7 116048716.460 7  90427587.35145  22083335.920 5  22083338.446 5
        48.000          37.000
  20728200.061 8 110881907.909 8  86241511.28847  20728199.127 8  20728201.945 7
        51.000          48.000
  19916724.474 9 106167367.226 9  82574653.38846  19916723.493 8  19916728.500 6
        55.000          43.000
  22618947.880 7 118863388.533 7  92620832.26543  22618947.209 3  22618949.815 3
        45.000          28.000
  19801313.282 8 105737932.807 8  82240643.98642  19801312.792 8  19801320.782 2
        54.000          20.000
  23262481.521 6 122245158.497 6  95255978.59643  23262480.492 3  23262482.314 3
        43.000          25.000
  20846933.396 8 109551397.140 8  85364751.44546  20846932.886 6  20846935.847 6
        52.000          42.000
  21360929.881 8 114026112.393 8  88687018.55146  21360929.222 7  21360933.431 6
        50.000          44.000
  23362673.602 7 122771675.628 7  95666260.61143  23362672.991 3  23362676.227 3
        45.000          28.000
  24551378.801 4 129018369.986 4
        32.000
  20005914.880 8 105131826.656 8  81920917.58246  20005914.535 6  20005917.350 6
        54.000          44.000
  21968217.806 8 115443779.257 8  89956210.02445  21968217.619 5  21968219.504 5
        50.000          38.000
 10  1  4  1 14 30.0000000  0 16R20R08G22G28G15R19R10G26R09G18G27R18
                                G12G11G09G17
  23561533.883 5 125994109.769 5  97995456.96045  23561533.735 5  23561537.993 5
        37.000          37.000
  21411758.422 7 114658992.679 7  89179243.85547  21411758.016 7  21411759.194 7
        48.000          46.000
  23470109.078 6 123336246.826 6  96106185.25043  23470107.622 3  23470107.886 3
        44.000          26.000
  23573231.877 6 123878194.449 6  96528474.87942  23573231.833 2  23573232.639 2
        42.000          22.000
  22099969.685 7 116136128.038 7  90495700.26545  22099969.809 5  22099972.200 5
        48.000          38.000
  20715357.070 8 110813208.552 8  86188078.47847  20715356.574 8  20715359.495 7
        51.000          48.000
  19905461.348 8 106107329.393 8  82527957.28646  19905460.540 8  19905465.595 6
        54.000          44.000
  22600709.622 7 118767546.223 7  92546149.93643  22600709.614 3  22600711.598 3
        45.000          29.000
  19811442.382 8 105792023.275 8  82282714.37042  19811441.980 8  19811449.882 2
        53.000          20.000
  23272450.351 6 122297545.164 6  95296799.36643  23272449.429 2  23272451.812 3
        43.000          25.000
  20843176.483 8 109531654.590 8  85349367.63646  20843176.071 6  20843179.040 6
        51.000          42.000
  21372250.509 8 114086541.548 8  88734018.99647  21372249.952 8  21372253.591 7
        50.000          45.000
  23342774.921 6 122667107.901 6  95584779.31043  23342774.744 3  23342777.478 3
        44.000          28.000
  24553416.505 4 129029069.486 4
        33.000
  19997293.443 8 105086518.371 8  81885612.42746  19997292.762 6  19997295.433 6
        53.000          44.000
  21962013.176 7 115411175.548 7  89930804.55545  21962012.992 5  21962015.237 5
        48.000          38.000
 10  1  4  1 15  0.0000000  0 17R20R08G22G28G15R19R10G26R11R09G18G27
                                R18G12G11G09G17
  23535458.313 5 125854670.414 5  97887004.14346  23535458.494 5  23535463.614 6
        38.000          40.000
  21426347.812 7 114737120.803 7  89240010.15847  21426347.739 7  21426349.599 7
        48.000          47.000
  23469614.591 6 123333651.430 6  96104162.85643  23469613.594 3  23469613.401 3
        44.000          26.000
  23590273.938 6 123967750.512 6  96598258.81242  23590273.244 2  23590274.767 2
        42.000          23.000
  22116673.834 7 116223909.020 7  90564101.03045  22116673.961 5  22116676.327 5
        48.000          37.000
  20702651.230 8 110745240.956 8  86135214.81747  20702650.693 7  20702653.488 7
        51.000          48.000
  19894277.632 9 106047712.186 9  82481588.34046  19894276.643 8  19894281.770 6
        55.000          44.000
  22582546.797 7 118672097.999 7  92471774.68343  22582546.478 3  22582548.384 3
        45.000          28.000
  23867358.743 5 127539934.876 5  99197758.90741  23867357.681 5  23867360.231 1
        36.000           1.000
  19821656.622 8 105846566.047 8  82325136.60042  19821656.147 8  19821664.122 2
        53.000          20.000
  23282507.734 6 122350402.511 6  95337986.88243  23282507.419 3  23282510.185 3
        43.000          25.000
  20839484.376 8 109512253.952 8  85334250.25546  20839484.280 6  20839487.088 6
        52.000          42.000
  21383709.714 7 114147713.004 7  88781596.79947  21383709.033 7  21383713.228 7
        49.000          45.000
  23322916.681 7 122562749.785 7  95503461.32343  23322916.120 3  23322919.081 3
        45.000          29.000
  24555560.386 5 129040333.614 5
        35.000
  19988770.302 8 105041728.752 8  81850711.43246  19988769.704 6  19988772.335 6
        54.000          44.000
  21955918.008 8 115379145.824 8  89905846.35445  21955917.869 5  21955920.380 5
        50.000          38.000
 10  1  4  1 15 30.0000000  0 17R20R08G22G28G15R19R10G26R11R09G18G27
                                R18G12G11G09G17
  23509400.111 5 125715329.448 5  97778627.85745  23509400.659 5  23509405.481 5
        38.000          39.000
  21441062.090 7 114815911.316 7  89301291.63247  21441061.403 7  21441063.032 7
        48.000          46.000
  23469228.711 6 123331626.875 6  96102585.27743  23469228.610 3  23469228.245 3
        43.000          26.000
  23607350.059 6 124057485.929 6  96668182.49042  23607349.535 2  23607351.707 2
        41.000          24.000
  22133447.782 7 116312057.396 7  90632788.07645  22133448.007 5  22133450.683 5
        48.000          37.000
  20690082.702 8 110678008.026 8  86082922.56747  20690082.058 8  20690084.601 7
        51.000          48.000
  19883172.706 9 105988517.585 9  82435548.09946  19883171.906 8  19883176.895 6
        55.000          44.000
  22564458.381 7 118577046.744 7  92397708.76843  22564458.428 3  22564461.377 3
        45.000          28.000
  23845710.508 5 127424273.162 5  99107799.87943  23845710.706 4  23845718.008 3
        35.000          25.000
  19831955.555 8 105901560.261 8  82367909.95842  19831954.977 8  19831963.055 2
        54.000          20.000
  23292656.081 6 122403728.035 6  95379539.21243  23292655.387 3  23292657.795 3
        43.000          25.000
  20835858.220 8 109493195.838 8  85319399.78046  20835857.804 6  20835860.525 6
        52.000          42.000
  21395308.121 8 114209623.794 8  88829749.64047  21395307.296 8  21395311.230 7
        51.000          45.000
  23303097.260 6 122458602.952 6  95422307.98843  23303097.223 3  23303100.301 3
        44.000          29.000
  24557810.470 4 129052161.878 4
        30.000
  19980346.037 8 104997458.839 8  81816215.40846  19980345.425 6  19980347.997 6
        53.000          44.000
  21949932.149 7 115347691.304 7  89881336.35545  21949932.174 5  21949934.811 5
        48.000          38.000
 10  1  4  1 16  0.0000000  0 17R20R08G22G28G15R19R10G26R11R09G18G27
                                R18G12G11G09G17
  23483362.928 5 125576091.217 5  97670331.45045  23483361.392 5  23483366.653 5
        38.000          37.000
  21455897.949 7 114895360.546 7  89363085.45147  21455897.928 7  21455899.420 7
        48.000          46.000
  23468951.886 6 123330173.699 6  96101452.93443  23468951.871 3  23468951.843 3
        43.000          26.000
  23624459.056 6 124147398.884 6  96738244.48642  23624457.970 2  23624461.317 2
        41.000          24.000
  22150291.035 7 116400570.927 7  90701759.65345  22150291.421 5  22150294.070 5
        48.000          37.000
  20677651.880 8 110611513.035 8  86031204.26147  20677651.489 8  20677654.244 7
        51.000          48.000
  19872147.310 9 105929746.742 9  82389837.44546  19872146.522 8  19872151.690 6
        55.000          44.000
  22546447.439 7 118482395.433 7  92323954.49543  22546447.016 3  22546450.087 3
        45.000          29.000
  23824076.257 5 127308657.079 5  99017876.29743  23824075.452 4  23824081.017 3
        35.000          26.000
  19842338.527 8 105957004.667 8  82411033.46942  19842337.977 8  19842346.027 2
        54.000          20.000
  23302892.442 6 122457519.831 6  95421454.87643  23302892.169 3  23302893.208 3
        44.000          25.000
  20832296.616 8 109474480.753 8  85304816.59946  20832296.205 6  20832299.275 6
        51.000          42.000
  21407042.622 8 114272270.690 8  88878474.99947  21407042.482 7  21407046.993 7
        50.000          45.000
  23283319.346 7 122354669.133 7  95341320.63443  23283318.951 3  23283322.280 3
        45.000          29.000
  24560169.662 4 129064553.844 4
        34.000
  19972021.068 8 104953710.631 8  81782125.89846  19972020.479 6  19972022.925 6
        53.000          44.000
  21944056.647 8 115316813.436 8  89857275.70045  21944056.607 5  21944058.723 5
        50.000          38.000
 10  1  4  1 16 30.0000000  0 17R20R08G22G28G15R19R10G26R11R09G18G27
                                R18G12G11G09G17
  23457344.352 5 125436959.402 5  97562117.83145  23457343.711 5  23457349.207 5
        38.000          39.000
  21470857.144 7 114975464.868 7  89425388.77747  21470856.688 7  21470858.319 7
        47.000          46.000
  23468785.457 6 123329291.894 6  96100765.81243  23468783.672 3  23468784.328 3
        44.000          26.000
  23641602.926 6 124237487.766 6  96808443.61842  23641602.080 2  23641604.447 2
        41.000          23.000
  22167203.352 7 116489447.597 7  90771014.20345  22167204.164 5  22167207.095 5
        48.000          37.000
  20665359.852 8 110545758.797 8  85980062.09847  20665359.216 8  20665362.254 7
        51.000          48.000
  19861201.663 9 105871401.346 9  82344457.69546  19861201.105 8  19861206.304 6
        55.000          44.000
  22528512.773 7 118388147.090 7  92250514.22543  22528512.594 3  22528515.011 3
        46.000          29.000
  23802447.124 5 127193087.913 5  98927989.25543  23802449.116 4  23802453.765 3
        35.000          27.000
  19852805.049 8 106012898.411 8  82454506.44542  19852804.679 8  19852812.549 2
        53.000          20.000
  23313217.592 6 122511775.423 6  95463731.95242  23313215.940 2  23313217.758 2
        44.000          24.000
  20828800.486 8 109456109.297 8  85290501.18546  20828800.217 6  20828803.299 6
        52.000          42.000
  21418916.639 8 114335651.790 8  88927771.41747  21418915.768 7  21418920.853 7
        50.000          45.000
  23263582.811 7 122250950.024 7  95260500.60643  23263582.390 3  23263585.014 3
        46.000          29.000
  24562632.571 4 129077509.559 4
        33.000
  19963795.563 8 104910485.513 8  81748443.99746  19963794.937 6  19963797.653 6
        54.000          44.000
  21938290.374 7 115286512.904 7  89833664.91245  21938290.541 5  21938292.591 5
        49.000          39.000
 10  1  4  1 17  0.0000000  0 17R20R08G22G28G15R19R10G26R11R09G18G27
                                R18G12G11G09G17
  23431346.093 5 125297938.046 5  97453990.14045  23431345.893 5  23431351.383 5
        38.000          38.000
  21485937.125 7 115056220.270 7  89488198.47547  21485937.257 7  21485939.532 7
        47.000          46.000
  23468724.842 7 123328980.658 7  96100523.28043  23468724.622 3  23468725.334 3
        45.000          25.000
  23658780.321 6 124327750.713 6  96878778.37842  23658778.390 2  23658780.235 2
        42.000          23.000
  22184185.984 7 116578685.017 7  90840549.85145  22184185.765 5  22184188.230 5
        48.000          37.000
  20653207.384 8 110480748.393 8  85929498.46747  20653206.501 8  20653209.324 7
        52.000          48.000
  19850336.474 9 105813482.630 9  82299409.81546  19850335.572 8  19850340.853 6
        55.000          44.000
  22510655.294 7 118294304.513 7  92177390.13243  22510654.518 3  22510656.784 3
        46.000          29.000
  23780830.320 4 127077567.204 4  98838139.89643  23780829.755 4  23780833.731 3
        32.000          27.000
  19863356.356 8 106069240.542 8  82498328.01142  19863355.989 8  19863363.856 2
        54.000          20.000
  23323629.969 6 122566492.729 6  95506368.78042  23323628.442 2  23323629.498 2
        43.000          24.000
  20825370.484 8 109438082.104 8  85276454.01846  20825369.947 6  20825372.720 6
        52.000          42.000
  21430927.704 8 114399762.992 8  88977635.68147  21430926.945 7  21430931.384 7
        50.000          45.000
  23243886.365 7 122147447.168 7  95179849.06644  23243886.360 4  23243889.292 4
        45.000          30.000
  24565208.325 4 129091028.714 4
        34.000
  19955669.698 8 104867784.585 8  81715170.54846  19955669.109 6  19955671.707 6
        52.000          44.000
  21932634.964 7 115256791.235 7  89810505.18345  21932634.883 5  21932636.769 5
        48.000          38.000
 10  1  4  1 17 30.0000000  0 17R20R08G22G28G15R19R10G26R11R09G18G27
                                R18G12G11G09G17
  23405370.039 5 125159031.392 5  97345951.65845  23405369.866 5  23405375.089 5
        38.000          38.000
  21501139.230 7 115137623.272 7  89551511.87847  21501138.803 7  21501140.736 7
        48.000          46.000
  23468774.851 6 123329240.316 6  96100725.59643  23468773.846 3  23468774.591 3
        43.000          26.000
  23675988.845 6 124418185.796 6  96949247.25742  23675988.673 2  23675988.991 2
        42.000          23.000
  22201234.963 7 116668281.141 7  90910365.01445  22201235.289 5  22201237.748 5
        49.000          37.000
  20641193.536 8 110416484.633 8  85879515.56147  20641193.098 8  20641195.610 7
        51.000          48.000
  19839551.150 9 105755991.965 9  82254694.85646  19839550.283 8  19839555.638 6
        55.000          44.000
  22492874.839 7 118200870.789 7  92104584.64043  22492874.427 3  22492877.563 3
        45.000          29.000
  23759225.550 4 126962096.091 4  98748329.07743  23759222.053 4  23759224.978 3
        32.000          27.000
  19873991.447 8 106126029.884 8  82542497.42942  19873990.826 8  19873998.947 2
        53.000          20.000
  23334129.162 6 122621669.426 6  95549363.59142  23334127.962 2  23334129.828 2
        43.000          24.000
  20822005.185 8 109420399.720 8  85262675.53446  20822004.906 6  20822007.961 6
        52.000          42.000
  21443073.741 8 114464601.848 8  89028065.90246  21443073.239 7  21443077.176 6
        50.000          44.000
  23224231.443 6 122044162.430 6  95099367.49944  23224231.885 4  23224234.849 4
        44.000          30.000
  24567883.949 4 129105111.222 4
        32.000
  19947643.820 8 104825609.193 8  81682306.60546  19947643.404 6  19947646.088 6
        54.000          44.000
  21927089.398 8 115227649.350 8  89787797.23745  21927089.092 5  21927091.295 5
        50.000          38.000
