     2.11           OBSERVATION DATA    G (GPS)             RINEX VERSION / TYPE
teqc  2009Mar23     root                20100104 01:16:03UTCPGM / RUN BY / DATE
Linux 2.4.20-8|Pentium IV|gcc|Linux|486/DX+                 COMMENT
teqc  2009Mar23     root                20100103 01:00:00UTCCOMMENT
BIT 2 OF LLI FLAGS DATA COLLECTED UNDER A/S CONDITION       COMMENT
PTBB                                                        MARKER NAME
14234M001                                                   MARKER NUMBER
Automatic           BKG/GOWettzell+PTB                      OBSERVER / AGENCY
RT820013901         ASHTECH Z-XII3T     1L01-1D04           REC # / TYPE / VERS
CR15930             ASH700936E      SNOW                    ANT # / TYPE
  3844060.0000   709661.2700  5023129.5100                  APPROX POSITION XYZ
        0.0562        0.0000        0.0000                  ANTENNA: DELTA H/E/N
     1     1                                                WAVELENGTH FACT L1/2
     9    C1    P1    P2    L1    L2    D1    D2    S1    S2# / TYPES OF OBSERV
    30.0000                                                 INTERVAL
Forced Modulo Decimation to 30 seconds                      COMMENT
 SNR is mapped to RINEX snr flag value [0-9]                COMMENT
  L1 & L2: min(max(int(snr_dBHz/6), 0), 9)                  COMMENT
pseudorange smoothing corrections not applied               COMMENT
  2010     1     3     0     0    0.0000000     GPS         TIME OF FIRST OBS
                                                            END OF HEADER
 10  1  3  0  0  0.0000000  0  7G18G28G15G17G 9G27G 8
  23204295.2624   23204295.0324   23204297.1264   -5256107.93246  -4081449.39346
      1487.9434       1159.4294         41.6004         39.0004
  21731782.4854   21731782.1224   21731785.3544  -14840183.71848 -11530473.77647
     -1615.5464      -1258.8674         48.8004         45.8004
  20449552.2284   20449552.4694   20449555.6304  -21136958.07148 -16450966.12948
       -45.1944        -35.2164         52.4004         49.4004
  23794065.5714   23794067.4824   23794069.7734   -4630068.68346  -3584220.66946
      2985.5254       2326.3814         41.6004         39.0004
  22262318.1804   22262317.8024   22262323.9334  -14258680.33647 -10804312.74947
      3288.7094       2562.6144         44.9004         42.1004
  22086665.8014   22086665.9094   22086670.0734  -15239548.87747 -11840767.25547
      1978.8044       1541.9264         47.2004         44.2004
  23506301.3014   23506300.9094   23506306.3924   -6091113.25646  -4725386.66446
     -3155.3294      -2458.6964         41.1004         38.5004
 10  1  3  0  0 30.0000000  0  8G 5G18G28G15G17G 9G27G 8
  24728342.0014   24728342.8564   24728348.0804     730336.64046    582090.68345
     -3741.9114      -2915.7754         37.0004         34.8004
  23195850.7744   23195849.4924   23195851.8114   -5300484.89646  -4116028.86146
      1470.5644       1145.8914         41.1004         37.9004
  21741045.2494   21741044.8334   21741048.0354  -14791508.10948 -11492544.74047
     -1629.5104      -1269.7444         48.6004         45.6004
  20449860.1914   20449860.5074   20449863.2944  -21135340.52048 -16449705.70548
       -62.6684        -48.8294         52.2004         49.4004
  23777044.3704   23777045.7694   23777049.5404   -4719517.30147  -3653920.89846
      2977.6454       2320.2684         42.0004         39.3004
  22243565.5744   22243565.5374   22243569.5004  -14357230.24347 -10881104.87347
      3281.3004       2556.8584         44.9004         42.3004
  22075389.2124   22075389.3654   22075393.7254  -15298808.25547 -11886943.38547
      1971.8124       1536.4754         47.2004         44.4004
  23524327.4624   23524327.8664   23524329.3674   -5996387.42246  -4651574.37446
     -3159.7004      -2462.1024         41.1004         38.1004
 10  1  3  0  1  0.0000000  0  8G 5G18G28G15G17G 9G27G 8
  24749705.0894   24749706.0154   24749709.6844     842600.22146    669568.72245
     -3742.3794      -2916.1464         37.0004         35.0004
  23187503.6774   23187504.3074   23187507.9614   -5344338.93446  -4150200.86346
      1453.0644       1132.2654         40.6004         37.9004
  21750387.5314   21750387.1124   21750390.3044  -14742414.01548 -11454289.60347
     -1643.4364      -1280.5964         48.6004         45.6004
  20450267.9834   20450267.8894   20450271.0224  -21133198.61648 -16448036.69648
       -80.1334        -62.4414         52.2004         49.4004
  23760066.6144   23760067.7034   23760072.1544   -4808728.33146  -3723436.00446
      2969.7044       2314.0584         41.8004         38.8004
  22224855.0604   22224854.2264   22224857.9404  -14455556.16447 -10957722.45947
      3273.7564       2550.9704         45.1004         42.1004
  22064153.2234   22064152.4834   22064157.5214  -15357856.65747 -11932955.12747
      1964.7634       1530.9824         47.4004         44.4004
  23542376.3214   23542375.9294   23542381.2414   -5901530.54446  -4577659.94846
     -3164.0804      -2465.5214         40.8004         38.1004
 10  1  3  0  1 30.0000000  0  8G 5G18G28G15G17G 9G27G 8
  24771071.0524   24771071.9104   24771076.5424     954878.08346    757057.94545
     -3742.8304      -2916.4874         37.0004         35.0004
  23179260.1954   23179259.5114   23179262.1584   -5387668.38546  -4183964.09246
      1435.5104       1118.5824         40.6004         38.3004
  21759809.5084   21759809.0234   21759811.9554  -14692903.07848 -11415709.65547
     -1657.3004      -1291.4054         48.6004         45.6004
  20450775.0214   20450775.6124   20450778.4844  -21130532.20548 -16445958.97348
       -97.6314        -76.0774         52.4004         49.6004
  23743139.2794   23743139.2564   23743142.7084   -4897698.92346  -3792763.73946
      2961.6564       2307.7904         41.8004         39.5004
  22206186.8464   22206187.0624   22206191.5694  -14553656.52647 -11034164.29247
      3266.2424       2545.1134         45.3004         42.6004
  22052955.9554   22052955.8524   22052961.0354  -15416693.59647 -11978802.07647
      1957.6804       1525.4694         47.4004         44.4004
  23560452.9524   23560451.3804   23560458.6284   -5806543.60046  -4503644.21246
     -3168.3644      -2468.8424         40.6004         37.6004
 10  1  3  0  2  0.0000000  0  8G 5G18G28G15G17G 9G27G 8
  24792440.2034   24792440.9944   24792443.8464    1067167.49746    844556.16245
     -3743.0644      -2916.6724         37.1004         35.0004
  23171114.8084   23171114.6244   23171117.7474   -5430471.88546  -4217317.46046
      1417.9694       1104.9034         41.1004         38.8004
  21769310.1244   21769309.6214   21769312.8074  -14642977.09148 -11376806.28447
     -1671.0984      -1302.1544         48.8004         45.8004
  20451382.6334   20451382.7814   20451385.5824  -21127340.76948 -16443472.13648
      -115.1484        -89.7284         52.2004         49.4004
  23726256.1074   23726254.7854   23726257.5254   -4986426.02147  -3861901.70746
      2953.4554       2301.3874         42.3004         39.7004
  22187562.1154   22187562.4354   22187566.1144  -14651529.88147 -11110429.22147
      3258.6354       2539.1904         45.3004         42.5004
  22041800.2484   22041800.3204   22041804.8164  -15475318.81147 -12024484.06447
      1950.6164       1519.9634         47.2004         44.4004
  23578554.3234   23578551.4404   23578556.3154   -5711427.36046  -4429527.69946
     -3172.6894      -2472.2154         39.6004         36.7004
 10  1  3  0  2 30.0000000  0  8G 5G18G28G15G17G 9G27G 8
  24813812.2124   24813810.4684   24813815.4534    1179465.73846    932061.24645
     -3743.3634      -2916.9034         36.4004         34.3004
  23163069.4934   23163069.5624   23163071.5604   -5472747.66047  -4250259.64646
      1400.3704       1091.2014         42.0004         39.5004
  21778889.0944   21778888.5544   21778891.9224  -14592637.66448 -11337580.75947
     -1684.8614      -1312.8734         48.8004         45.8004
  20452089.6124   20452090.0314   20452092.7274  -21123623.68448 -16440575.71448
      -132.6844       -103.3844         52.2004         49.4004
  23709416.1274   23709417.1474   23709420.1794   -5074906.55947  -3930847.60546
      2945.2274       2294.9814         42.2004         39.2004
  22168980.7244   22168981.5534   22168985.8834  -14749174.55147 -11186515.99047
      3251.0094       2533.2624         45.5004         42.6004
  22030684.8754   22030684.4374   22030688.9854  -15533731.85747 -12070000.70947
      1943.5544       1514.4594         47.2004         44.4004
  23596676.5424   23596676.4424   23596682.9264   -5616183.26946  -4355311.53646
     -3176.9414      -2475.5374         39.4004         37.4004
 10  1  3  0  3  0.0000000  0  8G 5G18G28G15G17G 9G27G 8
  24835180.3044   24835179.4884   24835185.3744    1291769.69245   1019570.82145
     -3743.5254      -2917.0334         35.7004         33.8004
  23155125.1534   23155124.5294   23155129.1914   -5514494.46147  -4282789.61946
      1382.6614       1077.3904         42.0004         39.3004
  21788546.4064   21788545.8254   21788549.2164  -14541886.61748 -11298034.48647
     -1698.5424      -1323.5394         48.6004         45.4004
  20452897.4954   20452897.3794   20452900.7994  -21119380.36748 -16437269.23448
      -150.2224       -117.0584         52.2004         49.4004
  23692627.0804   23692625.7684   23692629.7654   -5163137.80847  -3999599.25646
      2936.9304       2288.5154         42.0004         39.3004
  22150443.9604   22150443.4624   22150448.5134  -14846588.97847 -11262423.32847
      3243.3134       2527.2374         45.5004         42.5004
  22019609.6174   22019609.1814   22019613.3524  -15591932.23647 -12115351.64247
      1936.4484       1508.9174         47.4004         44.4004
  23614827.9224   23614825.6514   23614830.3814   -5520812.33646  -4280996.56446
     -3181.1704      -2478.8394         40.1004         37.9004
 10  1  3  0  3 30.0000000  0  8G 5G18G28G15G17G 9G27G 8
  24856549.8794   24856549.2484   24856556.9574    1404077.75045   1107083.60945
     -3743.7604      -2917.2054         35.2004         33.8004
  23147281.3944   23147280.7494   23147285.9474   -5555710.85246  -4314906.29446
      1365.0004       1063.6304         41.6004         38.8004
  21798281.2584   21798281.7234   21798285.4144  -14490725.65548 -11258168.79847
     -1712.1824      -1334.1694         48.6004         45.6004
  20453805.3354   20453805.1894   20453808.2894  -21114610.45148 -16433552.41148
      -167.7844       -130.7424         52.2004         49.4004
  23675886.3194   23675885.3194   23675889.1534   -5251116.39547  -4068153.96946
      2928.3384       2281.8294         42.3004         39.9004
  22131950.8344   22131949.8564   22131954.3374  -14943771.62447 -11338150.05047
      3235.5464       2521.2014         45.3004         42.5004
  22008575.4774   22008574.9324   22008579.3424  -15649919.61447 -12160536.61047
      1929.3454       1503.3904         47.4004         44.5004
  23632998.9164   23632997.6884   23633002.0004   -5425315.93846  -4206583.82446
     -3185.2744      -2482.0284         40.4004         37.9004
 10  1  3  0  4  0.0000000  0  8G 5G18G28G15G17G 9G27G 8
  24877925.6694   24877925.4004   24877927.1444    1516386.39145   1194596.82645
     -3743.5994      -2917.0954         35.6004         34.0004
  23139540.4764   23139540.1504   23139542.8754   -5596395.38246  -4346608.52046
      1347.3074       1049.8454         41.8004         39.2004
  21808095.2834   21808094.8524   21808098.4274  -14439156.46148 -11217985.01247
     -1725.7644      -1344.7524         48.4004         45.2004
  20454812.9004   20454813.2004   20454815.9574  -21109313.83448 -16429425.18348
      -185.3454       -144.4274         52.2004         49.4004
  23659191.8094   23659190.6814   23659195.2154   -5338839.82247  -4136509.87846
      2919.8654       2275.2144         42.2004         39.2004
  22113501.2694   22113501.2984   22113505.2594  -15040721.23047 -11413695.20947
      3227.7514       2515.1494         45.1004         42.3004
  21997581.7464   21997581.0534   21997585.4624  -15707693.69947 -12205555.38047
      1922.2254       1497.8394         47.5004         44.7004
  23651192.5974   23651193.3124   23651199.3574   -5329694.78646  -4132073.85846
     -3189.4734      -2485.3054         40.1004         37.1004
 10  1  3  0  4 30.0000000  0  8G 5G18G28G15G17G 9G27G 8
  24899297.3614   24899293.0904   24899296.3474    1628693.16845   1282108.54345
     -3743.6254      -2917.1064         35.0004         33.4004
  23131900.7214   23131899.2324   23131902.5434   -5636546.77547  -4377895.30446
      1329.4844       1035.9694         42.2004         39.7004
  21817986.1954   21817985.5874   21817989.4554  -14387180.73048 -11177484.45447
     -1739.2834      -1355.2884         48.4004         45.4004
  20455921.1894   20455921.3294   20455924.3094  -21103489.62248 -16424886.83948
      -202.9354       -158.1334         52.2004         49.4004
  23642549.2834   23642547.7274   23642549.7444   -5426304.82047  -4204664.41746
      2911.1604       2268.4394         42.0004         39.3004
  22095096.8704   22095096.9984   22095101.5464  -15137436.14047 -11489057.46247
      3219.8914       2509.0064         45.1004         42.1004
  21986628.1334   21986627.9044   21986631.7284  -15765253.97547 -12250407.53847
      1915.1004       1492.2854         47.7004         44.9004
  23669414.1374   23669411.5624   23669417.1074   -5233950.08046  -4057467.64346
     -3193.5424      -2488.4744         39.4004         36.9004
 10  1  3  0  5  0.0000000  0  8G 5G18G28G15G17G 9G27G 8
  24920663.9244   24920662.3424   24920666.1504    1740995.09145   1369616.49545
     -3743.1334      -2916.7194         34.2004         32.6004
  23124361.7014   23124361.2474   23124364.6834   -5676163.39447  -4408765.43146
      1311.6444       1022.0654         42.5004         40.0004
  21827954.4244   21827953.8744   21827957.0334  -14334800.22448 -11136668.47647
     -1752.7414      -1365.7634         48.4004         45.4004
  20457130.5344   20457130.4124   20457133.2074  -21097137.48848 -16419937.12548
      -220.5354       -171.8424         52.2004         49.4004
  23625952.9174   23625953.6134   23625957.3834   -5513508.66247  -4272615.46946
      2902.4244       2261.6354         42.2004         39.5004
  22076738.8594   22076737.4064   22076741.7094  -15233914.89947 -11564235.69647
      3211.9924       2502.8554         45.1004         42.5004
  21975715.1704   21975715.0114   21975719.6624  -15822599.75147 -12295092.55347
      1907.9524       1486.7184         47.9004         44.9004
  23687656.4244   23687655.7674   23687660.3744   -5138082.38146  -3982765.55646
     -3197.6704      -2491.6994         39.4004         37.3004
 10  1  3  0  5 30.0000000  0  8G 5G18G28G15G17G 9G27G 8
  24942034.2404   24942034.0734   24942039.7704    1853289.74455   1457118.82355
     -3742.9524      -2916.5694         33.5004         32.4004
  23116924.7104   23116923.2294   23116928.1624   -5715244.40847  -4439218.18646
      1293.7504       1008.1284         42.9004         40.2004
  21837997.9504   21837997.9314   21838001.0984  -14282017.19248 -11095538.84147
     -1766.1354      -1376.2104         48.4004         45.4004
  20458439.0454   20458439.2894   20458442.3984  -21090257.36648 -16414575.99748
      -238.1464       -185.5694         52.2004         49.4004
  23609409.8834   23609410.2474   23609412.6284   -5600448.24947  -4340360.58946
      2893.5764       2254.7384         42.0004         39.2004
  22058423.7934   22058423.5504   22058427.2184  -15330156.12747 -11639228.86247
      3204.0654       2496.6674         45.3004         42.5004
  21964842.9154   21964842.7604   21964847.5944  -15879730.90447 -12339610.33747
      1900.7814       1481.1244         47.7004         44.7004
  23705921.9374   23705920.8624   23705928.8644   -5042093.52546  -3907969.06446
     -3201.6754      -2494.8164         39.9004         37.6004
 10  1  3  0  6  0.0000000  0  8G 5G18G28G15G17G 9G27G 8
  24963402.7344   24963400.7664   24963407.3074    1965574.50745   1544613.46845
     -3742.5504      -2916.2654         33.3004         32.4004
  23109589.7524   23109589.5154   23109592.2144   -5753788.24047  -4469252.34346
      1275.7634        994.1104         42.7004         40.0004
  21848118.9674   21848118.5454   21848121.8984  -14228833.25248 -11054096.81047
     -1779.4824      -1386.6114         48.4004         45.4004
  20459848.9974   20459849.5114   20459852.1924  -21082848.56348 -16408802.91348
      -255.7714       -199.2984         52.2004         49.4004
  23592915.2134   23592915.7894   23592919.7814   -5687120.87146  -4407897.67746
      2884.5974       2247.7424         41.8004         39.0004
  22040155.4364   22040155.2114   22040159.7094  -15426158.26247 -11714035.71347
      3196.0714       2490.4474         45.3004         42.5004
  21954013.4684   21954012.4254   21954016.5914  -15936647.02547 -12383960.55347
      1893.6074       1475.5394         47.5004         44.7004
  23724211.2324   23724212.9264   23724217.9094   -4945984.09546  -3833078.64946
     -3205.6284      -2497.8904         40.6004         38.5004
 10  1  3  0  6 30.0000000  0  8G 5G18G28G15G17G 9G27G 8
  24984764.9014   24984762.3504   24984770.1174    2077846.58855   1632098.17555
     -3742.0604      -2915.8984         32.8004         31.7004
  23102359.2754   23102357.6534   23102360.0764   -5791793.62247  -4498866.94846
      1257.8554        980.1494         42.5004         39.5004
  21858316.2454   21858315.3854   21858318.0414  -14175249.93948 -11012343.58847
     -1792.7434      -1396.9394         48.2004         45.2004
  20461360.1654   20461359.7064   20461362.7914  -21074911.04348 -16402617.83648
      -273.3974       -213.0344         52.2004         49.4004
  23576472.8444   23576473.2134   23576477.3714   -5773523.45646  -4475224.36546
      2875.5504       2240.6824         41.6004         38.8004
  22021932.1424   22021932.8434   22021936.6284  -15521919.62647 -11788654.94747
      3188.0054       2484.1624         45.3004         42.6004
  21943222.8644   21943222.9244   21943226.9304  -15993347.46047 -12428142.72147
      1886.3924       1469.9164         47.7004         44.7004
  23742526.4024   23742524.7344   23742527.3204   -4849755.23246  -3758095.13146
     -3209.6114      -2500.9984         40.4004         37.6004
 10  1  3  0  7  0.0000000  0  7G18G28G15G17G 9G27G 8
  23095227.3684   23095227.4504   23095229.6784   -5829259.33947  -4528061.03046
      1239.8314        966.0974         42.2004         39.3004
  21868587.8434   21868587.2484   21868590.6484  -14121269.10848 -10970280.59947
     -1805.9754      -1407.2514         48.4004         45.4004
  20462970.7424   20462970.8634   20462974.1004  -21066444.21948 -16396020.31648
      -291.0674       -226.8094         52.2004         49.4004
  23560084.7134   23560085.1454   23560086.3964   -5859653.19946  -4542338.43146
      2866.3904       2233.5394         41.8004         39.3004
  22003756.2274   22003756.3094   22003759.8204  -15617438.79347 -11863085.45647
      3179.9314       2477.8584         45.5004         42.5004
  21932473.5104   21932473.8574   21932478.4674  -16049831.89847 -12472156.57047
      1879.2234       1464.3274         47.7004         44.7004
  23760855.1294   23760855.3024   23760862.0004   -4753408.25646  -3683019.51846
     -3213.5674      -2504.0754         39.7004         36.9004
 10  1  3  0  7 30.0000000  0  7G18G28G15G17G 9G27G 8
  23088200.9354   23088200.1244   23088204.3224   -5866184.16946  -4556833.64346
      1221.8064        952.0764         41.8004         39.0004
  21878935.5094   21878935.2554   21878937.9334  -14066892.71548 -10927909.39447
     -1819.1254      -1417.4954         48.4004         45.4004
  20464682.4374   20464682.7864   20464686.2554  -21057447.85348 -16389010.17048
      -308.7204       -240.5624         52.2004         49.4004
  23543743.6134   23543746.8224   23543750.2244   -5945506.82946  -4609237.33146
      2857.0914       2226.2964         41.8004         39.2004
  21985624.8454   21985624.7594   21985629.0174  -15712714.35647 -11937326.14247
      3171.7594       2471.4954         45.3004         42.5004
  21921767.6584   21921766.6334   21921770.6914  -16106099.87547 -12516001.75647
      1871.9644       1458.6814         47.7004         44.7004
  23779213.4274   23779213.2474   23779219.4694   -4656943.88246  -3607852.49346
     -3217.4344      -2507.0834         39.6004         37.1004
 10  1  3  0  8  0.0000000  0  7G18G28G15G17G 9G27G 8
  23081277.7764   23081276.7544   23081280.2244   -5902566.86047  -4585183.75046
      1203.7014        937.9494         42.2004         39.7004
  21889357.3644   21889357.0184   21889360.3314  -14012122.41048 -10885231.23047
     -1832.2354      -1427.7154         48.4004         45.4004
  20466494.9954   20466495.6854   20466498.7454  -21047921.77148 -16381587.25348
      -326.3754       -254.3184         52.2004         49.4004
  23527462.0984   23527461.8014   23527465.4134   -6031081.54846  -4675918.94046
      2847.7684       2219.0474         41.6004         39.0004
  21967541.2334   21967541.8594   21967545.3904  -15807744.77147 -12011375.80847
      3163.5894       2465.1444         45.5004         42.6004
  21911101.1574   21911100.6994   21911104.1374  -16162150.96047 -12559677.93547
      1864.7514       1453.0534         47.7004         44.7004
  23797595.6154   23797593.7064   23797596.9104   -4560363.39846  -3532595.01946
     -3221.2864      -2510.0924         40.1004         37.6004
 10  1  3  0  8 30.0000000  0  7G18G28G15G17G 9G27G 8
  23074458.9424   23074458.4284   23074459.6974   -5938405.77247  -4613110.16646
      1185.5614        923.8014         42.7004         40.0004
  21899854.5184   21899854.1864   21899857.6954  -13956959.94648 -10842247.49347
     -1845.2714      -1437.8754         48.4004         45.4004
  20468409.3824   20468409.1764   20468412.6254  -21037865.56448 -16373751.25748
      -344.0554       -268.0974         52.2004         49.4004
  23511230.4024   23511231.8014   23511235.8844   -6116374.67646  -4742381.08846
      2838.3624       2211.6974         41.8004         39.3004
  21949505.4954   21949505.3654   21949509.5864  -15902528.54947 -12085233.30047
      3155.3334       2458.7014         45.6004         43.0004
  21900475.4484   21900475.4924   21900479.9594  -16217984.79747 -12603184.82447
      1857.5024       1447.4064         47.7004         44.9004
  23815994.0514   23815993.1864   23815999.0854   -4463667.65546  -3457247.69946
     -3225.0704      -2513.0494         40.1004         37.4004
 10  1  3  0  9  0.0000000  0  7G18G28G15G17G 9G27G 8
  23067742.0374   23067741.9684   23067743.3314   -5973700.15247  -4640612.28946
      1167.4254        909.6754         42.9004         40.2004
  21910425.9694   21910425.3054   21910428.7344  -13901407.23648 -10798959.66347
     -1858.2304      -1447.9804         48.4004         45.2004
  20470423.2224   20470423.8324   20470427.0724  -21027278.93348 -16365501.94448
      -361.7344       -281.8744         52.2004         49.4004
  23495056.6344   23495055.9054   23495058.6864   -6201382.89947  -4808621.25646
      2828.8254       2204.2774         42.2004         39.7004
  21931515.3104   21931515.3874   21931519.4154  -15997064.21847 -12158897.44347
      3146.9984       2452.2114         45.8004         43.0004
  21889892.4584   21889892.3334   21889896.8754  -16273600.96747 -12646522.09847
      1850.2554       1441.7524         47.9004         44.9004
  23834413.5574   23834413.7024   23834421.5554   -4366857.34546  -3381811.13846
     -3228.8784      -2516.0034         39.4004         36.6004
 10  1  3  0  9 30.0000000  0  7G18G28G15G17G 9G27G 8
  23061129.1004   23061127.9794   23061131.6264   -6008448.69647  -4667689.06646
      1149.1364        895.4134         42.9004         39.7004
  21921070.9714   21921070.6114   21921074.2184  -13845466.04548 -10755369.12047
     -1871.1604      -1458.0464         48.2004         45.2004
  20472539.2094   20472539.5144   20472542.4894  -21016161.83848 -16356839.27848
      -379.4184       -295.6484         52.2004         49.4004
  23478932.2494   23478932.8624   23478936.1264   -6286103.52447  -4874637.30346
      2819.2074       2196.7904         42.3004         39.7004
  21913574.5484   21913573.4484   21913577.2774  -16091349.97347 -12232366.84947
      3138.6734       2445.7294         46.0004         43.2004
  21879350.6314   21879350.1814   21879354.3264  -16328998.99047 -12689689.39447
      1842.9524       1436.0674         47.9004         44.9004
  23852859.9834   23852859.7324   23852863.0604   -4269934.20046  -3306286.56946
     -3232.6214      -2518.9284         38.9004         36.4004
 10  1  3  0 10  0.0000000  0  7G18G28G15G17G 9G27G 8
  23054621.3404   23054620.5974   23054623.5884   -6042650.36847  -4694339.71646
      1130.9254        881.2354         42.5004         40.0004
  21931790.0564   21931789.9044   21931792.4744  -13789138.39548 -10711477.45047
     -1884.0014      -1468.0554         48.2004         45.2004
  20474756.0214   20474755.7704   20474759.1204  -21004513.80448 -16347762.89448
      -397.1174       -309.4414         52.1004         49.4004
  23462868.7564   23462867.6974   23462869.8814   -6370533.76247  -4940427.09446
      2809.4544       2189.1914         42.5004         39.9004
  21895678.5254   21895678.7804   21895683.2914  -16185384.48747 -12305640.49547
      3130.2364       2439.1364         46.0004         43.2004
  21868849.9904   21868850.2804   21868854.1504  -16384178.34147 -12732686.27947
      1835.6434       1430.3664         47.9004         45.1004
  23871327.0134   23871324.5634   23871330.7874   -4172898.99546  -3230674.79146
     -3236.3294      -2521.8184         38.9004         36.0004
 10  1  3  0 10 30.0000000  0  7G18G28G15G17G 9G27G 8
  23048217.2894   23048216.3514   23048219.8084   -6076303.66247  -4720563.06546
      1112.5894        866.9574         42.9004         40.4004
  21942582.3974   21942581.6954   21942584.4924  -13732425.87948 -10667285.87447
     -1896.8114      -1478.0384         48.2004         45.1004
  20477072.9424   20477073.5864   20477076.6254  -20992334.51148 -16338272.54248
      -414.8184       -323.2324         52.1004         49.2004
  23446857.5574   23446856.4924   23446859.7524   -6454670.47947  -5005988.17246
      2799.6654       2181.5674         42.5004         39.9004
  21877834.4774   21877832.6124   21877836.3544  -16279166.03047 -12378717.01447
      3121.8404       2432.6074         46.0004         43.0004
  21858391.9354   21858391.8714   21858395.9494  -16439138.57647 -12775512.42547
      1828.3394       1424.6844         47.9004         44.9004
  23889808.8414   23889809.7594   23889817.3454   -4075753.03446  -3154976.61545
     -3240.0184      -2524.6934         38.3004         35.9004
 10  1  3  0 11  0.0000000  0  7G18G28G15G17G 9G27G 8
  23041917.9384   23041917.0884   23041920.0864   -6109407.80747  -4746358.52046
      1094.2844        852.7024         43.0004         40.2004
  21953447.1464   21953446.8934   21953449.6674  -13675330.18948 -10622795.73147
     -1909.5584      -1487.9714         48.1004         45.1004
  20479492.2114   20479492.4674   20479495.5464  -20979624.08048 -16328368.31648
      -432.5434       -337.0474         52.1004         49.4004
  23430902.0504   23430902.4054   23430906.3734   -6538510.84947  -5071318.29646
      2789.7354       2173.8054         42.9004         40.0004
  21860035.9454   21860036.1184   21860039.9014  -16372693.17447 -12451595.30047
      3113.3194       2425.9664         46.2004         43.5004
  21847974.9394   21847974.6604   21847978.8044  -16493879.12247 -12818167.38047
      1821.0094       1418.9624         47.9004         44.9004
  23908318.6114   23908318.9114   23908322.2504   -3978496.75246  -3079192.54045
     -3243.7124      -2527.5604         38.2004         35.7004
 10  1  3  0 11 30.0000000  0  7G18G28G15G17G 9G27G 8
  23035722.1544   23035721.8894   23035725.5944   -6141961.55447  -4771725.07046
      1075.9004        838.3574         42.9004         40.0004
  21964384.3494   21964384.1454   21964386.7484  -13617853.61048 -10578008.79447
     -1922.2074      -1497.8244         48.1004         45.1004
  20482011.9814   20482012.1844   20482015.4734  -20966382.10448 -16318049.89548
      -450.2544       -350.8504         52.1004         49.4004
  23415003.9174   23415004.7154   23415009.4704   -6622052.12147  -5136415.38946
      2779.6744       2165.9754         43.0004         40.4004
  21842287.2464   21842286.9874   21842290.6304  -16465964.61547 -12524274.34747
      3104.7624       2419.2934         46.3004         43.5004
  21837600.3634   21837600.0804   21837604.0934  -16548399.64847 -12860650.90247
      1813.6754       1413.2484         47.9004         44.9004
  23926844.5074   23926845.9194   23926850.7284   -3881130.83746  -3003323.00345
     -3247.2574      -2530.3264         38.0004         35.9004
 10  1  3  0 12  0.0000000  0  7G18G28G15G17G 9G27G 8
  23029632.9374   23029631.5684   23029635.1564   -6173964.19047  -4796662.18246
      1057.5244        824.0694         42.7004         39.9004
  21975394.1204   21975393.5904   21975396.1654  -13559997.88347 -10532926.41247
     -1934.8284      -1507.6524         47.9004         44.9004
  20484633.2044   20484633.3444   20484636.6004  -20952608.48048 -16307317.20048
      -467.9864       -364.6674         52.1004         49.4004
  23399165.8384   23399165.0824   23399168.2424   -6705291.06847  -5201276.86946
      2769.5564       2158.1184         43.0004         40.4004
  21824587.1154   21824587.1044   21824590.2204  -16558978.63347 -12596752.80747
      3096.1724       2412.6044         46.5004         43.5004
  21827266.8424   21827266.4354   21827271.0844  -16602699.81247 -12902962.70747
      1806.3144       1407.5224         47.9004         44.9004
  23945398.0334   23945394.8424   23945399.0264   -3783657.18246  -2927369.48245
     -3250.9514      -2533.2074         37.6004         35.3004
 10  1  3  0 12 30.0000000  0  7G18G28G15G17G 9G27G 8
  23023648.5844   23023648.0154   23023651.0154   -6205414.10547  -4821168.63046
      1039.1424        809.7134         42.7004         40.2004
  21986475.8234   21986474.5854   21986477.9674  -13501764.77247 -10487549.96347
     -1947.3814      -1517.4434         47.9004         44.7004
  20487355.4184   20487355.5904   20487358.7254  -20938303.09748 -16296170.16148
      -485.7144       -378.4744         52.2004         49.4004
  23383384.9724   23383383.6624   23383386.4714   -6788224.88447  -5265900.60546
      2759.3304       2150.1304         43.0004         40.4004
  21806935.8514   21806935.7474   21806939.6834  -16651733.81947 -12669029.57447
      3087.5104       2405.8474         46.5004         43.5004
  21816976.1294   21816975.3104   21816980.3074  -16656779.29247 -12945102.55147
      1798.9594       1401.7854         47.9004         45.1004
  23963964.6024   23963965.4424   23963970.7264   -3686076.95546  -2851333.01245
     -3254.4534      -2535.9424         37.6004         35.3004
 10  1  3  0 13  0.0000000  0  7G18G28G15G17G 9G27G 8
  23017768.6764   23017768.7054   23017771.9134   -6236310.64847  -4845243.86746
      1020.6094        795.2954         43.0004         40.4004
  21997627.9464   21997627.7954   21997631.3744  -13443156.12047 -10441880.88347
     -1959.8494      -1527.1584         47.7004         44.7004
  20490178.2064   20490178.7254   20490181.8124  -20923465.79148 -16284608.62848
      -503.4444       -392.2914         52.1004         49.2004
  23367659.8054   23367659.3944   23367663.3984   -6870850.82947  -5330284.44846
      2749.0224       2142.0844         43.2004         40.4004
  21789334.8264   21789334.9014   21789339.1584  -16744228.48347 -12741103.33947
      3078.8124       2399.0644         46.7004         43.7004
  21806726.4444   21806726.9854   21806731.6894  -16710637.48448 -12987069.95947
      1791.5774       1396.0444         48.1004         45.2004
  23982552.7094   23982552.0994   23982560.6144   -3588390.94846  -2775214.06445
     -3257.8994      -2538.6244         37.3004         34.8004
 10  1  3  0 13 30.0000000  0  7G18G28G15G17G 9G27G 8
  23011994.8064   23011995.0344   23011998.0334   -6266652.74747  -4868887.06446
      1002.1494        780.8874         43.0004         40.4004
  22008851.5084   22008851.2584   22008855.0854  -13384173.87147 -10395920.68647
     -1972.2764      -1536.8334         47.7004         44.5004
  20493103.6034   20493103.6074   20493106.5494  -20908096.73448 -16272632.74148
      -521.1764       -406.1114         52.1004         49.2004
  23351994.3964   23351995.5044   23351998.5664   -6953166.17647  -5394426.27446
      2738.6574       2134.0134         43.2004         40.4004
  21771782.1724   21771782.1104   21771787.5864  -16836461.25147 -12812973.00747
      3070.0514       2392.2384         46.7004         43.7004
  21796520.6124   21796520.0364   21796524.7214  -16764274.01648 -13028864.64047
      1784.1834       1390.2754         48.2004         45.2004
  24001161.6234   24001161.8704   24001166.7034   -3490599.56746  -2699013.00645
     -3261.3674      -2541.3264         36.3004         33.8004
 10  1  3  0 14  0.0000000  0  7G18G28G15G17G 9G27G 8
  23006327.5784   23006326.1064   23006328.9634   -6296439.31447  -4892097.36346
       983.5674        766.4294         43.0004         40.0004
  22020146.4154   22020146.4854   22020150.1564  -13324819.73847 -10349670.72647
     -1984.6374      -1546.4664         47.7004         44.9004
  20496128.9434   20496129.3254   20496132.6644  -20892195.60248 -16260242.24748
      -538.9144       -419.9304         52.1004         49.2004
  23336391.5844   23336390.7804   23336394.6294   -7035167.99147  -5458323.77346
      2728.1344       2125.8344         43.2004         40.4004
  21754281.8614   21754282.3114   21754287.0834  -16928430.48947 -12884637.34747
      3061.2204       2385.3734         46.7004         44.0004
  21786355.7324   21786355.5474   21786360.1944  -16817688.50048 -13070486.29747
      1776.7794       1384.4984         48.1004         45.1004
  24019792.1764   24019789.8034   24019797.0974   -3392704.44545  -2622731.15145
     -3264.8764      -2544.0594         35.7004         34.1004
 10  1  3  0 14 30.0000000  0  7G18G28G15G17G 9G27G 8
  23000764.2004   23000764.0664   23000766.5534   -6325669.01147  -4914873.77346
       965.0094        751.9414         42.9004         39.9004
  22031510.8864   22031511.0914   22031515.2274  -13265095.59847 -10303132.43347
     -1996.9534      -1556.0674         47.7004         44.7004
  20499255.9924   20499256.5354   20499259.8794  -20875762.32048 -16247437.09748
      -556.6694       -433.7684         52.1004         49.2004
  23320847.1084   23320847.5744   23320851.0854   -7116853.32547  -5521974.67446
      2717.5594       2117.5854         43.0004         40.6004
  21736832.7654   21736832.1774   21736836.2504  -17020134.40247 -12956094.93547
      3052.3524       2378.4634         47.0004         44.0004
  21776234.3244   21776234.0904   21776238.1464  -16870880.47448 -13111934.58547
      1769.3414       1378.7054         48.1004         45.1004
  24038437.2804   24038438.3434   24038443.7954   -3294706.54646  -2546369.20445
     -3268.3514      -2546.7604         36.1004         34.3004
 10  1  3  0 15  0.0000000  0  7G18G28G15G17G 9G27G 8
  22995307.2184   22995306.9034   22995311.2444   -6354341.41747  -4937215.88646
       946.4374        737.4794         42.9004         40.2004
  22042946.2284   22042946.3514   22042950.0934  -13205003.47147 -10256307.40347
     -2009.1804      -1565.5954         47.7004         44.7004
  20502485.0214   20502485.0364   20502488.3854  -20858796.63748 -16234217.08648
      -574.4034       -447.5884         52.1004         49.2004
  23305361.2904   23305362.9734   23305367.7754   -7198219.28147  -5585376.70446
      2706.8264       2109.2074         43.0004         40.0004
  21719432.1284   21719431.2154   21719436.6314  -17111571.70347 -13027344.75547
      3043.4624       2371.5294         47.2004         44.2004
  21766154.0314   21766154.1194   21766158.5074  -16923849.51748 -13153209.14547
      1761.9034       1372.9144         48.1004         45.1004
  24057107.7434   24057106.8314   24057112.2694   -3196606.81146  -2469927.85245
     -3271.6874      -2549.3684         37.0004         35.0004
 10  1  3  0 15 30.0000000  0  7G18G28G15G17G 9G27G 8
  22989957.8674   22989957.0734   22989960.8284   -6382455.49847  -4959122.94346
       927.7924        722.9544         42.7004         39.9004
  22054451.4764   22054451.4474   22054455.0954  -13144544.92947 -10209196.85147
     -2021.3684      -1575.0904         47.7004         44.7004
  20505814.8514   20505814.9544   20505817.9714  -20841298.44048 -16220582.13148
      -592.1464       -461.4124         52.1004         49.2004
  23289941.1204   23289941.9664   23289944.7124   -7279262.90847  -5648527.58146
      2696.0694       2100.8124         43.2004         40.2004
  21702082.4384   21702082.2294   21702087.3164  -17202740.74947 -13098385.55947
      3034.4734       2364.5224         47.0004         44.0004
  21756117.8794   21756117.2904   21756121.2994  -16976594.83248 -13194309.38647
      1754.4444       1367.1044         48.1004         45.1004
  24075795.3344   24075794.6244   24075801.6844   -3098405.85146  -2393407.66245
     -3275.0434      -2551.9804         37.3004         35.3004
 10  1  3  0 16  0.0000000  0  7G18G28G15G17G 9G27G 8
  22984715.5954   22984714.2174   22984717.8314   -6410010.23547  -4980594.14146
       909.1274        708.4004         42.7004         39.9004
  22066026.2204   22066025.6354   22066029.1524  -13083722.33347 -10161802.63247
     -2033.4574      -1584.5174         47.7004         44.5004
  20509245.5504   20509245.8244   20509249.1834  -20823267.88648 -16206532.35048
      -609.8794       -475.2304         52.1004         49.1004
  23274581.5804   23274581.2864   23274585.5374   -7359981.37147  -5711425.07646
      2685.1784       2092.3544         43.4004         40.9004
  21684785.8744   21684785.0834   21684789.4354  -17293640.17647 -13169216.27647
      3025.4624       2357.4984         47.0004         44.0004
  21746122.1354   21746122.3824   21746126.5874  -17029116.18748 -13235235.10547
      1746.9614       1361.2734         48.1004         45.2004
  24094504.2894   24094501.4474   24094506.4074   -3000105.02746  -2316809.69645
     -3278.3424      -2554.5444         37.1004         35.0004
 10  1  3  0 16 30.0000000  0  7G18G28G15G17G 9G27G 8
  22979577.5844   22979577.3224   22979580.3584   -6437004.78347  -5001628.85146
       890.4964        693.9054         42.7004         39.5004
  22077670.0224   22077669.4664   22077671.8154  -13022537.29747 -10114125.98347
     -2045.5264      -1593.9074         47.7004         44.5004
  20512778.2644   20512778.4004   20512781.4914  -20804705.42748 -16192068.10348
      -627.6264       -489.0584         51.9004         49.1004
  23259283.7544   23259285.1164   23259287.7194   -7440372.07547  -5774067.16846
      2674.1754       2083.7734         43.9004         41.2004
  21667538.8704   21667539.0944   21667543.5344  -17384268.35847 -13239835.61847
      3016.4104       2350.4494         46.9004         43.9004
  21736171.6944   21736171.3504   21736174.4674  -17081413.14248 -13275985.97947
      1739.4804       1355.4454         48.1004         45.2004
  24113223.5264   24113224.5834   24113231.0964   -2901705.71146  -2240134.87545
     -3281.6664      -2557.1474         36.3004         34.0004
 10  1  3  0 17  0.0000000  0  7G18G28G15G17G 9G27G 8
  22974547.7294   22974547.6954   22974549.9444   -6463438.21647  -5022226.32246
       871.7444        679.2854         42.7004         40.0004
  22089381.1274   22089380.9014   22089383.5644  -12960991.76147 -10066168.42347
     -2057.5124      -1603.2534         47.7004         44.7004
  20516411.6994   20516412.2054   20516414.7214  -20785610.36448 -16177188.83748
      -645.3754       -502.8924         51.9004         49.1004
  23244049.4504   23244048.2774   23244052.7664   -7520432.19247  -5836451.65246
      2663.1324       2075.1634         43.9004         41.1004
  21650344.5634   21650344.5184   21650349.2344  -17474624.02947 -13310242.61647
      3007.3054       2343.3484         46.9004         43.9004
  21726261.9724   21726261.8164   21726265.7024  -17133485.27248 -13316561.65747
      1731.9794       1349.5954         48.1004         45.1004
  24131967.5684   24131967.2684   24131973.7774   -2803208.36445  -2163383.70745
     -3284.8714      -2559.6454         35.9004         34.1004
 10  1  3  0 17 30.0000000  0  7G18G28G15G17G 9G27G 8
  22969624.4304   22969624.4144   22969627.4314   -6489309.74347  -5042385.93846
       853.0004        664.6724         42.9004         40.2004
  22101161.3694   22101161.0934   22101163.8034  -12899087.65447 -10017931.46547
     -2069.4434      -1612.5504         47.5004         44.7004
  20520146.5224   20520146.7604   20520149.7194  -20765983.07048 -16161894.84048
      -663.1154       -516.7114         51.7004         48.9004
  23228875.7384   23228876.6694   23228881.0404   -7600158.58847  -5898576.13346
      2651.9434       2066.4434         43.9004         40.9004
  21633203.8664   21633203.3164   21633207.4794  -17564705.36647 -13380435.84947
      2998.1244       2336.1994         46.9004         44.2004
  21716395.5534   21716395.5324   21716399.4094  -17185332.14648 -13356961.80947
      1724.4514       1343.7194         48.1004         45.1004
  24150731.6064   24150731.3104   24150735.8854   -2704613.73745  -2086556.76445
     -3288.0864      -2562.1424         35.9004         34.3004
 10  1  3  0 18  0.0000000  0  7G18G28G15G17G 9G27G 8
  22964808.7954   22964808.1854   22964811.1754   -6514618.56347  -5062107.10746
       834.2384        650.0474         42.9004         39.9004
  22113009.0554   22113008.5564   22113011.5824  -12836826.56847  -9969416.33047
     -2081.3054      -1621.7984         47.7004         44.5004
  20523982.6164   20523983.2274   20523986.1204  -20745823.42848 -16146186.03148
      -680.8664       -530.5484         51.7004         48.9004
  23213771.0904   23213770.0704   23213773.9844   -7679548.42747  -5960438.36446
      2640.6944       2057.6824         43.9004         41.2004
  21616114.0954   21616113.7714   21616117.5924  -17654510.68247 -13450413.99747
      2988.8884       2329.0134         47.0004         44.0004
  21706572.9294   21706572.0114   21706576.3044  -17236953.23748 -13397186.02947
      1716.9394       1337.8704         48.1004         45.1004
  24169510.7894   24169512.0394   24169517.1434   -2605922.95746  -2009654.94745
     -3291.2754      -2564.6264         36.1004         34.1004
 10  1  3  0 18 30.0000000  0  7G18G28G15G17G 9G27G 8
  22960100.3414   22960100.1974   22960101.9464   -6539363.84847  -5081389.12746
       815.4144        635.4034         42.7004         40.0004
  22124924.2574   22124923.9434   22124927.1834  -12774210.66347  -9920624.71747
     -2093.0934      -1630.9854         47.5004         44.4004
  20527921.0444   20527920.8574   20527923.5234  -20725131.81448 -16130062.70448
      -698.5924       -544.3584         51.7004         48.9004
  23198726.4414   23198726.7984   23198730.8914   -7758599.21947  -6022036.40246
      2629.3344       2048.8154         43.9004         41.1004
  21599077.2574   21599077.1124   21599081.3094  -17744038.56347 -13520175.96647
      2979.6174       2321.7824         47.0004         44.2004
  21696793.1514   21696792.6344   21696795.7914  -17288348.10548 -13437233.97547
      1709.3814       1331.9844         48.1004         45.2004
  24188309.7884   24188309.4204   24188316.4164   -2507137.25146  -1932679.06845
     -3294.4664      -2567.1144         36.1004         34.1004
 10  1  3  0 19  0.0000000  0  7G18G28G15G17G 9G27G 8
  22955498.6534   22955498.6514   22955501.9604   -6563544.73947  -5100231.36746
       796.6094        620.7204         42.7004         40.0004
  22136906.7694   22136906.4334   22136909.7154  -12711241.91247  -9871558.16647
     -2104.8114      -1640.1224         47.4004         44.5004
  20531958.4584   20531959.0874   20531962.0864  -20703908.11248 -16113524.75748
      -716.3264       -558.1754         51.7004         48.7004
  23183749.3874   23183749.2314   23183751.8594   -7837308.16347  -6083368.03546
      2617.9024       2039.9284         43.7004         40.7004
  21582093.7504   21582093.6134   21582097.2344  -17833287.39147 -13589720.50347
      2970.2914       2314.5124         47.2004         44.2004
  21687056.2234   21687055.3354   21687059.2374  -17339516.45048 -13477105.41747
      1701.8324       1326.1054         48.2004         45.2004
  24207124.4294   24207124.0524   24207128.9914   -2408257.64945  -1855629.99745
     -3297.6944      -2569.6394         34.7004         32.7004
 10  1  3  0 19 30.0000000  0  7G18G28G15G17G 9G27G 8
  22951003.9614   22951003.4964   22951006.7274   -6587160.40347  -5118633.18946
       777.7824        606.0884         42.9004         40.2004
  22148956.4324   22148956.1284   22148959.2244  -12647922.27247  -9822218.19047
     -2116.4894      -1649.2144         47.4004         44.5004
  20536099.3184   20536099.5474   20536102.1744  -20682152.24648 -16096572.14448
      -734.0604       -571.9944         51.5004         48.7004
  23168836.6264   23168836.8024   23168839.9034   -7915672.28347  -6144430.99546
      2606.3904       2030.9544         43.7004         40.9004
  21565164.0874   21565163.7844   21565167.7484  -17922255.57147 -13659046.35647
      2960.9334       2307.2184         47.4004         44.4004
  21677361.9914   21677361.9834   21677365.3384  -17390457.74448 -13516799.93147
      1694.2484       1320.1924         48.4004         45.4004
  24225962.1794   24225960.3114   24225965.0084   -2309284.69145  -1778508.24845
     -3300.5984      -2571.8914         34.7004         33.4004
 10  1  3  0 20  0.0000000  0  7G18G28G15G17G 9G27G 8
  22946618.6764   22946617.6354   22946621.0614   -6610210.28747  -5136594.14246
       758.9064        591.3374         43.0004         40.2004
  22161072.0174   22161071.4834   22161074.6384  -12584253.45947  -9772606.13247
     -2128.1014      -1658.2564         47.4004         44.2004
  20540340.4024   20540340.5034   20540343.8174  -20659864.18448 -16079204.82648
      -751.8044       -585.8214         51.7004         48.9004
  23153990.8874   23153991.1234   23153993.3654   -7993688.59547  -6205222.94046
      2594.7114       2021.8634         43.6004         40.6004
  21548288.0244   21548286.7034   21548291.2194  -18010942.01247 -13728152.67047
      2951.4834       2299.8494         47.5004         44.5004
  21667711.7524   21667711.2434   21667714.5844  -17441171.48348 -13556317.13047
      1686.6524       1314.2764         48.4004         45.4004
  24244811.3554   24244809.7884   24244814.3364   -2210219.87445  -1701314.87445
     -3303.6124      -2574.2494         35.2004         33.6004
 10  1  3  0 20 30.0000000  0  7G18G28G15G17G 9G27G 8
  22942339.9774   22942338.9394   22942341.0934   -6632693.65847  -5154113.64146
       739.9994        576.6334         42.9004         40.0004
  22173253.1554   22173253.3204   22173256.0324  -12520237.32847  -9722723.44247
     -2139.6454      -1667.2544         47.2004         44.0004
  20544682.4014   20544683.1154   20544686.4404  -20637044.36448 -16061423.15048
      -769.5364       -599.6374         51.7004         48.9004
  23139211.1084   23139211.9284   23139215.1324   -8071354.50647  -6265741.84646
      2582.9924       2012.7214         43.6004         40.9004
  21531464.0504   21531464.1944   21531468.8694  -18099344.74047 -13797037.89747
      2942.0134       2292.4734         47.5004         44.7004
  21658103.9634   21658103.6024   21658107.8994  -17491657.08648 -13595656.56447
      1679.0404       1308.3424         48.4004         45.2004
  24263678.2874   24263675.2694   24263684.3414   -2111064.27345  -1624050.72645
     -3306.7114      -2576.6624         34.7004         33.3004
 10  1  3  0 21  0.0000000  0  7G18G28G15G17G 9G27G 8
  22938168.2514   22938168.0144   22938170.9424   -6654609.73147  -5171191.08146
       721.0564        561.8934         42.7004         40.0004
  22185501.7634   22185500.9624   22185503.8604  -12455876.15447  -9672571.87847
     -2151.1094      -1676.1864         47.2004         44.4004
  20549126.7904   20549126.8134   20549129.9384  -20613692.86448 -16043227.17748
      -787.2324       -613.4284         51.7004         48.9004
  23124499.5324   23124498.6484   23124502.5194   -8148667.36847  -6325985.61446
      2571.1734       2003.5164         43.6004         40.7004
  21514696.2264   21514696.0474   21514700.5404  -18187462.21547 -13865700.85347
      2932.4744       2285.0534         47.5004         44.5004
  21648540.6364   21648540.8284   21648544.1514  -17541914.27048 -13634818.00147
      1671.4134       1302.4024         48.4004         45.4004
  24282564.6724   24282565.0524   24282572.1454   -2011818.79245  -1546716.52045
     -3309.7634      -2579.0334         35.6004         34.3004
 10  1  3  0 21 30.0000000  0  7G18G28G15G17G 9G27G 8
  22934106.1814   22934105.2904   22934108.5934   -6675957.82147  -5187825.94146
       702.1264        547.1034         42.9004         40.2004
  22197814.7304   22197813.5974   22197816.9524  -12391171.58447  -9622152.73547
     -2162.5304      -1685.0894         47.2004         44.2004
  20553670.7594   20553671.3744   20553674.6794  -20589809.80148 -16024617.00748
      -804.9564       -627.2364         51.7004         48.7004
  23109853.9554   23109854.2984   23109859.0444   -8225624.21447  -6385952.00446
      2559.2354       1994.2184         43.7004         40.9004
  21497982.6564   21497982.5524   21497986.9784  -18275293.07847 -13934140.46347
      2922.9044       2277.5894         47.5004         44.5004
  21639020.7394   21639020.1684   21639024.1684  -17591942.49548 -13673801.02747
      1663.7784       1296.4534         48.4004         45.4004
  24301470.7334   24301469.6744   24301473.4614   -1912483.75746  -1469312.65145
     -3312.6774      -2581.3004         36.8004         35.2004
 10  1  3  0 22  0.0000000  0  7G18G28G15G17G 9G27G 8
  22930150.6104   22930150.8784   22930154.4384   -6696737.18647  -5204017.66346
       683.1514        532.3274         43.0004         40.2004
  22210192.6834   22210192.2134   22210194.9154  -12326125.34747  -9571467.37147
     -2173.8794      -1693.9234         47.2004         44.2004
  20558317.3734   20558317.5424   20558320.6854  -20565395.49948 -16005592.88248
      -822.6484       -641.0244         51.5004         48.7004
  23095278.5534   23095278.6154   23095283.2204   -8302222.11047  -6445638.67146
      2547.2364       1984.8514         43.7004         41.1004
  21481324.1994   21481324.2654   21481327.5394  -18362835.51847 -14002355.34347
      2913.2694       2270.0734         47.4004         44.4004
  21629544.0144   21629544.0164   21629547.5154  -17641741.42448 -13712605.38247
      1656.1294       1290.4864         48.4004         45.4004
  24320386.6894   24320386.1024   24320394.2234   -1813060.40345  -1391839.93945
     -3315.4384      -2583.4544         35.7004         33.4004
 10  1  3  0 22 30.0000000  0  7G18G28G15G17G 9G27G 8
  22926305.4414   22926304.6644   22926307.8444   -6716947.33947  -5219765.82446
       664.1594        517.5154         42.7004         39.9004
  22222635.3654   22222635.0174   22222637.8434  -12260739.37647  -9520517.27247
     -2185.1614      -1702.7214         47.2004         44.2004
  20563064.2454   20563064.2564   20563067.8154  -20540450.04848 -15986154.87648
      -840.3874       -654.8454         51.5004         48.7004
  23080771.4534   23080771.4294   23080775.6824   -8378458.67347  -6505043.79946
      2535.1574       1975.4494         44.1004         41.4004
  21464720.2734   21464720.3944   21464723.7664  -18450088.07647 -14070344.34347
      2903.5484       2262.5054         47.4004         44.4004
  21620111.1454   21620110.8704   21620114.8324  -17691310.52148 -13751230.64347
      1648.4624       1284.5154         48.4004         45.4004
  24339322.7704   24339323.3234   24339329.6404   -1713549.85645  -1314299.25545
     -3318.4474      -2585.8014         34.3004         32.9004
 10  1  3  0 23  0.0000000  0  7G18G28G15G17G 9G27G 8
  22922568.4134   22922567.4984   22922571.1074   -6736587.63247  -5235069.92546
       645.1734        502.7184         42.3004         39.5004
  22235141.9364   22235141.2044   22235144.1784  -12195016.19047  -9469304.39047
     -2196.3644      -1711.4524         47.2004         44.2004
  20567912.0224   20567912.2064   20567915.5264  -20514973.53548 -15966303.06748
      -858.0684       -668.6214         51.5004         48.7004
  23066333.4114   23066332.6264   23066338.1964   -8454331.49747  -6564165.49246
      2522.9964       1965.9764         44.1004         41.2004
  21448172.8544   21448172.3234   21448176.3044  -18537049.12947 -14138106.19947
      2893.8074       2254.9114         47.5004         44.5004
  21610722.2744   21610721.8084   21610725.9384  -17740649.32548 -13789676.46447
      1640.7804       1278.5254         48.4004         45.4004
  24358277.3184   24358282.0244   24358280.9034   -1613952.85445  -1236691.20045
     -3321.3784      -2588.0864         34.2004         32.9004
 10  1  3  0 23 30.0000000  0  7G18G28G15G17G 9G27G 8
  22918939.9294   22918939.3474   22918942.2534   -6755657.76647  -5249929.80046
       626.1104        487.8954         42.3004         39.7004
  22247711.6734   22247711.4484   22247715.0334  -12128957.36347  -9417829.98947
     -2207.5334      -1720.1574         47.0004         43.9004
  20572861.3554   20572861.3834   20572864.6404  -20488966.44448 -15946037.81248
      -875.7584       -682.4084         51.5004         48.7004
  23051963.9374   23051964.9124   23051969.0974   -8529837.08347  -6623001.02046
      2510.6804       1956.3774         44.1004         40.9004
  21431680.5764   21431680.4534   21431683.2864  -18623717.00447 -14205639.60947
      2884.0344       2247.3084         47.5004         44.5004
  21601377.4854   21601377.0884   21601381.7184  -17789757.32848 -13827942.43447
      1633.0744       1272.5284         48.4004         45.6004
  24377249.4394   24377247.7594   24377252.0474   -1514270.88845  -1159017.01945
     -3324.1124      -2590.2084         34.9004         33.6004
 10  1  3  0 24  0.0000000  0  7G18G28G15G17G 9G27G 8
  22915419.5674   22915418.4234   22915421.8564   -6774156.86347  -5264344.70146
       607.1354        473.0924         42.3004         39.7004
  22260345.0084   22260345.6024   22260348.7384  -12062564.35447  -9366095.19947
     -2218.6634      -1728.8264         46.7004         43.7004
  20577911.2634   20577911.2444   20577914.5534  -20462428.81948 -15925359.15548
      -893.4424       -696.1854         51.5004         48.5004
  23037666.9124   23037667.9704   23037670.1454   -8604972.91247  -6681548.42846
      2498.3474       1946.7524         43.9004         41.1004
  21415243.9254   21415243.9884   21415247.4984  -18710090.39047 -14272943.55647
      2874.1974       2239.6374         47.5004         44.7004
  21592076.9554   21592075.6654   21592080.7534  -17838634.00648 -13866028.14247
      1625.3564       1266.5164         48.6004         45.6004
  24396231.7904   24396230.3364   24396234.9264   -1414504.54945  -1081277.02545
     -3327.0764      -2592.5294         34.5004         32.6004
 10  1  3  0 24 30.0000000  0  7G18G28G15G17G 9G27G 8
  22912009.5244   22912008.5634   22912010.6544   -6792084.30147  -5278314.14846
       588.0204        458.1884         42.5004         39.9004
  22273043.4684   22273043.2254   22273046.1434  -11995839.64247  -9314101.91047
     -2229.6644      -1737.4024         46.9004         43.9004
  20583061.7684   20583061.8824   20583065.2324  -20435360.84948 -15904267.24748
      -911.1074       -709.9554         51.4004         48.5004
  23023441.0784   23023440.3034   23023443.4824   -8679736.40347  -6739805.67546
      2485.8574       1937.0224         44.1004         41.4004
  21398863.6534   21398863.4624   21398867.0694  -18796167.76847 -14340016.83347
      2864.3034       2231.9294         47.5004         44.5004
  21582819.7014   21582819.4164   21582823.7944  -17887278.88148 -13903933.23447
      1617.6144       1260.4724         48.6004         45.6004
  24415233.2684   24415231.3314   24415238.9394   -1314654.73145  -1003471.97445
     -3329.6384      -2594.5264         33.1004         31.9004
 10  1  3  0 25  0.0000000  0  7G18G28G15G17G 9G27G 8
  22908706.3374   22908706.1944   22908707.9814   -6809439.67847  -5291837.83146
       568.9604        443.3604         42.7004         40.2004
  22285802.8874   22285802.8734   22285806.4694  -11928785.40547  -9261851.86247
     -2240.6354      -1745.9544         46.7004         43.7004
  20588313.0684   20588313.9574   20588317.1524  -20407762.81948 -15882762.30848
      -928.7724       -723.7204         51.4004         48.5004
  23009284.1814   23009284.4094   23009288.2624   -8754124.68747  -6797770.60746
      2473.3254       1927.2574         44.2004         41.2004
  21382540.3904   21382540.1444   21382544.4324  -18881947.19247 -14406857.95147
      2854.3454       2224.1594         47.7004         44.7004
  21573606.7394   21573607.0884   21573610.9714  -17935691.62448 -13941657.44447
      1609.8644       1254.4324         48.6004         45.4004
  24434243.5534   24434251.3404   24434252.0764   -1214722.65045   -925602.78245
     -3332.4154      -2596.6854         33.1004         32.0004
 10  1  3  0 25 30.0000000  0  7G18G28G15G17G 9G27G 8
  22905511.7194   22905511.4634   22905515.8914   -6826222.43647  -5304915.33446
       549.8994        428.4814         42.9004         40.0004
  22298624.3634   22298624.8654   22298629.0694  -11861403.02947  -9209346.11947
     -2251.5334      -1754.4384         46.5004         43.5004
  20593666.5554   20593666.6154   20593669.4704  -20379635.11748 -15860844.62948
      -946.4004       -737.4524         51.4004         48.5004
  22995200.8884   22995201.4444   22995204.3984   -8828135.10447  -6855441.05746
      2460.6814       1917.4204         44.2004         41.4004
  21366274.1404   21366274.3694   21366278.1894  -18967427.21247 -14473465.76147
      2844.3214       2216.3524         47.7004         44.7004
  21564438.5924   21564438.1264   21564442.9304  -17983871.67148 -13979200.33747
      1602.1184       1248.4114         48.6004         45.6004
  24453282.3694   24453277.9494                   -1114708.84345   -847669.95145
     -3335.0394      -2598.7244         32.3004         31.3004
 10  1  3  0 26  0.0000000  0  7G18G28G15G17G 9G27G 8
  22902427.9194   22902426.6094   22902428.9924   -6842432.23047  -5317546.36946
       530.7934        413.6004         42.9004         40.2004
  22311510.3384   22311509.6744   22311513.9634  -11793694.70847  -9156586.39147
     -2262.3734      -1762.8864         46.7004         43.7004
  20599119.0324   20599119.6434   20599123.0054  -20350978.33348 -15838514.67748
      -964.0524       -751.2104         51.4004         48.5004
  22981189.6844   22981189.4514   22981192.6134   -8901764.99947  -6912815.01246
      2447.9334       1907.4824         44.1004         41.1004
  21350064.5344   21350065.1994   21350068.8054  -19052606.40047 -14539839.15747
      2834.2554       2208.5114         47.7004         44.9004
  21555314.7094   21555314.5084   21555318.6084  -18031818.68648 -14016561.64847
      1594.3284       1242.3384         48.6004         45.8004
  24472324.4114                                   -1014614.64245   -769674.51445
     -3337.5994      -2600.7344         31.6004         31.0004
 10  1  3  0 26 30.0000000  0  7G18G28G15G17G 9G27G 8
  22899452.5954   22899452.1544   22899454.6614   -6858068.64947  -5329730.62546
       511.6514        398.6994         43.0004         40.7004
  22324456.7794   22324456.0694   22324459.8424  -11725662.06847  -9103573.94347
     -2273.1354      -1771.2734         46.5004         43.3004
  20604673.3594   20604673.5834   20604676.9794  -20321792.82648 -15815772.73048
      -981.6684       -764.9404         51.4004         48.5004
  22967251.7864   22967251.9314   22967254.9344   -8975011.79047  -6969890.44946
      2435.1414       1897.5254         44.1004         41.4004
  21333914.1114   21333912.9564   21333917.2504  -19137483.11647 -14605976.85547
      2824.1674       2200.6484         47.7004         44.7004
  21546234.6004   21546235.0124   21546239.3304  -18079532.03448 -14053740.86747
      1586.5484       1236.2734         48.8004         45.8004
  24491389.5674                                    -914440.94945   -691617.18545
     -3340.4174      -2602.9354         31.0004         31.0004
 10  1  3  0 27  0.0000000  0  8G22G18G28G15G17G 9G27G 8
                                  24514701.466     -146569.36744    -48237.613 2
      2166.1174       1699.811          26.4004         14.400
  22896587.2664   22896586.1084   22896589.3334   -6873131.22347  -5341467.72046
       492.5034        383.7634         43.4004         40.7004
  22337463.2994   22337463.0854   22337467.3354  -11657307.44347  -9050310.59747
     -2283.8194      -1779.6004         46.3004         43.5004
  20610327.2784   20610327.7264   20610331.0854  -20292078.31948 -15792618.58648
      -999.3064       -778.6824         51.4004         48.4004
  22953386.3264   22953386.3784   22953390.6394   -9047872.85047  -7026665.30846
      2422.2414       1887.4714         44.4004         41.6004
  21317819.4794   21317819.4714   21317823.7354  -19222055.74547 -14671877.60547
      2814.0054       2192.7304         47.9004         44.9004
  21537200.3914   21537199.6514   21537204.1024  -18127011.41948 -14090737.78147
      1578.7434       1230.1854         48.8004         45.8004
  24510464.6124                                    -814188.29544     25394.70443
     -3343.0194      -2604.9504         26.4004         23.4004
 10  1  3  0 27 30.0000000  0  8G22G18G28G15G17G 9G27G 8
  24488311.2494                   24488307.7714    -211337.36844   -156309.60245
      2151.7594       1676.6994         29.5004         32.7004
  22893829.0294   22893827.8794   22893832.2454   -6887619.34047  -5352757.19146
       473.3214        368.8234         43.6004         40.7004
  22350531.6424   22350531.6764   22350534.9804  -11588632.57747  -8996797.72147
     -2294.4794      -1787.9064         46.3004         43.3004
  20616082.8084   20616083.0244   20616086.3684  -20261835.47348 -15769052.74448
     -1016.8994       -792.3874         51.2004         48.5004
  22939595.4114   22939595.6984   22939598.6794   -9120345.32147  -7083137.36646
      2409.2284       1877.3244         44.4004         41.6004
  21301783.3824   21301783.6604   21301788.1274  -19306322.63747 -14737540.10347
      2803.7924       2184.7824         47.9004         44.9004
  21528208.9434   21528209.4174   21528213.9284  -18174256.42648 -14127552.07347
      1570.9204       1224.0984         48.6004         45.8004
  24529557.3354                                    -713857.69754    103557.10855
     -3345.5724      -2605.7474         26.4004         30.1004
 10  1  3  0 28  0.0000000  0  7G22G18G28G15G17G 9G27
  24476066.8054   24476068.1724   24476067.2054    -275673.83645   -206441.87345
      2137.3784       1665.4854         35.0004         34.3004
  22891183.4204   22891181.3464   22891184.0614   -6901532.99347  -5363598.99746
       454.2174        353.9154         43.4004         40.4004
  22363661.5044   22363661.5924   22363663.7424  -11519639.60747  -8943036.95847
     -2305.0344      -1796.1364         46.3004         43.5004
  20621938.2484   20621938.2774   20621941.9994  -20231064.79648 -15745075.60148
     -1034.4864       -806.0944         51.2004         48.4004
  22925877.5344   22925878.5044   22925882.2234   -9192426.44247  -7139304.45646
      2396.1474       1867.1364         44.2004         41.2004
  21285806.7894   21285806.4844   21285811.4244  -19390282.50747 -14802963.36947
      2793.5294       2176.7744         47.9004         44.9004
  21519264.2144   21519263.8614   21519268.1774  -18221266.35748 -14164183.18247
      1563.0704       1217.9824         48.6004         45.6004
 10  1  3  0 28 30.0000000  0  7G22G18G28G15G17G 9G27
  24463902.4384   24463902.7804   24463904.0964    -339576.92645   -256236.48645
      2122.9264       1654.2274         35.6004         34.1004
  22888643.3614   22888642.8774   22888645.4584   -6914871.58047  -5373992.71646
       435.0214        338.9734         43.2004         40.6004
  22376850.9964   22376850.3134   22376853.2954  -11450330.33847  -8889029.74447
     -2315.5664      -1804.3324         46.3004         43.5004
  20627893.8154   20627893.9084   20627897.6284  -20199766.52548 -15720687.35748
     -1052.0654       -819.7894         51.2004         48.4004
  22912238.9264   22912237.9264   22912241.5634   -9264113.88847  -7195164.77746
      2382.9874       1856.8634         44.4004         41.8004
  21269888.7144   21269888.6754   21269893.1784  -19473933.73848 -14868146.13947
      2783.2104       2168.7324         48.1004         45.1004
  21510362.7674   21510362.6934   21510367.0384  -18268040.77248 -14200630.77447
      1555.2244       1211.8674         48.6004         45.6004
 10  1  3  0 29  0.0000000  0  7G22G18G28G15G17G 9G27
  24451825.2044   24451826.2734   24451830.3024    -403044.77546   -305691.92045
      2108.3404       1642.8684         36.1004         34.5004
  22886215.5844   22886214.4224   22886216.5644   -6927634.77047  -5383938.07246
       415.8634        324.0394         43.4004         40.9004
  22390100.2584   22390099.4214   22390101.0744  -11380706.62147  -8834777.50547
     -2326.0124      -1812.4784         46.3004         43.2004
  20633949.4444   20633950.0514   20633953.8414  -20167941.32448 -15695888.51348
     -1069.6114       -833.4674         51.0004         48.2004
  22898669.2734   22898670.1274   22898675.0604   -9335404.85647  -7250716.21246
      2369.7534       1846.5744         44.4004         41.8004
  21254029.7834   21254029.4934   21254033.5974  -19557274.57448 -14933087.03647
      2772.8224       2160.6394         48.1004         45.1004
  21501506.8164   21501507.1044   21501511.2534  -18314579.17348 -14236894.46547
      1547.3404       1205.7124         48.8004         45.8004
 10  1  3  0 29 30.0000000  0  7G22G18G28G15G17G 9G27
  24439835.3724   24439834.9204   24439837.2844    -466075.08246   -354806.48146
      2093.6864       1631.4404         38.2004         36.6004
  22883895.3284   22883894.3264   22883898.9134   -6939822.26447  -5393434.82646
       396.6594        309.0894         43.6004         40.6004
  22403409.3554   22403408.0204   22403410.0834  -11310770.78747  -8780282.03647
     -2336.3704      -1820.5414         46.2004         43.3004
  20640107.1574   20640106.7884   20640110.2254  -20135589.79448 -15670679.54248
     -1087.1554       -847.1334         51.0004         48.2004
  22885180.0274   22885180.3694   22885185.1844   -9406296.84047  -7305956.74547
      2356.3794       1836.1494         44.9004         42.3004
  21238230.5604   21238229.6794   21238233.4044  -19640303.61248 -14997784.98547
      2762.4274       2152.5414         48.1004         44.9004
  21492696.1014   21492695.8264   21492700.2864  -18360881.05848 -14272973.84947
      1539.4534       1199.5784         48.8004         45.8004
 10  1  3  0 30  0.0000000  0  7G22G18G28G15G17G 9G27
  24427921.5144   24427922.8324   24427924.7804    -528665.51746   -403578.27746
      2078.9134       1619.9314         38.5004         36.4004
  22881684.5664   22881685.3684   22881688.4384   -6951433.47447  -5402482.52846
       377.4114        294.0714         43.4004         40.4004
  22416776.1104   22416775.4934   22416778.2014  -11240524.28347  -8725544.49347
     -2346.7164      -1828.6134         46.3004         43.3004
  20646362.9334   20646363.2844   20646366.5734  -20102711.90148 -15645060.42448
     -1104.7074       -860.8114         51.2004         48.2004
  22871767.5114   22871766.9114   22871769.5924   -9476786.94847  -7360884.11046
      2342.9214       1825.6424         44.9004         41.9004
  21222489.9134   21222489.6834   21222493.6484  -19723019.34848 -15062238.80447
      2751.9484       2144.3764         48.1004         45.2004
  21483929.4084   21483929.8704   21483934.6174  -18406945.88048 -14308868.50147
      1531.5234       1193.3944         48.8004         45.8004
 10  1  3  0 30 30.0000000  0  7G22G18G28G15G17G 9G27
  24416095.9044   24416096.5904   24416097.6194    -590814.20146   -452005.84346
      2064.2654       1608.5154         38.9004         36.4004
  22879585.4534   22879585.3984   22879588.9824   -6962468.44647  -5411081.21246
       358.2744        279.1804         43.2004         40.4004
  22430201.4234   22430201.0204   22430204.4044  -11169968.78547  -8670566.19347
     -2356.9924      -1836.6164         46.3004         43.3004
  20652719.8854   20652719.5054   20652723.3544  -20069307.90648 -15619031.34248
     -1122.2244       -874.4594         51.0004         48.2004
  22858430.0784   22858429.9904   22858433.4764   -9546872.65847  -7415496.36846
      2329.4304       1815.1424         44.8004         41.8004
  21206809.9074   21206809.5034   21206812.4594  -19805420.01448 -15126447.09647
      2741.4384       2136.1914         48.1004         45.2004
  21475209.7574   21475209.3844   21475213.7894  -18452773.19648 -14344578.09347
      1523.6124       1187.2264         48.8004         45.8004
 10  1  3  0 31  0.0000000  0  7G22G18G28G15G17G 9G27
  24404356.3634   24404355.5034   24404356.4754    -652519.73246   -500088.02046
      2049.4684       1596.9844         39.2004         37.1004
  22877594.3394   22877595.1094   22877597.9014   -6972927.23347  -5419230.90146
       339.0204        264.1664         43.0004         40.2004
  22443686.3784   22443686.4604   22443689.1064  -11099106.85147  -8615349.10547
     -2367.1604      -1844.5504         46.3004         43.3004
  20659175.9304   20659176.2914   20659179.7364  -20035378.67248 -15592592.99748
     -1139.7124       -888.0884         51.0004         48.0004
  22845170.7244   22845171.1874   22845174.7184   -9616551.36347  -7469791.43047
      2315.7884       1804.5074         44.8004         42.1004
  21191189.7654   21191189.2744   21191192.7604  -19887504.01648 -15190408.64447
      2730.8394       2127.9254         48.2004         45.2004
  21466534.2324   21466534.4964   21466538.1194  -18498362.62748 -14380102.32747
      1515.6904       1181.0534         48.8004         45.8004
 10  1  3  0 31 30.0000000  0  7G22G18G28G15G17G 9G27
  24392694.7004   24392695.4054   24392699.4774    -713779.91046   -547823.19246
      2034.5184       1585.3394         38.9004         36.2004
  22875714.6514   22875713.4284   22875717.7874   -6982809.20847  -5426931.13146
       319.7824        249.1884         43.0004         40.4004
  22457228.6744   22457228.7324   22457231.1354  -11027940.21647  -8559894.57847
     -2377.2764      -1852.4264         46.2004         43.2004
  20665731.9894   20665732.4084   20665736.2094  -20000924.77248 -15565745.81848
     -1157.2014       -901.7104         50.8004         48.0004
  22831988.2204   22831988.3254   22831992.8594   -9685820.64047  -7523767.49247
      2302.1214       1793.8624         44.9004         42.1004
  21175629.8284   21175629.4394   21175633.0274  -19969269.76248 -15254122.21247
      2720.1994       2119.6364         48.2004         45.1004
  21457904.8104   21457904.2274   21457908.1804  -18543713.88348 -14415440.97547
      1507.7344       1174.8574         48.8004         45.8004
 10  1  3  0 32  0.0000000  0  8G22G18G28G15G17G 9G12G27
  24381124.9134   24381125.1394   24381126.3734    -774592.82946   -595209.79246
      2019.6124       1573.7254         39.0004         36.7004
  22873945.2404   22873944.4044   22873946.7254   -6992114.24447  -5434181.80846
       300.5534        234.1814         43.0004         40.0004
  22470828.7864   22470828.2474   22470831.6794  -10956471.13647  -8504204.38047
     -2387.3134      -1860.2404         46.0004         43.0004
  20672388.5764   20672389.0194   20672392.1574  -19965946.73148 -15538490.22048
     -1174.6674       -915.3234         50.8004         48.0004
  22818886.0384   22818885.6384   22818888.7754   -9754677.92847  -7577422.49747
      2288.3334       1783.1004         44.9004         42.1004
  21160131.9144   21160130.7194   21160135.1324  -20050715.44948 -15317586.36447
      2709.5034       2111.2904         48.1004         45.2004
  24832251.5094                                     -42968.55044     -6710.30243
      3793.6804       2956.0874         26.4004         23.4004
  21449319.7214   21449319.2264   21449323.4184  -18588826.31648 -14450593.52147
      1499.7654       1168.6544         48.6004         45.6004
 10  1  3  0 32 30.0000000  0  8G22G18G28G15G17G 9G12G27
  24369637.4264   24369637.8224   24369640.1754    -834956.44846   -642246.39746
      2004.5554       1561.9894         39.6004         37.3004
  22872282.9264   22872282.3344   22872285.9464   -7000842.49747  -5440983.06746
       281.2584        219.1814         42.9004         40.0004
  22484485.7204   22484485.2134   22484488.9444  -10884701.44247  -8448279.93547
     -2397.2984      -1868.0204         46.0004         43.0004
  20679144.6804   20679144.4664   20679147.8764  -19930445.03948 -15510826.57948
     -1192.1174       -928.9184         50.8004         48.0004
  22805862.6134   22805862.3064   22805865.5874   -9823120.56947  -7630754.43547
      2274.4934       1772.3294         44.9004         42.3004
  21144692.6584   21144692.7734   21144697.4044  -20131839.83548 -15380800.15547
      2698.7794       2102.9434         48.1004         45.2004
  24810602.4904                                    -156732.49344    -95357.78845
      3790.7034       2953.7994         26.4004         33.4004
  21440780.2234   21440780.2324   21440784.5754  -18633699.44748 -14485559.60147
      1491.7544       1162.4024         48.6004         45.6004
 10  1  3  0 33  0.0000000  0  8G22G18G28G15G17G 9G12G27
  24358235.3464   24358234.9434   24358239.3104    -894869.01146   -688931.48146
      1989.6064       1550.3414         39.2004         36.7004
  22870732.6844   22870730.9264   22870734.8744   -7008993.37247  -5447334.38946
       262.0434        204.2074         42.7004         39.9004
  22498199.9184   22498199.5514   22498203.4984  -10812632.83247  -8392122.58547
     -2407.2574      -1875.7874         45.6004         42.8004
  20685998.9834   20685999.5604   20686003.2464  -19894420.36348 -15482755.40847
     -1209.5564       -942.5094         50.8004         47.8004
  22792917.6624   22792916.7214   22792920.7944   -9891146.07547  -7683761.29947
      2260.5164       1761.4444         45.1004         42.1004
  21129317.9284   21129317.7744   21129321.4324  -20212641.27848 -15443762.31647
      2687.9934       2094.5344         48.2004         45.4004
  24788971.5474                                    -270405.62844   -183934.24645
      3787.5334       2951.3184         26.4004         35.5004
  21432287.0544   21432286.9234   21432290.7494  -18678332.70848 -14520338.77147
      1483.7694       1156.1854         48.6004         45.8004
 10  1  3  0 33 30.0000000  0  8G22G18G28G15G17G 9G12G27
  24346922.4914   24346922.5034   24346923.3814    -954328.50546   -735263.53046
      1974.3624       1538.4634         39.4004         36.9004
  22869290.3264   22869289.8644   22869293.7994   -7016566.78747  -5453235.75546
       242.8274        189.2274         42.5004         39.7004
  22511971.5804   22511970.7564   22511974.3094  -10740267.51047  -8335734.01747
     -2417.1084      -1883.4654         45.8004         43.0004
  20692954.2574   20692954.5274   20692957.5794  -19857873.20748 -15454277.11247
     -1226.9394       -956.0584         50.7004         47.8004
  22780050.9614   22780051.6694   22780055.5844   -9958752.18747  -7736441.37547
      2246.4914       1750.5224         44.9004         42.3004
  21114002.9754   21114003.1624   21114006.8804  -20293118.39548 -15506471.74847
      2677.1374       2086.0794         48.4004         45.4004
  24767356.4354                   24767361.7354    -383986.13245   -272438.55545
      3784.3004       2948.8104         35.4004         35.3004
  21423839.1524   21423839.2864   21423843.2904  -18722725.65148 -14554930.68247
      1475.7364       1149.9244         48.8004         45.8004
 10  1  3  0 34  0.0000000  0  8G22G18G28G15G17G 9G12G27
  24335695.8674   24335694.3094   24335696.4134   -1013332.87546   -781240.96646
      1959.2354       1526.6734         39.2004         36.6004
  22867959.1994   22867959.3814   22867961.5764   -7023562.66647  -5458687.09646
       223.5634        174.1944         42.3004         39.5004
  22525797.5584   22525796.9684   22525800.6254  -10667607.41847  -8279115.76447
     -2426.9044      -1891.0754         45.6004         42.5004
  20700008.2644   20700008.5754   20700011.8894  -19820804.04248 -15425392.07247
     -1244.3464       -969.6174         50.7004         47.8004
  22767268.2294   22767267.6174   22767271.1594  -10025935.79247  -7788792.22247
      2232.3974       1739.5234         45.3004         42.5004
  21098751.9544   21098751.1114   21098754.7664  -20373269.14948 -15568926.87747
      2666.2324       2077.5794         48.4004         45.4004
  24745763.5464   24745761.7284   24745765.4844    -497472.39946   -360869.41145
      3781.2784       2946.4524         37.3004         35.5004
  21415437.8714   21415437.1404   21415441.6234  -18766877.67148 -14589334.86247
      1467.7234       1143.6744         48.8004         45.8004
 10  1  3  0 34 30.0000000  0  8G22G18G28G15G17G 9G12G27
  24324552.2284   24324550.0504   24324553.5294   -1071880.24946   -826862.25045
      1944.0134       1514.8154         37.6004         35.0004
  22866738.2804   22866737.9864   22866740.2044   -7029981.10447  -5463688.46346
       204.2894        159.1904         42.2004         39.7004
  22539679.0684   22539679.5414   22539683.2544  -10594654.22247  -8222269.11147
     -2436.6224      -1898.6724         45.5004         42.6004
  20707161.2034   20707161.3524   20707165.0654  -19783213.89548 -15396101.05147
     -1261.6734       -983.1234         50.7004         47.8004
  22754562.5214   22754562.5944   22754566.4304  -10092694.63347  -7840812.08447
      2218.1724       1728.4404         44.9004         42.1004
  21083562.1944   21083561.3924   21083565.0784  -20453092.17048 -15631126.62947
      2655.2844       2069.0514         48.4004         45.4004
  24724185.5434   24724184.2524   24724187.9324    -610862.50146   -449225.35546
      3778.0774       2943.9574         38.3004         36.4004
  21407081.0714   21407081.2024   21407086.0004  -18810788.41648 -14623551.03747
      1459.6764       1137.4084         48.8004         45.9004
 10  1  3  0 35  0.0000000  0  8G22G18G28G15G17G 9G12G27
  24313497.9304   24313497.6354   24313500.4734   -1129969.18246   -872126.29445
      1928.6524       1502.8444         37.3004         35.2004
  22865626.7094   22865625.6604   22865629.9334   -7035821.74347  -5468239.60746
       185.0164        144.1694         42.3004         40.0004
  22553618.4944   22553617.7884   22553621.3254  -10521410.05147  -8165195.74247
     -2446.3124      -1906.2224         45.6004         43.0004
  20714413.8724   20714413.8524   20714417.5904  -19745102.80448 -15366404.11247
     -1279.0584       -996.6644         50.7004         47.8004
  22741941.6304   22741940.8824   22741944.0664  -10159026.42147  -7892499.16047
      2203.8874       1717.3244         45.1004         42.3004
  21068433.9554   21068434.1394   21068437.6964  -20532586.16848 -15693070.00347
      2644.2724       2060.4804         48.4004         45.4004
  24702624.3014   24702626.1274   24702629.4284    -724154.76646   -537505.07346
      3774.7414       2941.3534         38.9004         36.7004
  21398771.7884   21398771.5694   21398776.0514  -18854457.40948 -14657578.81747
      1451.5814       1131.1014         48.9004         45.9004
 10  1  3  0 35 30.0000000  0  8G22G18G28G15G17G 9G12G27
  24302534.8504   24302532.7814   24302532.2264   -1187596.96146   -917031.10145
      1913.2244       1490.8234         37.6004         35.5004
  22864626.4774   22864624.8204   22864628.3234   -7041084.87647  -5472340.73846
       165.7864        129.1974         42.7004         40.2004
  22567611.3014   22567610.7474   22567613.5574  -10447877.04447  -8107897.29147
     -2455.8974      -1913.7034         45.8004         42.8004
  20721765.0924   20721765.3504   20721768.3554  -19706471.31848 -15336301.67147
     -1296.3714      -1010.1594         50.7004         47.7004
  22729398.8104   22729399.8494   22729403.2884  -10224928.14247  -7943851.14547
      2189.5244       1706.1214         44.9004         42.1004
  21053370.9374   21053369.6104   21053373.2374  -20611749.36048 -15754755.60047
      2633.2544       2051.8814         48.6004         45.4004
  24681085.4224   24681086.7594   24681090.9014    -837347.11046   -625706.93446
      3771.3684       2938.7334         39.4004         37.3004
  21390508.1034   21390507.8134   21390511.8914  -18897883.93548 -14691417.67147
      1443.5034       1124.8104         48.9004         45.9004
 10  1  3  0 36  0.0000000  0  8G22G18G28G15G17G 9G12G27
  24291654.0024   24291653.9334   24291656.3684   -1244762.62946   -961575.73846
      1897.7344       1478.7544         38.3004         36.6004
  22863732.9994   22863733.0984   22863735.6494   -7045770.57347  -5475991.92946
       146.5124        114.1584         42.9004         40.0004
  22581657.8584   22581657.3984   22581660.1614  -10374056.92247  -8050375.11747
     -2465.4454      -1921.1204         45.6004         42.5004
  20729214.9214   20729215.3894   20729218.6034  -19667320.50248 -15305794.56647
     -1313.6814      -1023.6444         50.7004         47.7004
  22716941.5794   22716941.7754   22716944.3774  -10290397.77847  -7994866.44047
      2175.1104       1694.8934         45.1004         42.5004
  21038368.6714   21038368.5584   21038372.9504  -20690580.10548 -15816182.16647
      2622.1224       2043.2164         48.6004         45.8004
  24659567.1824   24659565.4744   24659570.1904    -950437.78346   -713829.53846
      3767.9614       2936.0744         39.6004         37.3004
  21382290.9004   21382290.4614   21382294.1054  -18941067.68148 -14725067.34447
      1435.4044       1118.5004         48.9004         45.9004
 10  1  3  0 36 30.0000000  0  8G22G18G28G15G17G 9G12G27
  24280864.3964   24280864.5824   24280867.1964   -1301463.96246  -1005758.60146
      1882.2394       1466.6814         39.2004         36.9004
  22862952.3224   22862951.4524   22862954.2394   -7049878.54247  -5479192.94746
       127.3024         99.1844         42.5004         39.7004
  22595760.4374   22595760.0864   22595762.9724  -10299951.57347  -7992630.69447
     -2474.9144      -1928.5114         45.5004         42.5004
  20736764.2374   20736764.3784   20736768.1344  -19627650.83048 -15274883.14147
     -1330.9664      -1037.1174         50.7004         47.8004
  22704565.8974   22704566.2004   22704570.0444  -10355432.66947  -8045542.97047
      2160.5264       1683.5314         45.3004         42.6004
  21023431.5814   21023431.8154   21023436.0384  -20769076.76948 -15877348.39247
      2610.9684       2034.5164         48.8004         45.9004
  24638066.9064   24638065.7114   24638067.9174   -1063425.18746   -801871.63046
      3764.4414       2933.3284         39.0004         36.7004
  21374119.6374   21374118.8524   21374123.1654  -18984008.19348 -14758527.48247
      1427.2764       1112.1634         48.9004         45.9004
 10  1  3  0 37  0.0000000  0  8G22G18G28G15G17G 9G12G27
  24270163.3384   24270162.7594   24270165.3074   -1357699.37846  -1049578.41846
      1866.7304       1454.5964         38.7004         36.0004
  22862279.7304   22862279.0034   22862282.4444   -7053409.02547  -5481943.94346
       108.0784         84.2204         42.3004         39.7004
  22609916.7334   22609915.9244   22609918.3634  -10225562.97747  -7934665.55947
     -2484.3034      -1935.8314         45.3004         42.5004
  20744411.4324   20744412.0364   20744415.5224  -19587463.14348 -15243568.07747
     -1348.2244      -1050.5654         50.7004         47.7004
  22692273.1644   22692273.8464   22692276.0314  -10420030.42047  -8095878.88447
      2145.9754       1672.1904         45.5004         42.6004
  21008558.1324   21008557.8884   21008561.7834  -20847237.71348 -15938253.03547
      2599.7464       2025.7784         48.9004         45.9004
  24616584.7754   24616584.0764   24616586.9394   -1176307.40846   -889831.81046
      3760.9964       2930.6434         38.9004         36.4004
  21365994.7604   21365994.0844   21365997.9264  -19026704.85048 -14791797.60647
      1419.1544       1105.8294         48.9004         45.9004
 10  1  3  0 37 30.0000000  0  8G22G18G28G15G17G 9G12G27
  24259551.0504   24259550.6974   24259552.0354   -1413466.81346  -1093033.51145
      1851.1574       1442.4614         38.0004         35.7004
  22861717.8944   22861717.4984   22861720.7844   -7056362.07447  -5484245.00546
        88.8374         69.2244         42.3004         40.2004
  22624126.0474   22624124.9974   22624128.3954  -10150893.21047  -7876481.32047
     -2493.6534      -1943.1014         45.3004         42.5004
  20752157.6234   20752157.8644   20752161.2714  -19546758.59248 -15211850.25247
     -1365.4164      -1063.9584         50.7004         47.7004
  22680065.3234   22680064.7744   22680068.1414  -10484188.76147  -8145872.38747
      2131.2654       1660.7344         45.6004         42.6004
  20993748.3124   20993748.5444   20993752.1014  -20925061.66648 -15998895.07147
      2588.4884       2017.0034         48.9004         45.8004
  24595124.0884   24595123.8104   24595126.8564   -1289082.64346   -977708.62946
      3757.3984       2927.8424         39.0004         36.7004
  21357915.7884   21357915.5104   21357919.3174  -19069157.26248 -14824877.41047
      1411.0084       1099.4894         48.9004         45.9004
 10  1  3  0 38  0.0000000  0  8G22G18G28G15G17G 9G12G27
  24249029.1674   24249029.3424   24249030.2864   -1468764.42946  -1136122.59845
      1835.4134       1430.2014         37.8004         35.5004
  22861266.1834   22861265.7834   22861268.6244   -7058737.71247  -5486096.13246
        69.5234         54.1534         42.9004         40.4004
  22638386.0784   22638386.5714   22638390.6064  -10075944.34147  -7818079.63647
     -2502.9274      -1950.3134         45.3004         42.5004
  20760001.2454   20760001.9014   20760005.1424  -19505537.31648 -15179729.79347
     -1382.6474      -1077.3854         50.7004         47.7004
  22667940.4914   22667939.8644   22667943.0964  -10547904.91447  -8195521.32347
      2116.4714       1649.1954         45.6004         42.6004
  20979004.1814   20979004.0054   20979007.2084  -21002546.72948 -16059273.05547
      2577.1704       2008.1914         48.8004         45.8004
  24573683.9214   24573683.0094   24573687.8654   -1401749.13246  -1065500.65246
      3753.7014       2924.9604         39.2004         36.9004
  21349883.3484   21349883.3294   21349887.6774  -19111364.86548 -14857766.44147
      1402.8354       1093.1164         48.9004         45.9004
 10  1  3  0 38 30.0000000  0  8G22G18G28G15G17G 9G12G27
  24238596.2894   24238597.5844   24238595.1654   -1523590.98246  -1178844.61645
      1819.7204       1417.9684         37.1004         35.0004
  22860923.7564   22860923.7644   22860926.0834   -7060536.13347  -5487497.50546
        50.3344         39.2364         43.2004         40.4004
  22652702.6534   22652701.8484   22652705.7804  -10000718.06747  -7759461.77147
     -2512.1684      -1957.5384         45.5004         42.6004
  20767944.3204   20767944.3984   20767947.6514  -19463800.05648 -15147207.25847
     -1399.8334      -1090.7794         50.5004         47.7004
  22655899.9744   22655900.0074   22655902.9184  -10611176.77747  -8244824.05547
      2101.6174       1637.6184         45.6004         43.0004
  20964323.9284   20964323.5224   20964326.9204  -21079691.57348 -16119385.91847
      2565.7984       1999.3204         48.8004         45.8004
  24552263.6004   24552265.4864   24552269.1584   -1514305.14446  -1153206.61746
      3749.9714       2922.0564         39.4004         36.9004
  21341898.5764   21341898.3294   21341902.8714  -19153327.31348 -14890464.44947
      1394.6354       1086.7204         48.9004         46.1004
 10  1  3  0 39  0.0000000  0  8G22G18G28G15G17G 9G12G27
  24228254.8434   24228251.2104   24228253.7344   -1577944.15046  -1221197.64245
      1803.8404       1405.5824         36.6004         34.8004
  22860691.6714   22860692.0024   22860694.2844   -7061757.35947  -5488449.11246
        31.1004         24.2634         43.2004         40.6004
  22667070.4404   22667068.8954   22667073.0924   -9925216.20147  -7700629.16547
     -2521.2974      -1964.6504         45.5004         42.5004
  20775984.9214   20775985.1464   20775988.1234  -19421547.57248 -15114283.25747
     -1416.9914      -1104.1494         50.7004         47.8004
  22643943.2224   22643943.9104   22643948.3914  -10674001.63647  -8293778.47747
      2086.6614       1625.9824         45.8004         42.8004
  20949708.3894   20949707.9694   20949711.7404  -21156494.39548 -16179232.27947
      2554.3734       1990.4244         48.8004         45.6004
  24530869.6034   24530869.5594   24530872.3544   -1626748.49546  -1240824.81746
      3746.2404       2919.1474         39.4004         37.1004
  21333960.1084   21333960.0244   21333963.8334  -19195043.78348 -14922970.78047
      1386.4474       1080.3544         48.9004         45.9004
 10  1  3  0 39 30.0000000  0  8G22G18G28G15G17G 9G12G27
  24217997.9744   24217998.3174   24218002.1014   -1631822.35946  -1263180.69945
      1788.0314       1393.2694         36.4004         34.5004
  22860569.0934   22860568.9734   22860571.2744   -7062401.51747  -5488951.05846
        11.8654          9.2404         43.0004         40.2004
  22681490.2554   22681489.9684   22681492.4854   -9849441.05147  -7641583.60747
     -2530.3854      -1971.7264         45.5004         42.6004
  20784123.3004   20784123.0294   20784126.2664  -19378780.94448 -15080958.62647
     -1434.1114      -1117.4934         50.7004         47.5004
  22632074.9404   22632075.6654   22632078.0574  -10736377.42947  -8342382.98147
      2071.6734       1614.2904         45.6004         42.6004
  20935159.5424   20935158.4844   20935162.2574  -21232953.73148 -16238810.98447
      2542.8884       1981.4754         48.8004         45.6004
  24509494.3294   24509493.2054   24509496.4004   -1739078.00546  -1328354.28546
      3742.4234       2916.1794         39.4004         37.1004
  21326068.7244   21326068.6674   21326072.5754  -19236513.90848 -14955285.15947
      1378.2234       1073.9374         48.9004         45.9004
 10  1  3  0 40  0.0000000  0  8G22G18G28G15G17G 9G12G27
  24207841.6644   24207836.2274   24207840.7074   -1685223.85445  -1304792.31545
      1771.9794       1380.7614         35.4004         32.9004
  22860555.4644   22860555.7244   22860558.7424   -7062468.67447  -5489003.39046
        -7.3824         -5.7494         43.2004         40.2004
  22695961.6364   22695960.7644   22695963.4724   -9773394.26047  -7582326.36847
     -2539.3874      -1978.7534         45.5004         42.5004
  20792359.2394   20792359.0214   20792361.8194  -19335500.51648 -15047233.62747
     -1451.2134      -1130.8174         50.5004         47.5004
  22620290.9024   22620290.6864   22620293.9574  -10798301.48247  -8390635.48047
      2056.5464       1602.4944         45.5004         42.6004
  20920674.4704   20920674.4734   20920678.0114  -21309067.90448 -16298120.72747
      2531.3544       1972.4784         48.8004         45.8004
  24488138.8304   24488139.5774   24488141.8264   -1851291.45646  -1415793.27846
      3738.4894       2913.1034         39.6004         37.1004
  21318224.0824   21318224.0104   21318228.4204  -19277737.17248 -14987407.18647
      1369.9884       1067.5264         48.9004         45.9004
 10  1  3  0 40 30.0000000  0  8G22G18G28G15G17G 9G12G27
  24197764.4494   24197765.2844   24197769.1544   -1738146.70845  -1346030.94045
      1756.1464       1368.4304         34.2004         32.7004
  22860653.4884   22860652.4854   22860655.1314   -7061959.29747  -5488606.47946
       -26.5814        -20.7214         43.2004         40.4004
  22710483.3744   22710483.1204   22710486.3994   -9697077.99747  -7522859.16947
     -2548.3744      -1985.7634         45.5004         42.5004
  20800691.9914   20800692.4104   20800696.0124  -19291707.48548 -15013109.19047
     -1468.3044      -1144.1354         50.3004         47.5004
  22608592.5034   22608593.9094   22608596.1844  -10859771.57547  -8438534.24847
      2041.3994       1590.6904         45.6004         42.8004
  20906256.5614   20906256.4004   20906259.8714  -21384835.59848 -16357160.48847
      2519.8004       1963.4784         48.8004         45.9004
  24466806.4684   24466807.2564   24466809.1924   -1963387.27246  -1503140.65646
      3734.5454       2910.0404         39.4004         36.9004
  21310427.0324   21310426.6884   21310430.7244  -19318713.16148 -15019336.52747
      1361.7464       1061.0984         48.9004         46.1004
 10  1  3  0 41  0.0000000  0  8G22G18G28G15G17G 9G12G27
  24187785.7644   24187787.1594   24187789.3064   -1790589.88445  -1386895.68045
      1740.0444       1355.8754         35.7004         34.5004
  22860858.8484   22860859.3574   22860861.3604   -7060873.62647  -5487760.50246
       -45.7994        -35.6914         42.9004         40.2004
  22725056.5864   22725056.1914   22725059.8084   -9620494.23147  -7463183.52947
     -2557.2244      -1992.6424         45.3004         42.3004
  20809123.7854   20809123.3074   20809126.7514  -19247402.66648 -14978585.96347
     -1485.3334      -1157.4024         50.3004         47.3004
  22596982.9294   22596983.0084   22596986.8234  -10920785.47247  -8486077.51347
      2026.1364       1578.8064         46.0004         43.2004
  20891904.9444   20891904.2984   20891908.1734  -21460255.08648 -16415928.92947
      2508.1624       1954.4124         48.9004         45.9004
  24445496.0884   24445497.5094   24445502.5324   -2075363.62946  -1590394.91646
      3730.5164       2906.8964         39.4004         36.7004
  21302677.1144   21302676.5904   21302680.1744  -19359441.17748 -15051072.64147
      1353.4584       1054.6444         49.1004         46.1004
 10  1  3  0 41 30.0000000  0  8G22G18G28G15G17G 9G12G27
  24177896.6604   24177897.8404   24177900.0464   -1842551.06946  -1427384.87345
      1724.0564       1343.4234         36.4004         35.0004
  22861176.0424   22861175.5234   22861178.3354   -7059211.80847  -5486465.59646
       -64.9824        -50.6304         42.9004         40.0004
  22739680.2634   22739679.2774   22739684.0254   -9543644.84847  -7403300.89247
     -2566.0644      -1999.5384         45.1004         42.3004
  20817651.1314   20817651.5464   20817654.8274  -19202586.64248 -14943664.39247
     -1502.3754      -1170.6754         50.3004         47.3004
  22585459.0124   22585459.9074   22585463.7064  -10981340.69147  -8533263.39747
      2010.8084       1566.8654         46.0004         43.2004
  20877619.3534   20877619.0974   20877623.4444  -21535324.86348 -16474424.84947
      2496.4714       1945.3014         48.9004         45.9004
  24424215.6214   24424214.1894   24424218.7474   -2187218.80646  -1677554.75446
      3726.4524       2903.7214         39.6004         37.3004
  21294973.1534   21294973.3574   21294977.5914  -19399920.76948 -15082615.18047
      1345.1724       1048.1864         49.1004         46.1004
 10  1  3  0 42  0.0000000  0  8G22G18G28G15G17G 9G12G27
  24168102.3964   24168101.1734   24168105.7534   -1894029.04046  -1467497.63845
      1707.8374       1330.7814         37.1004         34.8004
  22861603.3184   22861602.1924   22861604.3374   -7056974.30147  -5484722.08546
       -84.2234        -65.6314         42.7004         40.0004
  22754354.4584   22754354.1144   22754358.4824   -9466531.53147  -7343212.61747
     -2574.7924      -2006.3254         45.3004         42.3004
  20826276.2314   20826276.7904   20826280.0584  -19157260.41748 -14908345.27647
     -1519.3654      -1183.9144         50.3004         47.3004
  22574025.4044   22574024.4724   22574026.7414  -11041435.00147  -8580090.11047
      1995.4374       1554.9024         46.2004         43.2004
  20863400.2834   20863400.4654   20863404.8734  -21610043.03148 -16532646.79247
      2484.7484       1936.1684         48.9004         45.9004
  24402952.3684   24402952.3584   24402957.6694   -2298950.84746  -1764618.67746
      3722.3204       2900.5064         40.1004         37.9004
  21287317.8144   21287317.3904   21287322.0524  -19440151.38048 -15113963.70147
      1336.8374       1041.6954         49.1004         46.1004
 10  1  3  0 42 30.0000000  0  8G22G18G28G15G17G 9G12G27
  24158401.4314   24158399.6614   24158401.0294   -1945022.13446  -1507232.48745
      1691.7224       1318.2344         36.4004         34.3004
  22862136.9574   22862136.7724   22862139.1844   -7054161.44447  -5482530.26146
      -103.3264        -80.5414         42.5004         39.9004
  22769078.3014   22769078.1254   22769082.0444   -9389156.54647  -7282920.44946
     -2583.5334      -2013.1334         45.1004         41.9004
  20834999.2854   20834999.0314   20835002.2094  -19111424.91248 -14872629.30247
     -1536.3494      -1197.1594         50.3004         47.3004
  22562677.4294   22562677.2884   22562680.2154  -11101066.02247  -8626555.84547
      1979.9464       1542.8054         46.2004         43.3004
  20849249.4224   20849249.1694   20849253.3014  -21684408.37748 -16590593.80647
      2472.9644       1926.9854         48.9004         45.8004
  24381715.8174   24381716.0034   24381716.3904   -2410558.05446  -1851585.31446
      3718.1454       2897.2604         40.4004         37.9004
  21279710.0164   21279709.5454   21279713.5984  -19480132.63748 -15145117.91947
      1328.5394       1035.2194         49.1004         46.3004
 10  1  3  0 43  0.0000000  0  8G22G18G28G15G17G 9G12G27
  24148792.0864   24148789.9354   24148789.8354   -1995528.21646  -1546587.95045
      1675.4584       1305.5474         36.1004         34.0004
  22862782.8234   22862781.3904   22862783.3104   -7050773.21447  -5479890.10046
      -122.5484        -95.5094         42.5004         39.7004
  22783852.6754   22783852.1124   22783854.6004   -9311521.47247  -7222425.59846
     -2592.1784      -2019.8824         44.8004         41.8004
  20843817.6134   20843818.0174   20843821.8424  -19065080.91948 -14836517.10147
     -1553.2534      -1210.3304         50.3004         47.3004
  22551416.5424   22551417.4114   22551421.0454  -11160231.75647  -8672659.00547
      1964.4064       1530.7084         46.2004         43.0004
  20835165.9504   20835165.4694   20835169.1764  -21758419.15748 -16648264.53647
      2461.0934       1917.7314         48.9004         45.8004
  24360501.3844   24360500.4684   24360502.1454   -2522038.78046  -1938453.39446
      3713.8604       2893.9164         40.1004         37.4004
  21272149.0834   21272149.0074   21272152.7954  -19519864.00348 -15176077.42247
      1320.1954       1028.7294         49.1004         46.3004
 10  1  3  0 43 30.0000000  0  8G22G18G28G15G17G 9G12G27
  24139269.7654   24139269.7484   24139272.9504   -2045546.15446  -1585563.01545
      1659.1714       1292.8634         36.4004         34.6004
  22863536.6494   22863536.4154   22863538.5414   -7046809.77247  -5476801.71846
      -141.6814       -110.3704         42.3004         39.5004
  22798674.1414   22798673.9634   22798677.2284   -9233628.54647  -7161729.82246
     -2600.7024      -2026.5234         44.6004         41.8004
  20852733.6344   20852733.7394   20852736.9604  -19018229.52648 -14800009.54147
     -1570.1814      -1223.5154         50.2004         47.3004
  22540248.0654   22540247.8454   22540251.1244  -11218929.58447  -8718397.55347
      1948.7804       1518.5214         46.2004         43.3004
  20821149.0104   20821149.1024   20821153.4544  -21832073.83248 -16705657.77247
      2449.2094       1908.4774         48.9004         45.9004
  24339311.1374   24339311.1154   24339312.7244   -2633391.05046  -2025221.36546
      3709.5754       2890.5724         39.9004         37.4004
  21264636.2904   21264636.0394   21264639.7684  -19559345.00348 -15206841.84147
      1311.8504       1022.2214         49.3004         46.3004
 10  1  3  0 44  0.0000000  0  8G22G18G28G15G17G 9G12G27
  24129848.4634   24129847.7724   24129846.5814   -2095074.37546  -1624156.38645
      1642.7594       1280.0774         36.6004         34.8004
  22864398.6254   22864398.3304   22864401.1224   -7042272.30647  -5473266.00246
      -160.8114       -125.3024         42.3004         39.7004
  22813546.0984   22813545.3924   22813549.5984   -9155479.51947  -7100834.49546
     -2609.1864      -2033.1234         44.4004         41.6004
  20861745.5374   20861745.3664   20861748.4074  -18970871.52348 -14763107.21547
     -1587.0304      -1236.6474         50.2004         47.2004
  22529167.4754   22529167.5744   22529171.4504  -11277157.67347  -8763770.09447
      1933.0814       1506.2934         46.3004         43.3004
  20807202.6564   20807201.8284   20807205.4534  -21905370.71948 -16762772.22147
      2437.2544       1899.1594         48.9004         45.9004
  24318147.8684   24318147.5744   24318148.6354   -2744613.23446  -2111887.99046
      3705.2324       2887.1944         39.9004         37.8004
  21257170.8424   21257170.7094   21257175.0084  -19598575.06048 -15237410.71347
      1303.4734       1015.6894         49.1004         46.3004
 10  1  3  0 44 30.0000000  0  8G22G18G28G15G17G 9G12G27
  24120513.5784   24120515.7844   24120515.2024   -2144110.79746  -1662366.63145
      1626.3194       1267.2564         37.6004         35.9004
  22865371.7064   22865371.3654   22865374.5534   -7037160.62847  -5469282.90646
      -179.9604       -140.2234         42.3004         39.5004
  22828465.2204   22828465.2294   22828468.7024   -9077076.54547  -7039741.28546
     -2617.6614      -2039.7304         44.6004         41.8004
  20870853.2564   20870853.4704   20870857.1184  -18923007.79948 -14725810.81847
     -1603.8874      -1249.7804         50.0004         47.0004
  22518176.8064   22518176.9054   22518180.5314  -11334913.05247  -8808774.29647
      1917.2984       1494.0064         46.3004         43.3004
  20793320.9724   20793321.7434   20793325.9724  -21978308.20048 -16819606.61947
      2425.2654       1889.8164         48.9004         45.9004
  24297006.3874   24297006.5504   24297009.6504   -2855703.49146  -2198451.82046
      3700.7134       2883.6684         40.4004         38.1004
  21249753.4074   21249753.3774   21249757.4654  -19637553.60248 -15267783.60147
      1295.0794       1009.1524         49.3004         46.3004
 10  1  3  0 45  0.0000000  0  8G22G18G28G15G17G 9G12G27
  24111276.5994   24111275.3044   24111280.4424   -2192654.43346  -1700192.82645
      1609.8464       1254.4294         38.0004         35.7004
  22866454.3874   22866454.1054   22866455.9694   -7031475.23147  -5464852.74846
      -199.0834       -155.1274         42.2004         39.3004
  22843432.9634   22843432.9594   22843436.6294   -8998421.54047  -6978451.68346
     -2625.9904      -2046.2344         44.8004         41.8004
  20880057.8054   20880057.9264   20880061.5544  -18874639.73848 -14688121.43447
     -1620.6794      -1262.8634         50.2004         47.2004
  22507278.7274   22507277.7774   22507280.9704  -11392194.00147  -8853408.79347
      1901.4114       1481.6184         46.3004         43.5004
  20779511.8214   20779511.3144   20779515.0784  -22050884.82248 -16876159.82147
      2413.1974       1880.4134         49.1004         45.9004
  24275890.9304   24275890.7954   24275893.6984   -2966660.10146  -2284911.51946
      3696.3004       2880.2274         40.3004         37.6004
  21242385.0534   21242384.0324   21242387.9764  -19676280.10848 -15297960.10247
      1286.6644       1002.5964         49.3004         46.3004
 10  1  3  0 45 30.0000000  0  8G22G18G28G15G17G 9G12G27
  24102135.9234   24102133.7164   24102134.3804   -2240703.11146  -1737633.37545
      1593.3454       1241.5684         37.8004         35.5004
  22867645.1014   22867643.9224   22867647.4944   -7025216.44847  -5459975.77146
      -218.1814       -170.0234         42.0004         39.3004
  22858447.8204   22858447.5104   22858451.5784   -8919516.15747  -6916966.97246
     -2634.3004      -2052.7114         44.4004         41.4004
  20889357.2954   20889357.4054   20889361.2604  -18825767.77348 -14650039.38347
     -1637.4554      -1275.9434         50.0004         47.0004
  22496466.8294   22496467.0394   22496470.8474  -11448998.34047  -8897671.92847
      1885.4924       1469.2094         46.3004         43.5004
  20765769.8504   20765769.5914   20765773.1904  -22123098.94648 -16932430.55647
      2401.0814       1870.9794         49.1004         46.1004
  24254805.7654   24254803.7794   24254806.3344   -3077481.31046  -2371265.69946
      3691.7594       2876.6934         40.4004         38.1004
  21235062.5344   21235062.9194   21235066.3994  -19714753.96248 -15327939.72447
      1278.2444        996.0384         49.3004         46.3004
 10  1  3  0 46  0.0000000  0  8G22G18G28G15G17G 9G12G27
  24093080.6254   24093081.7144   24093085.6334   -2288255.79146  -1774687.44645
      1576.7714       1228.6554         37.3004         35.2004
  22868945.6294   22868944.7044   22868948.2954   -7018385.19847  -5454652.73946
      -237.2784       -184.8934         42.2004         39.3004
  22873509.5974   22873509.3814   22873512.2364   -8840362.68047  -6855288.96446
     -2642.5404      -2059.1334         44.1004         40.7004
  20898753.0214   20898753.4554   20898756.6674  -18776393.07448 -14611565.60647
     -1654.1784      -1288.9724         49.8004         46.8004
  22485749.3164   22485749.5514   22485752.4854  -11505323.57747  -8941561.74547
      1869.5014       1456.7554         46.5004         43.7004
  20752096.1344   20752096.3474   20752100.9904  -22194949.15248 -16988417.71247
      2388.9134       1861.4944         49.1004         46.1004
  24233740.9834   24233740.3234   24233744.1134   -3188165.15046  -2457512.81346
      3687.1034       2873.0624         40.4004         37.8004
  21227790.0744   21227789.5094   21227793.6954  -19752974.76848 -15357722.17147
      1269.7924        989.4474         49.3004         46.3004
 10  1  3  0 46 30.0000000  0  8G22G18G28G15G17G 9G12G27
  24084130.0294   24084130.6554   24084132.3464   -2335311.00246  -1811353.91945
      1560.2374       1215.7724         37.8004         35.9004
  22870352.3904   22870353.3874   22870356.9724   -7010981.73446  -5448883.81346
      -256.3164       -199.6994         41.8004         39.0004
  22888619.0344   22888619.4144   22888622.4954   -8760962.79547  -6793418.92446
     -2650.7594      -2065.5284         43.9004         41.2004
  20908244.8154   20908245.4324   20908248.0194  -18726516.69748 -14572700.92047
     -1670.9114      -1302.0084         50.0004         47.0004
  22475123.3864   22475122.9154   22475125.9844  -11561167.70947  -8985076.65547
      1853.4344       1444.2284         46.7004         43.7004
  20738493.5464   20738493.2194   20738497.6654  -22266433.66548 -17044119.91347
      2376.7064       1851.9814         49.1004         46.1004
  24212705.5014   24212704.9064   24212706.2434   -3298710.09746  -2543651.72046
      3682.5034       2869.4834         40.8004         38.5004
  21220564.9354   21220564.3024   21220568.5794  -19790942.09548 -15387307.09447
      1261.3404        982.8594         49.3004         46.1004
 10  1  3  0 47  0.0000000  0  8G22G18G28G15G17G 9G12G27
  24075269.6044   24075269.6264   24075272.0834   -2381866.84446  -1847631.15846
      1543.5394       1202.7584         38.3004         36.2004
  22871871.7714   22871871.2714   22871873.7424   -7003006.21247  -5442669.12446
      -275.3874       -214.5784         42.0004         39.3004
  22903777.1564   22903776.4794   22903778.6364   -8681317.76147  -6731357.87446
     -2658.8724      -2071.8444         44.1004         41.4004
  20917830.9354   20917831.1074   20917834.9274  -18676139.65548 -14533446.10347
     -1687.5834      -1315.0024         50.0004         47.0004
  22464587.5354   22464588.2734   22464590.7564  -11616528.68647  -9028215.07047
      1837.2714       1431.6324         46.7004         43.9004
  20724960.0794   20724960.1524   20724964.1814  -22337551.01648 -17099536.01747
      2364.4484       1842.4244         49.1004         46.1004
  24191695.0754   24191693.6784   24191697.6644   -3409114.42746  -2629681.07046
      3677.7614       2865.7984         40.8004         37.9004
  21213388.0384   21213387.7554   21213392.0084  -19828655.27448 -15416693.99047
      1252.8474        976.2394         49.1004         46.3004
 10  1  3  0 47 30.0000000  0  8G22G18G28G15G17G 9G12G27
  24066506.7244   24066505.8904   24066507.4364   -2427921.55446  -1883517.98446
      1526.7954       1189.7094         38.5004         36.2004
  22873497.4714   22873497.1064   22873499.6784   -6994459.63346  -5436009.46646
      -294.4204       -229.4044         41.8004         39.5004
  22918979.4324   22918978.0084   22918981.0344   -8601430.48447  -6669108.03246
     -2666.9214      -2078.1114         44.2004         41.4004
  20927512.0054   20927512.7424   20927515.8984  -18625262.61148 -14493801.68047
     -1704.2144      -1327.9614         50.0004         47.0004
  22454145.9004   22454145.6014   22454149.6944  -11671403.87047  -9070974.97247
      1821.0444       1418.9964         46.9004         44.0004
  20711497.8224   20711497.5074   20711501.4634  -22408299.67048 -17154664.83747
      2352.1234       1832.8274         49.3004         46.3004
  24170711.4064   24170712.8624   24170717.5994   -3519375.98146  -2715599.13646
      3672.9834       2862.0634         40.6004         38.1004
  21206259.2434   21206259.6804   21206264.1194  -19866113.95248 -15445882.57047
      1244.3814        969.6504         49.3004         46.3004
 10  1  3  0 48  0.0000000  0  8G22G18G28G15G17G 9G12G27
  24057840.4214   24057839.3784   24057840.2214   -2473474.39746  -1919013.72346
      1510.0484       1176.6604         39.0004         36.9004
  22875231.9504   22875231.1994   22875235.8664   -6985342.46247  -5428905.18446
      -313.4014       -244.1954         42.0004         39.2004
  22934225.6184   22934225.1494   22934229.1094   -8521302.84247  -6606670.93846
     -2674.9144      -2084.3534         44.1004         41.2004
  20937289.0624   20937289.3734   20937292.5584  -18573886.92848 -14453768.70147
     -1720.8464      -1340.9194         50.0004         47.0004
  22443795.2574   22443795.9444   22443799.1094  -11725791.68347  -9113355.09047
      1804.7804       1406.3244         47.0004         44.0004
  20698104.9804   20698104.7224   20698108.6414  -22478678.28948 -17209505.31147
      2339.7594       1823.1864         49.5004         46.5004
  24149760.4914   24149760.8544   24149762.6424   -3629493.27246  -2801404.80846
      3668.1404       2858.2854         40.9004         38.6004
  21199180.2184   21199180.0544   21199184.4574  -19903317.38048 -15474872.24147
      1235.8444        962.9944         49.3004         46.3004
 10  1  3  0 48 30.0000000  0  8G22G18G28G15G17G 9G12G27
  24049265.8904   24049265.3384   24049266.8794   -2518523.57446  -1954117.00446
      1493.2684       1163.5844         39.4004         37.1004
  22877076.5074   22877075.9044   22877078.0944   -6975655.25247  -5421356.74146
      -332.3894       -259.0024         42.0004         39.5004
  22949519.2654   22949518.9234   22949521.9894   -8440936.52747  -6544047.84946
     -2682.8134      -2090.5064         44.1004         41.4004
  20947160.1494   20947160.1564   20947164.1564  -18522014.05548 -14413348.30247
     -1737.3714      -1353.7984         49.8004         47.0004
  22433538.3154   22433537.9104   22433543.1144  -11779689.60847  -9155353.48247
      1788.4024       1393.5664         46.9004         43.7004
  20684783.1854   20684782.6424   20684786.9684  -22548684.97748 -17264055.97147
      2327.3424       1813.5144         49.6004         46.5004
  24128832.2314   24128832.0174   24128834.9904   -3739464.88046  -2887096.94846
      3663.3154       2854.5374         41.3004         38.6004
  21192149.7864   21192149.0984   21192153.1114  -19940265.00548 -15503662.59747
      1227.3124        956.3454         49.1004         46.1004
 10  1  3  0 49  0.0000000  0  8G22G18G28G15G17G 9G12G27
  24040790.0164   24040789.4964   24040790.6284   -2563067.76646  -1988826.77546
      1476.3514       1150.4064         39.6004         37.1004
  22879026.8974   22879027.2184   22879031.8104   -6965398.71247  -5413364.65246
      -351.4164       -273.8204         42.5004         40.2004
  22964857.8234   22964857.4184   22964861.1634   -8360333.36247  -6481240.19346
     -2690.7024      -2096.6394         44.1004         41.2004
  20957125.7314   20957126.0364   20957129.4014  -18469644.74048 -14372541.04947
     -1753.9154      -1366.6864         50.0004         47.0004
  22423376.2494   22423375.9574   22423379.2054  -11833096.19147  -9196969.01647
      1771.9714       1380.7564         46.7004         43.7004
  20671532.2314   20671531.9974   20671536.4454  -22618318.40348 -17318315.77647
      2314.8794       1803.8014         49.6004         46.5004
  24107931.4884   24107932.9794   24107935.3854   -3849288.72046  -2972673.97846
      3658.3054       2850.6284         41.3004         38.8004
  21185167.3314   21185166.8864   21185170.9304  -19976956.47948 -15532253.35947
      1218.7684        949.6884         49.1004         46.1004
 10  1  3  0 49 30.0000000  0  8G22G18G28G15G17G 9G12G27
  24032408.2934   24032408.8244   24032410.7074   -2607105.46646  -2023141.84746
      1459.4644       1137.2424         39.2004         36.7004
  22881089.4824   22881088.1864   22881091.4974   -6954573.29847  -5404929.27046
      -370.3024       -288.5504         43.2004         40.7004
  22980240.2974   22980239.9774   22980242.5054   -8279495.41747  -6418249.60046
     -2698.5254      -2102.7674         44.1004         41.1004
  20967185.5554   20967185.7964   20967189.3524  -18416779.88848 -14331347.67147
     -1770.4014      -1379.5384         49.8004         47.0004
  22413307.1584   22413307.2974   22413311.5874  -11886008.32347  -9238199.24547
      1755.4694       1367.9004         46.9004         44.0004
  20658352.4544   20658352.5934   20658357.0484  -22687576.78048 -17372283.33747
      2302.3414       1794.0324         49.6004         46.5004
  24087060.2344   24087060.9874   24087064.4114   -3958963.13046  -3058134.52846
      3653.3044       2846.7204         41.1004         37.9004
  21178233.7274   21178233.6474   21178237.6724  -20013391.02548 -15560643.91047
      1210.1934        943.0094         49.1004         46.1004
 10  1  3  0 50  0.0000000  0  8G22G18G28G15G17G 9G12G27
  24024124.2184   24024124.3264   24024124.6754   -2650635.24146  -2057061.15246
      1442.4974       1124.0214         38.9004         36.2004
  22883256.0714   22883255.8694   22883259.0604   -6943179.50447  -5396051.01746
      -389.2514       -303.3184         43.2004         40.6004
  22995668.6864   22995667.7094   22995670.6004   -8198424.45147  -6355077.42146
     -2706.2544      -2108.7624         43.7004         40.6004
  20977339.1854   20977339.7594   20977342.9054  -18363421.01848 -14289769.34047
     -1786.8704      -1392.3644         49.8004         46.8004
  22403332.1704   22403331.9654   22403336.8214  -11938424.81647  -9279043.28347
      1738.9274       1355.0104         46.7004         43.5004
  20645244.9464   20645244.8474   20645249.1204  -22756458.64348 -17425957.49647
      2289.7844       1784.2494         49.5004         46.5004
  24066220.3644   24066221.1504   24066223.3454   -4068486.24746  -3143477.21846
      3648.2564       2842.7884         40.4004         37.8004
  21171349.9614   21171349.3734   21171353.3654  -20049568.27448 -15588833.97147
      1201.6354        936.3404         49.1004         46.1004
 10  1  3  0 50 30.0000000  0  8G22G18G28G15G17G 9G12G27
  24015939.9734   24015938.7944   24015940.3844   -2693655.92646  -2090583.76446
      1425.4974       1110.7774         38.7004         36.2004
  22885532.0004   22885531.9064   22885535.3174   -6931218.52247  -5386730.80846
      -408.1554       -318.0484         43.2004         40.2004
  23011138.4794   23011138.1984   23011142.1434   -8117122.21447  -6291725.02246
     -2713.9424      -2114.7474         43.6004         40.6004
  20987587.2404   20987587.0724   20987590.5964  -18309569.19648 -14247806.89347
     -1803.2844      -1405.1614         49.8004         46.8004
  22393451.7364   22393452.7754   22393455.5924  -11990343.35347  -9319499.27747
      1722.2814       1342.0424         46.5004         43.5004
  20632208.3634   20632208.9014   20632212.8514  -22824962.52348 -17479337.15147
      2277.1284       1774.3854         49.5004         46.5004
  24045407.9514   24045407.9474   24045411.1384   -4177856.35346  -3228700.65246
      3643.1024       2838.7684         40.9004         38.6004
  21164514.6534   21164514.1674   21164517.9934  -20085487.79248 -15616823.20647
      1193.0224        929.6284         49.1004         46.1004
 10  1  3  0 51  0.0000000  0  8G22G18G28G15G17G 9G12G27
  24007849.5024   24007850.6594   24007852.7894   -2736165.62646  -2123708.23946
      1408.4614       1097.5054         39.2004         37.3004
  22887916.4614   22887915.8834   22887919.3924   -6918690.78147  -5376968.94046
      -427.0304       -332.7344         42.9004         40.2004
  23026654.0174   23026653.2784   23026656.2424   -8035590.89247  -6228194.12446
     -2721.5504      -2120.6884         43.4004         40.4004
  20997928.7154   20997928.5704   20997932.4364  -18255225.42948 -14205461.11947
     -1819.6394      -1417.8964         49.8004         46.8004
  22383667.8474   22383668.1954   22383672.5544  -12041761.56847  -9359565.41947
      1705.5894       1329.0354         46.7004         44.0004
  20619246.0434   20619245.6834   20619249.6784  -22893086.50948 -17532420.77347
      2264.4414       1764.5014         49.6004         46.6004
  24024624.3504   24024625.2314   24024629.3014   -4287071.78146  -3313803.55546
      3637.9214       2834.7464         41.5004         38.8004
  21157728.4354   21157728.1814   21157731.8844  -20121149.08348 -15644611.22547
      1184.3804        922.8914         49.1004         46.1004
 10  1  3  0 51 30.0000000  0  8G22G18G28G15G17G 9G12G27
  23999857.2124   23999856.8744   23999858.4914   -2778163.60446  -2156433.96446
      1391.3794       1084.1934         39.6004         37.3004
  22890407.3034   22890408.0654   22890410.5754   -6905596.80147  -5366765.85646
      -445.8794       -347.4274         42.9004         40.0004
  23042212.0684   23042211.5874   23042213.9854   -7953832.29647  -6164486.14146
     -2729.0474      -2126.5274         43.6004         40.9004
  21008363.2144   21008363.4254   21008366.9354  -18200390.81448 -14162732.85547
     -1835.9804      -1430.6334         49.8004         46.8004
  22373979.9554   22373979.4304   22373982.5724  -12092677.89047  -9399240.47647
      1688.8224       1315.9734         46.9004         44.0004
  20606354.1994   20606354.2594   20606358.7374  -22960829.19748 -17585207.27847
      2251.7294       1754.5944         49.6004         46.6004
  24003872.1374   24003871.8204   24003874.8514   -4396130.76046  -3398784.57046
      3632.6704       2830.6624         41.1004         38.1004
  21150991.0404   21150991.1684   21150995.3124  -20156551.50148 -15672197.52947
      1175.7564        916.1714         49.1004         46.3004
 10  1  3  0 52  0.0000000  0  8G22G18G28G15G17G 9G12G27
  23991963.5374   23991964.9334   23991966.2854   -2819648.40046  -2188759.77846
      1374.2424       1070.8344         40.4004         38.3004
  22893005.9014   22893006.1684   22893011.4574   -6891937.67247  -5356122.40646
      -464.7124       -362.0944         42.7004         39.9004
  23057813.4364   23057812.8574   23057815.7744   -7871848.39247  -6100602.56846
     -2736.5424      -2132.3674         43.6004         40.7004
  21018891.4124   21018891.2494   21018894.1034  -18145066.75748 -14119623.21947
     -1852.3174      -1443.3624         49.6004         46.6004
  22364385.4924   22364386.0534   22364389.6094  -12143090.24347  -9438522.81747
      1671.9724       1302.8374         46.9004         44.0004
  20593535.9584   20593535.9654   20593540.5874  -23028189.37948 -17637695.71847
      2238.9494       1744.6364         49.8004         46.8004
  23983146.2414   23983147.0284   23983152.7254   -4505031.57946  -3483642.35346
      3627.3344       2826.4924         40.8004         37.9004
  21144303.6714   21144303.3754   21144307.8564  -20191694.50748 -15699581.68147
      1167.1084        909.4344         49.1004         46.1004
 10  1  3  0 52 30.0000000  0  8G22G18G28G15G17G 9G12G27
  23984166.0964   23984166.7534   23984168.8424   -2860618.63146  -2220684.68146
      1357.0824       1057.4614         40.6004         38.1004
  22895712.5364   22895712.4124   22895717.2534   -6877714.09847  -5345039.10746
      -483.5184       -376.7744         42.5004         39.7004
  23073457.1364   23073456.5294   23073459.9724   -7789641.15447  -6036544.97746
     -2743.9724      -2138.1414         43.7004         41.1004
  21029511.9214   21029512.1344   21029515.7224  -18089254.14548 -14076132.89247
     -1868.5534      -1456.0114         49.6004         46.6004
  22354889.9724   22354889.3334   22354892.8574  -12192996.53947  -9477410.83847
      1655.0954       1289.6894         47.0004         44.0004
  20580791.4504   20580791.3304   20580795.3774  -23095165.17048 -17689884.64147
      2226.1224       1734.6394         49.8004         46.6004
  23962452.3384   23962453.9774   23962458.1614   -4613772.37546  -3568375.39946
      3622.0054       2822.3454         40.4004         37.8004
  21137665.8754   21137665.4974   21137669.9834  -20226577.27448 -15726763.05947
      1158.4074        902.6534         49.1004         46.1004
 10  1  3  0 53  0.0000000  0  8G22G18G28G15G17G 9G12G27
  23976468.3084   23976468.2754   23976471.5034   -2901072.99446  -2252207.57746
      1339.9154       1044.0904         40.1004         37.3004
  22898528.4934   22898526.9104   22898531.2654   -6862926.79247  -5333516.51846
      -502.2954       -391.3944         42.7004         40.0004
  23089141.1484   23089141.2934   23089145.9464   -7707212.21047  -5972314.62146
     -2751.2934      -2143.8784         43.7004         41.1004
  21040225.1624   21040225.3374   21040228.7974  -18032954.41248 -14032262.97047
     -1884.7544      -1468.6424         49.5004         46.5004
  22345487.5654   22345488.4364   22345492.0414  -12242394.57647  -9515902.81047
      1638.1254       1276.4584         46.9004         43.7004
  20568119.3634   20568119.3594   20568123.8884  -23161755.19848 -17741772.97247
      2213.2154       1724.5844         49.8004         46.8004
  23941793.9714   23941794.6044   23941797.6534   -4722351.61146  -3652982.59846
      3616.5294       2818.0764         40.6004         38.3004
  21131077.1544   21131076.9054   21131081.7164  -20261199.43148 -15753741.36647
      1149.7374        895.8994         49.1004         46.1004
 10  1  3  0 53 30.0000000  0  8G22G18G28G15G17G 9G12G27
  23968868.9234   23968869.9444   23968871.8394   -2941010.11346  -2283327.40246
      1322.6294       1030.6254         39.6004         37.1004
  22901448.6314   22901447.9874   22901452.0294   -6847576.77647  -5321555.47946
      -521.0604       -406.0204         42.5004         39.7004
  23104870.3824   23104869.5644   23104872.0764   -7624563.25647  -5907912.86446
     -2758.6244      -2149.5694         43.4004         40.4004
  21051031.0104   21051031.5174   21051034.3604  -17976168.73248 -13988014.40247
     -1900.9494      -1481.2594         49.5004         46.5004
  22336186.0804   22336185.8214   22336188.8634  -12291282.88847  -9553997.58347
      1621.0724       1263.1714         46.7004         43.7004
  20555521.9964   20555521.6384   20555525.8514  -23227957.80848 -17793359.42047
      2200.2884       1714.5074         49.8004         46.8004
  23921163.9104   23921162.8124   23921166.6314   -4830767.34446  -3737462.37946
      3611.1444       2813.8774         41.1004         38.6004
  21124538.4494   21124538.2694   21124543.1714  -20295560.48548 -15780516.21147
      1141.0104        889.1024         49.3004         46.3004
 10  1  3  0 54  0.0000000  0  8G22G18G28G15G17G 9G12G27
  23961368.4974   23961368.0434   23961369.3014   -2980428.93846  -2314043.42446
      1305.3164       1017.1384         39.4004         36.9004
  22904478.7794   22904476.9234   22904479.8784   -6831664.49947  -5309156.31446
      -539.7504       -420.5934         42.3004         39.7004
  23120639.0124   23120638.8574   23120640.6894   -7541696.68647  -5843341.51846
     -2765.8674      -2155.2194         43.0004         40.0004
  21061928.9294   21061929.4724   21061933.1194  -17918898.41948 -13943388.18647
     -1917.0824      -1493.8324         49.5004         46.5004
  22326979.4444   22326979.9504   22326984.2864  -12339659.35347  -9591693.51547
      1603.9994       1249.8734         46.9004         44.0004
  20542997.5574   20542997.6214   20543001.9484  -23293771.73048 -17844642.99147
      2187.3074       1704.3984         49.8004         46.8004
  23900564.5144   23900564.2614   23900567.9464   -4939017.97846  -3821813.48546
      3605.5444       2809.5124         41.5004         39.0004
  21118050.5604   21118049.8994   21118054.3434  -20329659.93948 -15807087.21547
      1132.2644        882.2794         49.5004         46.5004
 10  1  3  0 54 30.0000000  0  8G22G18G28G15G17G 9G12G27
  23953966.8204   23953965.1924   23953966.1144   -3019328.11646  -2344354.45146
      1287.9354       1003.5774         39.0004         36.6004
  22907610.3504   22907609.8954   22907614.5354   -6815191.05547  -5296319.89546
      -558.4694       -435.1654         42.3004         39.5004
  23136449.5014   23136448.5954   23136451.3184   -7458614.28447  -5778601.97846
     -2772.9934      -2160.7764         42.9004         40.0004
  21072919.9844   21072919.8924   21072923.2564  -17861144.55648 -13898385.20347
     -1933.1704      -1506.3614         49.5004         46.5004
  22317872.1634   22317872.1744   22317875.7774  -12387521.68747  -9628988.84547
      1586.8144       1236.4844         46.9004         44.2004
  20530548.4414   20530547.9124   20530551.7774  -23359194.85048 -17895622.03847
      2174.2394       1694.2084         49.8004         46.6004
  23879998.6174   23879996.7314   23879999.3614   -5047101.84546  -3906034.65046
      3599.9904       2805.1904         41.3004         38.5004
  21111610.7174   21111610.4814   21111614.9184  -20363497.04248 -15833453.78647
      1123.5244        875.4754         49.5004         46.5004
 10  1  3  0 55  0.0000000  0  8G22G18G28G15G17G 9G12G27
  23946665.6954   23946664.5714   23946664.7624   -3057706.35746  -2374259.61346
      1270.5764        990.0624         39.7004         37.4004
  22910853.5714   22910852.8554   22910857.0654   -6798157.37547  -5283046.90346
      -577.1334       -449.7174         42.3004         39.9004
  23152298.8354   23152298.9654   23152302.8674   -7375317.67447  -5713695.51146
     -2780.1234      -2166.3164         43.2004         40.6004
  21084001.6764   21084001.5774   21084005.4854  -17802908.51048 -13853006.48547
     -1949.2354      -1518.8864         49.5004         46.5004
  22308862.1854   22308862.3784   22308865.5264  -12434868.32947  -9665882.31747
      1569.6054       1223.0564         47.0004         44.0004
  20518173.2964   20518172.4864   20518176.9674  -23424225.83748 -17946295.53347
      2161.1554       1684.0204         49.6004         46.5004
  23859456.4544   23859459.1454   23859462.7214   -5155017.22846  -3990124.55446
      3594.3624       2800.8024         40.8004         38.1004
  21105221.6604   21105222.0494   21105226.3034  -20397071.29548 -15859615.55247
      1114.7534        868.6394         49.5004         46.5004
 10  1  3  0 55 30.0000000  0  8G22G18G28G15G17G 9G12G27
  23939457.0814   23939458.7664   23939460.9404   -3095562.55646  -2403757.92246
      1253.1624        976.4874         39.9004         37.8004
  22914200.7804   22914201.2934   22914204.5374   -6780564.47847  -5269338.12846
      -595.7504       -464.2214         42.7004         40.2004
  23168191.4774   23168190.9634   23168193.7914   -7291808.94547  -5648623.77546
     -2787.1244      -2171.7974         43.4004         40.7004
  21095175.1324   21095175.1924   21095178.2724  -17744191.72348 -13807253.16147
     -1965.2414      -1531.3504         49.3004         46.5004
  22299951.2074   22299951.3254   22299954.2584  -12481697.64147  -9702372.66647
      1552.3374       1209.6084         47.0004         44.2004
  20505872.7234   20505872.3754   20505876.3614  -23488863.56148 -17996662.59147
      2148.0054       1673.7754         49.5004         46.5004
  23838958.0294   23838956.3654   23838958.9854   -5262762.40446  -4074081.83946
      3588.6244       2796.3294         40.9004         38.5004
  21098882.8844   21098883.0314   21098887.1034  -20430382.56148 -15885572.38847
      1105.9804        861.8074         49.3004         46.5004
 10  1  3  0 56  0.0000000  0  8G22G18G28G15G17G 9G12G27
  23932355.7354   23932354.4374   23932355.7104   -3132895.54146  -2432848.59446
      1235.6664        962.8584         40.4004         38.1004
  22917655.7464   22917654.2184   22917657.8384   -6762413.07147  -5255194.16846
      -614.3464       -478.7054         43.0004         40.0004
  23184122.4504   23184121.7914   23184125.1864   -7208089.81147  -5583388.09546
     -2794.1194      -2177.2374         43.7004         40.9004
  21106439.8934   21106440.0994   21106443.1764  -17684995.33948 -13761126.12247
     -1981.1924      -1543.7884         49.3004         46.5004
  22291138.3974   22291138.3514   22291142.6564  -12528007.53447  -9738458.27647
      1534.9784       1196.0854         47.2004         44.2004
  20493648.0164   20493647.7374   20493651.5834  -23553106.04748 -18046721.68547
      2134.8174       1663.4904         49.6004         46.6004
  23818488.3844   23818487.6094   23818489.9464   -5370335.73946  -4157905.16146
      3582.8734       2791.8544         41.3004         38.8004
  21092593.9284   21092593.8244   21092598.4744  -20463430.12648 -15911323.74447
      1097.1704        854.9424         49.3004         46.5004
 10  1  3  0 56 30.0000000  0  8G22G18G28G15G17G 9G12G27
  23925351.8464   23925351.7874   23925352.0054   -3169703.83246  -2461530.39446
      1218.1884        949.2344         40.8004         38.3004
  22921214.9834   22921214.6254   22921218.4534   -6743704.26047  -5240615.87746
      -632.9274       -493.1804         42.9004         39.7004
  23200093.0974   23200092.9004   23200096.6414   -7124162.09547  -5517989.86746
     -2801.0354      -2182.6184         43.6004         40.6004
  21117795.5014   21117795.6524   21117799.0494  -17625320.63548 -13714626.36947
     -1997.1194      -1556.1954         49.3004         46.3004
  22282425.1764   22282424.8714   22282428.2724  -12573795.98947  -9774137.58647
      1517.5384       1182.4934         47.2004         44.0004
  20481498.2994   20481498.1074   20481502.5774  -23616951.83448 -18096471.65347
      2121.5674       1653.1694         49.6004         46.6004
  23798050.2844   23798049.3614   23798052.2144   -5477735.33946  -4241593.12946
      3577.0804       2787.3274         41.6004         39.2004
  21086355.3534   21086355.5714   21086360.0994  -20496213.27348 -15936869.06347
      1088.3394        848.0574         49.5004         46.5004
 10  1  3  0 57  0.0000000  0  8G22G18G28G15G17G 9G12G27
  23918445.5144   23918446.5754   23918446.8984   -3205986.72846  -2489802.75746
      1200.6454        935.5714         40.8004         38.3004
  22924882.5294   22924881.9804   22924883.3254   -6724438.90347  -5225603.92046
      -651.4544       -507.6384         42.7004         39.9004
  23216103.8344   23216103.1724   23216105.8834   -7040027.77347  -5452430.66246
     -2807.9034      -2187.9984         43.4004         40.4004
  21129242.1434   21129241.9484   21129245.5604  -17565169.04848 -13667755.03547
     -2013.0004      -1568.5694         49.3004         46.3004
  22273810.8904   22273810.8884   22273816.0464  -12619061.45347  -9809409.36647
      1500.1124       1168.9194         47.2004         44.4004
  20469424.8004   20469424.5114   20469428.6504  -23680399.62948 -18145911.49047
      2108.2854       1642.8184         49.6004         46.6004
  23777642.9964   23777644.3724   23777647.5364   -5584959.56246  -4325144.46246
      3571.2234       2782.7684         41.6004         39.0004
  21080168.1774   21080167.5764   21080172.3374  -20528731.42348 -15962207.88347
      1079.5234        841.1904         49.5004         46.5004
 10  1  3  0 57 30.0000000  0  8G22G18G28G15G17G 9G12G27
  23911642.9564   23911641.6884   23911643.2694   -3241743.08746  -2517664.89246
      1183.1164        921.9034         40.9004         38.1004
  22928654.2624   22928652.8674   22928654.8864   -6704618.05547  -5210159.12946
      -669.9544       -522.0294         42.7004         39.9004
  23232153.5624   23232152.3524   23232155.5804   -6955688.83347  -5386712.00746
     -2814.6884      -2193.2574         43.4004         40.6004
  21140778.9004   21140779.4744   21140782.9734  -17504541.78448 -13620513.03747
     -2028.8334      -1580.9054         49.3004         46.3004
  22265298.1744   22265298.3144   22265302.3454  -12663802.16747  -9844272.26547
      1482.5764       1155.2494         47.4004         44.7004
  20457427.2124   20457427.0984   20457431.1804  -23743447.67148 -18195039.83147
      2094.9284       1632.4134         49.8004         46.8004
  23757273.5664   23757274.2794   23757277.7574   -5692006.84546  -4408557.92746
      3565.2864       2778.1474         41.6004         39.2004
  21074029.7374   21074030.2204   21074034.7024  -20560984.08348 -15987339.82947
      1070.6514        834.2784         49.5004         46.5004
 10  1  3  0 58  0.0000000  0  8G22G18G28G15G17G 9G12G27
  23904938.5174   23904937.8234   23904940.5184   -3276971.35646  -2545115.44946
      1165.4704        908.1534         40.6004         37.9004
  22932530.5134   22932530.7244   22932533.8544   -6684242.75947  -5194282.27246
      -688.4414       -536.4544         42.7004         40.0004
  23248241.0084   23248240.4314   23248244.2194   -6871146.80647  -5320835.11446
     -2821.4024      -2198.5004         43.2004         40.2004
  21152406.5464   21152406.3394   21152409.9454  -17443440.22148 -13572901.45747
     -2044.6104      -1593.1994         49.3004         46.3004
  22256883.7104   22256883.8994   22256887.0744  -12708015.99247  -9878724.56247
      1464.9914       1141.5494         47.4004         44.2004
  20445506.3404   20445505.9734   20445509.7464  -23806094.54448 -18243855.58147
      2081.5414       1621.9774         49.8004         46.8004
  23736936.3544   23736936.8384   23736941.3734   -5798874.97246  -4491831.79346
      3559.2364       2773.4304         41.6004         38.8004
  21067944.0774   21067943.6084   21067947.9604  -20592970.64348 -16012264.42547
      1061.7444        827.3304         49.5004         46.6004
 10  1  3  0 58 30.0000000  0  8G22G18G28G15G17G 9G12G27
  23898335.8504   23898335.1934   23898335.1564   -3311670.92146  -2572154.06046
      1147.8434        894.4194         40.3004         37.3004
  22936514.3034   22936512.7394   22936515.9674   -6663314.25847  -5177974.35746
      -706.8454       -550.7714         42.7004         39.9004
  23264367.5564   23264367.4734   23264369.9994   -6786403.71047  -5254801.53846
     -2828.0934      -2203.6764         43.0004         40.2004
  21164122.4454   21164123.2904   21164127.0504  -17381866.19348 -13524921.71547
     -2060.3304      -1605.4494         49.3004         46.3004
  22248570.6524   22248571.1294   22248574.6394  -12751701.44247  -9912765.15047
      1447.3254       1127.7834         47.4004         44.5004
  20433660.8894   20433660.9274   20433665.3544  -23868338.56148 -18292357.41647
      2068.0744       1611.4894         49.8004         46.8004
  23716635.5494   23716634.8024   23716640.2654   -5905562.85746  -4574965.18446
      3553.2114       2768.7304         41.8004         39.3004
  21061907.3114   21061907.1134   21061911.6424  -20624690.47648 -16036981.19347
      1052.8834        820.4294         49.5004         46.5004
 10  1  3  0 59  0.0000000  0  8G22G18G28G15G17G 9G12G27
  23891832.0864   23891831.6174   23891832.2784   -3345840.46446  -2598779.65245
      1130.1014        880.5814         39.0004         35.9004
  22940600.7994   22940600.5104   22940603.3684   -6641833.40147  -5161236.03846
      -725.2314       -565.1264         42.5004         39.7004
  23280530.5444   23280529.4414   23280533.3894   -6701461.38747  -5188612.71146
     -2834.7194      -2208.8794         43.0004         40.4004
  21175929.9704   21175930.3984   21175934.3224  -17319820.49948 -13476574.42447
     -2076.0354      -1617.6904         49.3004         46.3004
  22240358.7864   22240358.5754   22240362.2944  -12794856.71047  -9946392.61247
      1429.6484       1114.0104         47.4004         44.4004
  20421893.3254   20421892.9384   20421897.8314  -23930178.21348 -18340544.15247
      2054.5864       1600.9784         50.0004         47.0004
  23696367.7294   23696368.0664   23696372.8494   -6012068.94446  -4657956.90846
      3547.1534       2764.0194         41.8004         39.2004
  21055922.0204   21055921.5314   21055926.1084  -20656143.22248 -16061489.83547
      1043.9594        813.4754         49.3004         46.3004
 10  1  3  0 59 30.0000000  0  8G22G18G28G15G17G 9G12G27
  23885432.8154   23885430.6094   23885434.3054   -3379478.75546  -2624991.30645
      1112.4524        866.8564         38.0004         35.3004
  22944794.8004   22944793.3054   22944795.3554   -6619801.16447  -5144068.10446
      -743.5714       -579.4234         42.3004         39.3004
  23296731.7954   23296731.9254   23296733.4414   -6616321.95047  -5122270.30546
     -2841.2664      -2213.9704         43.0004         40.0004
  21187826.4864   21187826.5824   21187829.8084  -17257304.63748 -13427860.75647
     -2091.7034      -1629.9014         49.1004         46.1004
  22232248.0034   22232248.0114   22232251.4644  -12837480.05947  -9979605.60147
      1411.8924       1100.1734         47.4004         44.5004
  20410203.8134   20410203.2224   20410207.3644  -23991611.85948 -18388414.52247
      2040.9794       1590.3734         50.2004         47.2004
  23676134.6054   23676135.7014   23676140.0344   -6118390.93647  -4740805.22146
      3540.9934       2759.2124         42.2004         39.5004
  21049988.2274   21049987.8184   21049992.2344  -20687328.13848 -16085789.78247
      1035.0574        806.5364         49.3004         46.5004
                            4  7
RINEX FILE SPLICE                                           COMMENT
teqc  2009Mar23     root                20100103 02:00:00UTCCOMMENT
BIT 2 OF LLI FLAGS DATA COLLECTED UNDER A/S CONDITION       COMMENT
Forced Modulo Decimation to 30 seconds                      COMMENT
 SNR is mapped to RINEX snr flag value [0-9]                COMMENT
  L1 & L2: min(max(int(snr_dBHz/6), 0), 9)                  COMMENT
pseudorange smoothing corrections not applied               COMMENT
 10  1  3  1  0  0.0000000  0  7G18G28G15G17G 9G12G27
  22949090.5414   22949091.0544   22949092.7404   -6597218.84047  -5126471.47546
      -761.9334       -593.7134         42.2004         39.3004
  23312971.2514   23312970.4594   23312971.6254   -6530987.05247  -5055775.57046
     -2847.7204      -2219.0174         42.5004         39.5004
  21199811.9054   21199812.2624   21199816.0414  -17194320.10148 -13378781.90147
     -2107.2824      -1642.0374         49.1004         46.3004
  22224238.3934   22224238.1004   22224242.6254  -12879569.73047 -10012402.74547
      1394.0674       1086.2894         47.5004         44.5004
  20398590.3684   20398589.9654   20398594.1934  -24052638.27448 -18435967.57047
      2027.4194       1579.8074         50.2004         47.2004
  23655938.9744   23655937.1734   23655942.8534   -6224527.42546  -4823509.00646
      3534.7684       2754.3744         41.8004         39.0004
  21044104.7514   21044104.4834   21044108.7444  -20718244.82848 -16109880.71447
      1026.0594        799.5254         49.5004         46.5004
 10  1  3  1  0 30.0000000  0  8G22G18G28G15G17G 9G12G27
  23872930.0524   23872930.5714   23872933.5334   -3445158.29246  -2676170.14645
      1076.8734        839.1184         36.8004         34.3004
  22953492.1754   22953491.4834   22953494.4684   -6574087.52347  -5108447.09546
      -780.2004       -607.9474         42.2004         39.5004
  23329245.9414   23329244.7314   23329247.9184   -6445458.31747  -4989129.78346
     -2854.1924      -2224.0544         42.2004         39.3004
  21211886.2574   21211886.7254   21211891.0594  -17130868.48148 -13329339.08247
     -2122.8264      -1654.1514         49.3004         46.5004
  22216330.1034   22216330.9034   22216334.9314  -12921123.92047 -10044782.61847
      1376.1904       1072.3584         47.5004         44.5004
  20387054.9664   20387055.0124   20387058.8104  -24113255.72848 -18483201.94447
      2013.7664       1569.1674         50.2004         47.0004
  23635778.2584   23635777.8294   23635781.4374   -6330476.48947  -4906066.72946
      3528.4814       2749.4614         42.2004         39.7004
  21038272.5774   21038272.4094   21038276.5524  -20748892.70048 -16133762.18247
      1017.1054        792.5494         49.5004         46.5004
 10  1  3  1  1  0.0000000  0  8G22G18G28G15G17G 9G12G27
  23866836.9464   23866834.7064   23866839.2334   -3477197.40046  -2701135.66345
      1059.0554        825.2394         37.1004         35.5004
  22957997.4734   22957997.6334   22958001.2164   -6550408.58247  -5089995.94946
      -798.4124       -622.1454         42.0004         39.2004
  23345557.5394   23345556.8214   23345561.5244   -6359737.76547  -4922334.55946
     -2860.5374      -2228.9804         42.2004         39.3004
  21224049.2294   21224049.9394   21224053.8254  -17066951.25648 -13279533.46547
     -2138.3364      -1666.2354         49.3004         46.3004
  22208525.7204   22208525.6354   22208528.5524  -12962141.33847 -10076744.22647
      1358.2734       1058.3954         47.4004         44.4004
  20375597.7354   20375597.8154   20375601.9814  -24173463.03748 -18530116.74047
      2000.0464       1558.4824         50.0004         47.0004
  23615653.3674   23615652.0104   23615654.5494   -6436237.00047  -4988477.49746
      3522.1874       2744.5604         42.2004         39.3004
  21032492.0044   21032491.3284   21032495.6714  -20779271.17548 -16157433.73247
      1008.1264        785.5504         49.5004         46.5004
 10  1  3  1  1 30.0000000  0  8G22G18G28G15G17G 9G12G27
  23860840.4114   23860840.6014   23860843.7894   -3508701.31646  -2725684.16046
      1041.2234        811.3344         38.2004         36.4004
  22962608.2994   22962609.0104   22962612.2754   -6526182.97047  -5071118.83846
      -816.6324       -636.3244         42.0004         39.2004
  23361906.3444   23361905.3934   23361911.2864   -6273827.25147  -4855391.30546
     -2866.8354      -2233.8904         42.3004         39.7004
  21236300.7114   21236301.2924   21236304.5224  -17002569.53348 -13229365.88647
     -2153.7794      -1678.2704         49.3004         46.3004
  22200822.2614   22200822.7454   22200825.8584  -13002619.98147 -10108286.00847
      1340.2964       1044.3854         47.4004         44.4004
  20364219.5644   20364218.9914   20364223.4594  -24233258.49048 -18576710.60247
      1986.3014       1547.7704         50.0004         47.0004
  23595562.8954   23595562.7434   23595566.6354   -6541806.86547  -5070739.72346
      3515.8154       2739.5874         42.3004         39.5004
  21026762.1674   21026761.9654   21026766.1884  -20809379.65248 -16180894.89147
       999.1164        778.5354         49.3004         46.5004
 10  1  3  1  2  0.0000000  0  8G22G18G28G15G17G 9G12G27
  23854946.5314   23854947.8864   23854948.6174   -3539669.49146  -2749815.18046
      1023.3404        797.4054         38.9004         37.1004
  22967322.9644   22967322.2524   22967324.4644   -6501411.90547  -5051816.71846
      -834.7774       -650.4674         42.0004         39.5004
  23378289.9144   23378290.4374   23378293.8624   -6187728.36447  -4788301.24846
     -2873.0974      -2238.7754         42.3004         39.5004
  21248639.9184   21248640.5884   21248644.2664  -16937724.77748 -13178837.50647
     -2169.1874      -1690.2744         49.3004         46.1004
  22193223.1054   22193222.8774   22193225.6764  -13042558.26247 -10139406.72747
      1322.2404       1030.3114         47.4004         44.4004
  20352919.2234   20352919.3554   20352923.3984  -24292640.40648 -18622982.23047
      1972.5034       1537.0144         50.0004         47.0004
  23575510.6024   23575510.0094   23575513.9334   -6647184.52847  -5152852.18646
      3509.3574       2734.5644         42.3004         39.7004
  21021084.2874   21021084.2124   21021088.8294  -20839217.53748 -16204145.19447
       990.0674        771.4814         49.5004         46.6004
 10  1  3  1  2 30.0000000  0  8G22G18G28G15G17G 9G12G27
  23849158.8024   23849157.5014   23849159.1104   -3570100.94946  -2773528.00146
      1005.3404        783.3804         39.7004         37.4004
  22972136.7614   22972137.6974   22972143.2524   -6476096.67647  -5032090.58846
      -852.9274       -664.6174         42.2004         39.2004
  23394711.1414   23394709.8824   23394712.9504   -6101443.19547  -4721066.06446
     -2879.2564      -2243.5534         42.3004         39.5004
  21261067.7354   21261068.0624   21261071.8774  -16872418.87748 -13127949.78447
     -2184.5524      -1702.2454         49.3004         46.3004
  22185725.2484   22185725.5204   22185729.5434  -13081954.88947 -10170105.38547
      1304.1764       1016.2544         47.5004         44.7004
  20341698.5084   20341698.0344   20341702.1914  -24351607.67648 -18668930.76047
      1958.6324       1526.2104         50.0004         47.0004
  23555495.2294   23555494.1734   23555496.9104   -6752368.24947  -5234813.54546
      3502.8524       2729.5094         42.3004         39.5004
  21015458.1414   21015457.8094   21015462.1894  -20868784.15948 -16227184.12247
       981.0144        764.4284         49.5004         46.6004
 10  1  3  1  3  0.0000000  0  8G22G18G28G15G17G 9G12G27
  23843463.3884   23843466.1774   23843470.4404   -3599994.57146  -2796821.71446
       987.3734        769.3814         39.6004         37.1004
  22977060.2794   22977059.1464   22977062.6944   -6450238.46847  -5011941.36446
      -870.9944       -678.6884         42.0004         39.2004
  23411165.6224   23411163.4014   23411167.0924   -6014973.73247  -4653687.26546
     -2885.3744      -2248.3564         42.3004         39.7004
  21273583.2524   21273583.3144   21273586.2194  -16806653.37348 -13076703.93447
     -2199.8424      -1714.1644         49.1004         46.1004
  22178331.9894   22178332.9994   22178335.7554  -13120808.14247 -10200380.63847
      1286.0204       1002.0894         47.7004         44.9004
  20330556.6344   20330556.3974   20330560.4624  -24410158.80848 -18714555.02147
      1944.7674       1515.4014         50.2004         47.2004
  23535516.9144   23535516.3084   23535519.1864   -6857356.30947  -5316622.40846
      3496.3374       2724.4194         42.3004         39.9004
  21009883.1994   21009882.9534   21009887.6814  -20898079.15548 -16250011.39747
       971.9244        757.3424         49.5004         46.5004
 10  1  3  1  3 30.0000000  0  8G22G18G28G15G17G 9G12G27
  23837884.2594   23837883.7314   23837883.4764   -3629349.39146  -2819695.62246
       969.5244        755.4734         39.2004         36.6004
  22982082.2004   22982082.9324   22982084.7254   -6423838.74747  -4991370.17946
      -889.0124       -692.7454         42.0004         39.2004
  23427653.0884   23427653.8494   23427656.8194   -5928321.51047  -4586166.09346
     -2891.4594      -2253.0914         42.7004         40.0004
  21286184.0844   21286184.2684   21286187.8114  -16740429.67948 -13025101.05847
     -2215.1004      -1726.0524         48.9004         45.9004
  22171042.4814   22171042.4184   22171045.8224  -13159116.46247 -10230231.25047
      1267.8314        987.9174         47.7004         44.7004
  20319493.7264   20319493.8144   20319498.0824  -24468292.13348 -18759853.71347
      1930.7944       1504.5174         50.2004         47.0004
  23515574.0264   23515574.9724   23515578.0194   -6962147.48847  -5398277.85846
      3489.7244       2719.2724         42.7004         40.0004
  21004360.0694   21004360.4364   21004365.1384  -20927102.06848 -16272626.65447
       962.8794        750.2964         49.5004         46.6004
 10  1  3  1  4  0.0000000  0  8G22G18G28G15G17G 9G12G27
  23832392.9584   23832397.2294   23832402.3504   -3658164.90346  -2842149.22845
       951.4334        741.3694         38.0004         35.5004
  22987209.6814   22987209.7144   22987213.4444   -6396898.73647  -4970377.98846
      -907.0304       -706.7624         42.3004         40.0004
  23444178.5554   23444178.5774   23444179.8294   -5841488.09447  -4518503.67846
     -2897.4404      -2257.7684         42.5004         39.5004
  21298873.1184   21298873.5684   21298877.5874  -16673749.01148 -12973142.11547
     -2230.2884      -1737.8904         48.9004         45.9004
  22163855.7144   22163856.0524   22163860.0394  -13196878.11047 -10259655.88847
      1249.5774        973.6904         47.7004         44.7004
  20308512.2604   20308511.3164   20308515.1624  -24526006.02248 -18804825.57747
      1916.7934       1493.6064         50.2004         47.2004
  23495671.3454   23495671.7304   23495674.6004   -7066739.61647  -5479778.20046
      3483.0664       2714.0704         42.7004         39.9004
  20998889.6794   20998889.3744   20998893.9464  -20955852.16948 -16295029.32547
       953.7764        743.2024         49.5004         46.6004
 10  1  3  1  4 30.0000000  0  9G22G18G28G15G17G 9G12G27G26
  23827016.1304   23827015.8884   23827020.1584   -3686439.73946  -2864181.61146
       933.7544        727.6074         38.3004         36.2004
  22992439.0494   22992438.4644   22992441.2024   -6369419.65447  -4948965.73346
      -924.9214       -720.7304         42.5004         39.9004
  23460735.6574   23460735.6024   23460739.0534   -5754475.70947  -4450701.82746
     -2903.3564      -2262.3734         42.3004         39.7004
  21311649.0094   21311649.4694   21311653.4174  -16606613.00348 -12920828.34247
     -2245.4464      -1749.6994         48.9004         45.9004
  22156775.0764   22156775.5204   22156778.6704  -13234091.55947 -10288653.34847
      1231.2854        959.4364         47.7004         44.9004
  20297608.1184   20297608.2854   20297612.6384  -24583299.18648 -18849469.60547
      1902.7434       1482.6564         50.2004         47.0004
  23475805.2164   23475804.9784   23475810.0204   -7171131.17647  -5561122.28046
      3476.3794       2708.8684         42.5004         39.5004
  20993470.6554   20993470.7254   20993474.5444  -20984328.88248 -16317218.96647
       944.6324        736.0714         49.6004         46.6004
  23454054.8944                   23454052.6254    -333251.43545   -226816.39445
      3614.9524       2816.8444         31.4004         35.0004
 10  1  3  1  5  0.0000000  0  9G22G18G28G15G17G 9G12G27G26
  23821744.3814   23821741.2414   23821744.0514   -3714173.37446  -2885792.26346
       915.5514        713.4164         39.0004         37.1004
  22997770.4664   22997770.3394   22997773.3924   -6341402.66347  -4927134.31146
      -942.8514       -734.6944         42.5004         39.7004
  23477328.1634   23477326.9964   23477330.8214   -5667286.00747  -4382761.80646
     -2909.2524      -2266.9444         42.2004         39.2004
  21324511.4924   21324511.3494   21324514.6094  -16539023.25448 -12868161.01747
     -2260.5494      -1761.4694         48.8004         45.8004
  22149798.0284   22149797.4274   22149801.1974  -13270755.64947 -10317222.75647
      1212.9584        945.1614         47.7004         44.7004
  20286787.5494   20286786.5144   20286790.5754  -24640170.06248 -18893784.58247
      1888.6384       1471.6694         50.2004         47.2004
  23455978.2834   23455979.0674   23455982.2894   -7275320.59747  -5642308.82546
      3469.5634       2703.5614         42.5004         39.9004
  20988104.2004   20988103.7694   20988107.6194  -21012531.58548 -16339195.09447
       935.5164        728.9774         49.6004         46.6004
  23433440.0104   23433438.5934   23433439.6814    -441575.23046   -311224.54345
      3606.5544       2810.3014         36.3004         35.0004
 10  1  3  1  5 30.0000000  0  9G22G18G28G15G17G 9G12G27G26
  23816565.8804   23816565.5574   23816567.5034   -3741364.92546  -2906980.50746
       897.3554        699.2444         39.2004         36.7004
  23003205.7244   23003203.9254   23003206.8714   -6312849.37347  -4904885.02846
      -960.6964       -748.5884         42.3004         39.5004
  23493952.6174   23493952.2394   23493954.1494   -5579920.83846  -4314685.08346
     -2915.0694      -2271.4774         41.8004         39.3004
  21337458.4384   21337458.9754   21337462.6564  -16470981.59248 -12815141.54547
     -2275.5944      -1773.1914         48.8004         45.6004
  22142926.4004   22142926.6664   22142929.3384  -13306868.70547 -10345362.78947
      1194.5414        930.8044         47.9004         45.1004
  20276045.1114   20276044.7394   20276049.3164  -24696617.03648 -18937769.23247
      1874.4814       1460.6324         50.3004         47.3004
  23436193.7624   23436193.1084   23436195.2084   -7379306.31847  -5723336.63746
      3462.7644       2698.2564         42.9004         40.6004
  20982788.5744   20982789.1154   20982793.1694  -21040459.81148 -16360957.34247
       926.3504        721.8304         49.5004         46.5004
  23412868.1484   23412871.5794   23412875.7584    -549645.94046   -395435.45645
      3598.0494       2803.6724         37.3004         35.7004
 10  1  3  1  6  0.0000000  0  9G22G18G28G15G17G 9G12G27G26
  23811496.6224   23811496.5174   23811497.4864   -3768013.77946  -2927745.83346
       879.2134        685.0984         39.6004         37.3004
  23008739.6144   23008738.9914   23008742.7394   -6283761.27047  -4882218.97146
      -978.5404       -762.4904         42.0004         39.2004
  23510611.3794   23510609.8834   23510611.8614   -5492381.97946  -4246472.96946
     -2920.8414      -2275.9814         41.8004         38.8004
  21350492.7244   21350492.8334   21350496.4834  -16402489.52448 -12761771.11747
     -2290.5734      -1784.8624         48.6004         45.8004
  22136158.6324   22136159.0174   22136161.9914  -13342429.13247 -10373072.19047
      1176.1054        916.4494         47.7004         44.7004
  20265384.8344   20265384.5504   20265388.5644  -24752638.87748 -18981422.61147
      1860.3044       1449.5874         50.5004         47.5004
  23416442.4274   23416443.1474   23416445.9134   -7483086.55447  -5804204.33546
      3455.9144       2692.9244         43.0004         40.2004
  20977527.0494   20977526.5714   20977531.4684  -21068112.79748 -16382505.12047
       917.1744        714.6814         49.5004         46.6004
  23392353.5174   23392353.8424   23392359.7844    -657460.55046   -479446.81746
      3589.4084       2796.9434         38.2004         36.0004
 10  1  3  1  6 30.0000000  0  9G22G18G28G15G17G 9G12G27G26
  23806530.1614   23806527.7894   23806529.4444   -3794119.04346  -2948087.56746
       861.1384        671.0194         39.2004         36.7004
  23014373.7804   23014375.0114   23014380.2164   -6254139.34246  -4859136.93446
      -996.2874       -776.3284         41.8004         39.0004
  23527300.1244   23527300.6914   23527303.8054   -5404670.87546  -4178126.65046
     -2926.5574      -2280.4444         41.5004         38.8004
  21363611.3924   21363611.3964   21363616.1004  -16333548.30348 -12708050.69947
     -2305.5134      -1796.5074         48.6004         45.8004
  22129496.9684   22129497.3984   22129500.8414  -13377435.54347 -10400349.88347
      1157.6244        902.0474         47.7004         44.7004
  20254805.1524   20254805.2224   20254809.1004  -24808234.21748 -19024743.65247
      1846.0494       1438.4784         50.5004         47.3004
  23396733.4214   23396733.3324   23396737.5534   -7586659.59647  -5884910.58246
      3448.9904       2687.5244         43.0004         40.4004
  20972316.9244   20972317.1734   20972321.4474  -21095489.96348 -16403837.97547
       907.9664        707.5064         49.6004         46.6004
  23371889.3004   23371887.6694   23371892.5474    -765016.28646   -563256.40846
      3580.9054       2790.3094         38.3004         36.2004
 10  1  3  1  7  0.0000000  0  9G22G18G28G15G17G 9G12G27G26
  23801662.7184   23801662.8494   23801667.1894   -3819680.27046  -2968005.41846
       842.9404        656.8404         38.9004         36.2004
  23020115.9214   23020114.4284   23020117.1644   -6223985.22347  -4835640.24546
     -1014.0104       -790.1344         42.2004         39.7004
  23544023.7984   23544023.3934   23544027.6524   -5316789.70746  -4109647.83746
     -2932.1784      -2284.8144         41.5004         39.0004
  21376816.3954   21376815.5374   21376819.1114  -16264159.89448 -12653981.81047
     -2320.3974      -1808.1024         48.4004         45.4004
  22122942.2344   22122941.9964   22122945.9294  -13411886.57047 -10427194.81247
      1139.0774        887.5904         47.9004         45.1004
  20244307.3494   20244307.0874   20244311.0054  -24863401.36448 -19067731.03547
      1831.7394       1427.3284         50.3004         47.3004
  23377063.6894   23377064.3344   23377068.7684   -7690023.62047  -5965453.94846
      3441.9504       2682.0274         43.2004         40.7004
  20967160.5384   20967160.0214   20967164.2234  -21122590.95148 -16424955.62547
       898.7504        700.3234         49.6004         46.6004
  23351473.2324   23351470.3904   23351475.3934    -872310.32646   -646862.14846
      3572.0794       2783.4434         38.5004         36.4004
 10  1  3  1  7 30.0000000  0  9G22G18G28G15G17G 9G12G27G26
  23796902.6554   23796901.9824   23796903.5024   -3844696.67346  -2987498.71645
       824.8614        642.7494         38.2004         35.7004
  23025952.7254   23025952.0014   23025956.4364   -6193300.58447  -4811730.17946
     -1031.6634       -803.8914         42.2004         39.0004
  23560778.7354   23560779.1774   23560782.6754   -5228740.11446  -4041037.77846
     -2937.7504      -2289.1594         41.6004         38.8004
  21390104.1234   21390104.9364   21390108.6404  -16194325.76248 -12599565.62347
     -2335.2134      -1819.6454         48.4004         45.6004
  22116491.2994   22116491.4934   22116495.3504  -13445780.93748 -10453605.97947
      1120.4944        873.1104         48.1004         45.1004
  20233890.9994   20233890.7694   20233895.2334  -24918138.80948 -19110383.57947
      1817.3974       1416.1544         50.3004         47.5004
  23357434.8044   23357434.2754   23357437.7594   -7793177.61747  -6045833.69446
      3434.9484       2676.5774         43.0004         40.2004
  20962055.7774   20962055.3214   20962059.3974  -21149415.27848 -16445857.68947
       889.5284        693.1394         49.6004         46.6004
  23331103.7154   23331104.5344   23331107.5104    -979339.78646   -730261.74946
      3563.2854       2776.5864         39.0004         36.9004
 10  1  3  1  8  0.0000000  0  9G22G18G28G15G17G 9G12G27G26
  23792246.0464   23792246.6774   23792248.5334   -3869167.00946  -3006566.54646
       806.5684        628.5034         38.2004         36.0004
  23031892.6644   23031892.7774   23031896.1174   -6162086.73646  -4787407.71646
     -1049.2264       -817.5854         41.8004         39.0004
  23577567.1074   23577566.5034   23577569.4734   -5140524.12346  -3972298.05546
     -2943.3344      -2293.5174         41.6004         39.0004
  21403478.0824   21403478.3524   21403482.3704  -16124047.66548 -12544803.48247
     -2349.9974      -1831.1634         48.4004         45.4004
  22110147.3134   22110147.9744   22110151.4064  -13479116.93847 -10479582.05747
      1101.8984        858.6214         47.9004         44.7004
  20223557.6864   20223557.3004   20223561.0704  -24972444.97448 -19152700.06847
      1802.9954       1404.9284         50.5004         47.7004
  23337846.2374   23337845.1694   23337849.4054   -7896119.51947  -6126048.15246
      3427.8594       2671.0564         43.2004         40.4004
  20957003.7574   20957003.6874   20957007.8364  -21175962.34048 -16466543.70747
       880.2734        685.9294         49.5004         46.6004
  23310787.5244   23310787.3404   23310792.0204   -1086101.82746   -813452.93146
      3554.2224       2769.5274         39.2004         36.9004
 10  1  3  1  8 30.0000000  0  9G22G18G28G15G17G 9G12G27G26
  23787695.1804   23787693.7944   23787695.5274   -3893091.12946  -3025208.74246
       788.3584        614.3074         38.3004         36.4004
  23037934.0764   23037933.4664   23037936.9854   -6130345.31646  -4762674.15646
     -1066.8344       -831.2954         41.8004         39.2004
  23594385.2984   23594384.8364   23594388.0844   -5052143.03746  -3903429.67046
     -2948.7924      -2297.7544         41.6004         38.8004
  21416935.1924   21416935.6994   21416940.1114  -16053326.80148 -12489696.33347
     -2364.7144      -1842.6304         48.4004         45.4004
  22103910.9744   22103910.9714   22103913.3364  -13511893.42247 -10505122.15547
      1083.1894        844.0444         47.7004         44.5004
  20213305.5964   20213305.1994   20213309.1524  -25026318.71348 -19194679.59747
      1788.5674       1393.6914         50.7004         47.5004
  23318296.4164   23318296.8154   23318300.6784   -7998847.80547  -6206096.13846
      3420.6974       2665.4814         43.0004         40.4004
  20952005.0134   20952004.7664   20952009.0174  -21202231.34948 -16487013.06047
       871.0004        678.6984         49.5004         46.6004
  23290525.3534   23290523.7574   23290527.9354   -1192593.60246   -896433.50746
      3545.2094       2762.5014         39.2004         37.1004
 10  1  3  1  9  0.0000000  0  9G22G18G28G15G17G 9G12G27G26
  23783245.2474   23783245.7874   23783247.2704   -3916468.14846  -3043424.60946
       770.0564        600.0404         38.9004         36.6004
  23044075.1334   23044072.8454   23044077.1464   -6098077.60146  -4737530.51946
     -1084.3474       -844.9404         41.8004         39.0004
  23611234.2804   23611234.0444   23611238.0374   -4963598.88846  -3834434.24946
     -2954.1754      -2301.9514         41.6004         39.0004
  21430477.8404   21430477.9254   21430481.1964  -15982165.41748 -12434245.91747
     -2379.3804      -1854.0684         48.4004         45.4004
  22097779.9914   22097780.4054   22097784.1864  -13544108.99747 -10530225.17047
      1064.4714        829.4584         47.7004         44.7004
  20203136.2774   20203135.8744   20203139.6884  -25079758.43548 -19236320.93147
      1774.0734       1382.3984         50.5004         47.5004
  23298788.9884   23298789.5744   23298792.5994   -8101360.95747  -6285976.49346
      3413.4794       2659.8484         43.2004         40.7004
  20947058.9854   20947058.9144   20947063.4794  -21228221.77248 -16507265.33647
       861.6854        671.4424         49.5004         46.6004
  23270312.3314   23270311.7944   23270314.0504   -1298812.12746   -979201.23546
      3536.0314       2755.3444         39.2004         36.7004
 10  1  3  1  9 30.0000000  0  9G22G18G28G15G17G 9G12G27G26
  23778900.2964   23778901.2264   23778903.6414   -3939297.62846  -3061213.82446
       751.8424        585.8504         38.9004         36.6004
  23050314.4234   23050312.9494   23050317.0684   -6065285.20046  -4711978.01146
     -1101.8344       -858.5744         41.8004         39.2004
  23628115.6564   23628114.8424   23628118.1454   -4874893.51746  -3765313.19146
     -2959.5174      -2306.1204         41.6004         38.8004
  21444102.0584   21444102.0204   21444106.8924  -15910564.90048 -12378453.31847
     -2393.9774      -1865.4344         48.4004         45.4004
  22091756.8314   22091757.0324   22091760.6434  -13575762.45847 -10554890.18647
      1045.7184        814.8434         47.7004         44.9004
  20193049.5334   20193049.2914   20193053.3204  -25132762.96348 -19277623.15247
      1759.5314       1371.0634         50.5004         47.3004
  23279322.3944   23279321.4684   23279326.1904   -8203657.27847  -6365687.90846
      3406.2214       2654.1964         43.4004         40.4004
  20942166.4694   20942165.9714   20942170.8014  -21253933.13748 -16527300.16247
       852.3704        664.1824         49.6004         46.6004
  23250152.3084   23250150.8134   23250154.6314   -1404754.89546  -1061754.03146
      3526.7714       2748.1294         39.0004         36.7004
 10  1  3  1 10  0.0000000  0  9G22G18G28G15G17G 9G12G27G26
  23774663.6794   23774661.9674   23774661.7204   -3961578.78246  -3078575.72645
       733.5514        571.5944         38.3004         35.7004
  23056653.6744   23056653.8294   23056657.1574   -6031969.66246  -4686017.86246
     -1119.2404       -872.1404         41.8004         39.2004
  23645025.2544   23645026.1124   23645028.1884   -4786028.46146  -3696067.67946
     -2964.8544      -2310.2814         41.5004         38.6004
  21457810.1514   21457811.3334   21457814.9664  -15838526.99248 -12322319.90747
     -2408.5374      -1876.7834         48.4004         45.6004
  22085841.9074   22085841.5144   22085844.0564  -13606852.50348 -10579116.17447
      1026.9124        800.1864         48.1004         45.1004
  20183046.0894   20183046.0044   20183050.0794  -25185330.61048 -19318584.94147
      1744.9604       1359.7104         50.5004         47.5004
  23259895.8194   23259897.7874   23259901.6584   -8305735.22947  -6445229.16946
      3398.9064       2648.5014         43.4004         40.7004
  20937326.7254   20937326.8674   20937331.1104  -21279364.62348 -16547116.91147
       843.0484        656.9204         49.6004         46.8004
  23230044.8914   23230044.2234   23230046.8804   -1510418.75946  -1144089.48546
      3517.4194       2740.8474         39.2004         37.1004
 10  1  3  1 10 30.0000000  0  9G22G18G28G15G17G 9G12G27G26
  23770522.8114   23770523.1594   23770528.3534   -3983311.15046  -3095509.98845
       715.2744        557.3594         37.3004         34.8004
  23063094.3554   23063093.7034   23063096.5904   -5998132.50747  -4659651.31746
     -1136.5714       -885.6444         42.0004         39.3004
  23661966.2534   23661963.8764   23661969.1824   -4697005.57246  -3626699.20546
     -2970.0664      -2314.3454         41.1004         38.1004
  21471602.5164   21471602.8284   21471605.9484  -15766053.36348 -12265846.97447
     -2423.0334      -1888.0774         48.6004         45.6004
  22080031.9044   22080031.8484   22080035.2484  -13637377.83947 -10602902.11647
      1008.0854        785.5204         47.9004         44.7004
  20173126.6514   20173126.4124   20173129.9474  -25237460.08948 -19359205.30547
      1730.3274       1348.3044         50.5004         47.3004
  23240515.3524   23240515.7564   23240518.4914   -8407593.09447  -6524598.91946
      3391.5334       2642.7524         43.7004         41.1004
  20932540.9884   20932540.7754   20932545.3054  -21304515.86348 -16566715.27547
       833.7164        649.6464         49.6004         46.8004
  23209991.2244   23209990.8804   23209992.5804   -1615800.89246  -1226205.43246
      3508.0154       2733.5174         39.2004         36.7004
 10  1  3  1 11  0.0000000  0  9G22G18G28G15G17G 9G12G27G26
  23766492.5184   23766494.6234   23766498.9814   -4004494.09146  -3112016.15945
       696.9864        543.1104         36.3004         34.1004
  23069630.6284   23069630.5034   23069633.9944   -5963775.27147  -4632879.45846
     -1153.9204       -899.1424         42.0004         39.2004
  23678933.4314   23678933.8674   23678938.1474   -4607826.58946  -3557209.08946
     -2975.1924      -2318.3514         40.6004         37.8004
  21485475.7154   21485476.0964   21485479.9054  -15693146.10748 -12209036.13747
     -2437.4714      -1899.3294         48.6004         45.6004
  22074330.8624   22074330.5394   22074333.7724  -13667337.06447 -10626246.93547
       989.1964        770.8044         47.7004         44.7004
  20163289.7784   20163289.6874   20163293.7224  -25289149.77448 -19399482.97347
      1715.6324       1336.8554         50.5004         47.3004
  23221173.0604   23221173.6774   23221177.4144   -8509229.31847  -6603795.96346
      3384.1614       2637.0104         43.7004         40.7004
  20927808.7174   20927808.3554   20927812.4674  -21329386.36148 -16586094.88447
       824.3374        642.3404         49.8004         47.0004
  23189989.4094   23189990.1334   23189994.7324   -1720898.60146  -1308099.76446
      3498.4884       2726.0974         39.2004         36.9004
 10  1  3  1 11 30.0000000  0  9G22G18G28G15G17G 9G12G27G26
  23762566.8274   23762569.3504   23762571.7154   -4025126.54145  -3128093.39645
       678.5084        528.7094         35.7004         34.1004
  23076268.1004   23076267.2234   23076270.6424   -5928899.59746  -4605703.64246
     -1171.1924       -912.6294         41.6004         38.8004
  23695932.7494   23695934.4194   23695938.6824   -4518493.24546  -3487598.68446
     -2980.3644      -2322.3514         40.4004         37.9004
  21499432.3234   21499432.4784   21499435.9224  -15619806.24948 -12151888.21147
     -2451.8514      -1910.5344         48.4004         45.4004
  22068736.1474   22068737.2894   22068741.0374  -13696729.09947 -10649149.79647
       970.2704        756.0534         47.7004         44.7004
  20153537.8504   20153537.7324   20153541.6414  -25340398.19348 -19439416.80047
      1700.9094       1325.3884         50.5004         47.5004
  23201876.6194   23201876.2164   23201879.8894   -8610642.18547  -6682818.97046
      3376.6864       2631.1724         43.9004         41.2004
  20923129.2114   20923129.2324   20923133.0014  -21353975.38948 -16605255.16847
       814.9294        635.0064         49.8004         46.8004
  23170045.3484   23170044.1824   23170049.6094   -1825708.88846  -1389770.06946
      3488.8294       2718.5674         39.7004         37.4004
 10  1  3  1 12  0.0000000  0  9G22G18G28G15G17G 9G12G27G26
  23758744.3244   23758742.6834   23758748.4154   -4045208.35045  -3143741.55845
       660.2604        514.4884         35.4004         33.8004
  23083002.6424   23083001.3874   23083005.2454   -5893507.27146  -4578125.21746
     -1188.3004       -925.9354         41.3004         38.6004
  23712964.8134   23712964.1024   23712968.9484   -4429007.18846  -3417869.30746
     -2985.4064      -2326.2774         40.9004         38.6004
  21513470.5804   21513470.6044   21513474.0874  -15546035.93748 -12094404.83847
     -2466.1624      -1921.6844         48.4004         45.4004
  22063252.6094   22063252.6864   22063256.2144  -13725552.88047 -10671609.86147
       951.2984        741.2704         47.9004         45.1004
  20143869.8074   20143869.4014   20143873.3414  -25391204.08848 -19479005.80247
      1686.1414       1313.8724         50.5004         47.3004
  23182619.5694   23182621.4924   23182623.7134   -8711830.16947  -6761666.76146
      3369.1564       2625.3224         44.1004         41.2004
  20918502.9714   20918503.2004   20918507.4604  -21378282.30348 -16624195.62547
       805.5054        627.6684         49.6004         46.6004
  23150156.6934   23150156.7054   23150159.9974   -1930228.64946  -1471214.05846
      3479.2084       2711.0704         40.1004         37.6004
 10  1  3  1 12 30.0000000  0  9G22G18G28G15G17G 9G12G27G26
  23755030.9534   23755030.8794   23755031.5114   -4064739.11546  -3158960.31245
       641.7774        500.0834         36.1004         34.5004
  23089835.4514   23089835.5064   23089837.2964   -5857599.75846  -4550145.37546
     -1205.5164       -939.3524         41.5004         38.8004
  23730021.3664   23730020.6474   23730024.8214   -4339370.27546  -3348022.37446
     -2990.3484      -2330.1454         41.3004         38.5004
  21527590.0994   21527590.2724   21527594.0524  -15471836.92148 -12036587.43447
     -2480.4254      -1932.7964         48.6004         45.6004
  22057876.3384   22057876.5714   22057878.9614  -13753806.93248 -10693625.99647
       932.2984        726.4654         48.1004         45.1004
  20134286.5684   20134285.8774   20134290.0104  -25441565.89748 -19518248.77347
      1671.3014       1302.3134         50.5004         47.3004
  23163408.5724   23163408.7984   23163412.1254   -8812791.98847  -6840338.30146
      3361.5764       2619.4174         43.9004         41.1004
  20913932.0804   20913931.5474   20913935.9404  -21402306.53848 -16642915.80247
       796.0864        620.3294         49.6004         46.8004
  23130323.3664   23130321.1654   23130325.5174   -2034455.25146  -1552429.60246
      3469.3574       2703.3944         39.6004         36.7004
 10  1  3  1 13  0.0000000  0  9G22G18G28G15G17G 9G12G27G26
  23751420.4764   23751420.4274   23751420.4444   -4083718.15146  -3173749.17145
       623.4114        485.7774         36.4004         34.6004
  23096767.7524   23096766.2854   23096768.8964   -5821178.87446  -4521765.50146
     -1222.5924       -952.6624         41.8004         39.2004
  23747107.9604   23747107.0084   23747110.6354   -4249584.30146  -3278059.25646
     -2995.3424      -2334.0354         41.1004         38.5004
  21541790.8174   21541790.9934   21541794.7824  -15397210.72548 -11978437.14247
     -2494.6364      -1943.8784         48.6004         45.6004
  22052608.4774   22052608.3684   22052611.9934  -13781490.24248 -10715197.37247
       913.2394        711.6174         48.2004         45.2004
  20124786.8654   20124787.2114   20124791.0974  -25491482.32948 -19557144.69247
      1656.4484       1290.7404         50.5004         47.5004
  23144238.3534   23144237.3244   23144244.0564   -8913525.74647  -6918832.14046
      3353.9644       2613.4844         43.7004         40.7004
  20909413.5384   20909413.7764   20909418.5854  -21426047.59848 -16661415.33347
       786.6524        612.9754         49.6004         46.8004
  23110543.9514   23110544.2154   23110549.5314   -2138385.82846  -1633414.44446
      3459.3284       2695.5814         39.6004         37.3004
 10  1  3  1 13 30.0000000  0  9G22G18G28G15G17G 9G12G27G26
  23747910.0104   23747911.6144   23747916.5184   -4102145.78546  -3188108.31945
       605.0364        471.4604         36.3004         34.5004
  23103793.5764   23103795.4784   23103796.6174   -5784246.08746  -4492986.72646
     -1239.6424       -965.9794         41.8004         39.0004
  23764221.2854   23764220.1094   23764226.1504   -4159650.87846  -3207981.27946
     -3000.2214      -2337.8324         40.9004         38.1004
  21556072.0524   21556072.6704   21556076.5044  -15322159.52448 -11919955.68347
     -2508.7834      -1954.8994         48.4004         45.4004
  22047448.9974   22047448.9274   22047453.5724  -13808601.49948 -10736323.01647
       894.1604        696.7504         48.2004         45.4004
  20115373.9924   20115373.5024   20115377.3444  -25540952.10648 -19595692.56747
      1641.5374       1279.1174         50.5004         47.5004
  23125114.4724   23125114.4854   23125117.1464   -9014029.69647  -6997146.90446
      3346.2764       2607.4904         43.6004         40.7004
  20904950.1214   20904950.2424   20904954.8064  -21449504.93448 -16679693.77847
       777.1704        605.5894         49.8004         47.0004
  23090826.1744   23090824.2664   23090829.4914   -2242017.56646  -1714166.45346
      3449.3814       2687.8214         40.1004         37.8004
 10  1  3  1 14  0.0000000  0  9G22G18G28G15G17G 9G12G27G26
  23744513.2894   23744513.5214   23744512.1614   -4120021.18946  -3202037.22345
       586.6554        457.1294         36.4004         34.8004
  23110918.7254   23110918.2074   23110921.8424   -5746802.97246  -4463810.28346
     -1256.6344       -979.1754         41.5004         38.3004
  23781360.0544   23781361.7824   23781366.0074   -4069571.60546  -3137789.65746
     -3005.0444      -2341.5854         40.4004         37.6004
  21570434.8564   21570434.7764   21570438.8634  -15246684.56648 -11861144.01347
     -2522.9004      -1965.8974         48.4004         45.4004
  22042399.4634   22042399.6174   22042402.3894  -13835139.79448 -10757002.18047
       875.0364        681.8464         48.4004         45.4004
  20106044.8464   20106044.7924   20106049.1664  -25589973.75848 -19633891.26047
      1626.5724       1267.4604         50.5004         47.5004
  23106032.7414   23106033.6884   23106035.5474   -9114302.49447  -7075281.54846
      3338.5454       2601.4684         43.7004         41.2004
  20900540.3334   20900540.4784   20900545.0294  -21472677.89048 -16697750.62547
       767.6884        598.2014         49.8004         47.0004
  23071161.3594   23071161.2554   23071165.4804   -2345347.22646  -1794683.07046
      3439.2764       2679.9574         40.4004         37.9004
 10  1  3  1 14 30.0000000  0  9G22G18G28G15G17G 9G12G27G26
  23741211.4284   23741212.8834   23741216.2994   -4137343.52846  -3215535.10345
       568.2284        442.7764         36.8004         35.0004
  23118142.7234   23118141.7504   23118143.6574   -5708851.85746  -4434237.97746
     -1273.4894       -992.3244         41.3004         38.8004
  23798530.6634   23798529.4754   23798535.9634   -3979348.58146  -3067486.01546
     -3009.7854      -2345.2884         40.3004         37.9004
  21584877.2244   21584877.5444   21584882.1424  -15170787.97148 -11802003.80047
     -2536.8884      -1976.7984         48.4004         45.6004
  22037459.4004   22037458.6934   22037461.3204  -13861104.00048 -10777234.01047
       855.8894        666.9284         48.2004         45.2004
  20096802.8214   20096802.2004   20096805.9504  -25638546.01448 -19671739.77447
      1611.5724       1255.7744         50.5004         47.5004
  23086996.8334   23086995.9714   23086998.8664   -9214342.71147  -7153234.96746
      3330.7694       2595.4124         43.7004         40.9004
  20896185.7114   20896185.3894   20896189.3954  -21495566.05148 -16715585.56047
       758.1944        590.8024         49.8004         47.0004
  23051555.2364   23051555.2104   23051560.3924   -2448372.26246  -1874962.36146
      3429.0394       2671.9814         40.3004         37.8004
 10  1  3  1 15  0.0000000  0  9G22G18G28G15G17G 9G12G27G26
  23738025.0894   23738025.4514   23738026.2344   -4154112.60046  -3228601.92945
       549.7504        428.3744         37.5004         35.5004
  23125460.5934   23125460.1664   23125462.4494   -5670394.24246  -4404271.03846
     -1290.3024      -1005.4224         41.5004         39.0004
  23815727.0594   23815725.0644   23815731.8754   -3888983.15246  -2997071.40146
     -3014.4794      -2348.9474         40.4004         37.8004
  21599399.7864   21599400.4234   21599403.9784  -15094471.58648 -11742536.48347
     -2550.8874      -1987.7044         48.4004         45.2004
  22032626.0254   22032626.6704   22032630.2784  -13886493.06148 -10797017.69147
       836.7184        651.9834         48.2004         45.1004
  20087644.7924   20087645.0474   20087648.7444  -25686667.27148 -19709236.86347
      1596.5004       1244.0294         50.7004         47.5004
  23068002.0084   23068002.6894   23068007.5534   -9314148.75247  -7231005.88946
      3322.9334       2589.2914         43.9004         41.2004
  20891884.2164   20891883.7204   20891888.2994  -21518168.62448 -16733197.94647
       748.6394        583.3644         49.8004         47.0004
  23032008.1354   23032009.3124   23032013.7864   -2551089.60046  -1955001.82546
      3418.7654       2663.9704         40.6004         38.3004
 10  1  3  1 15 30.0000000  0  9G22G18G28G15G17G 9G12G27G26
  23734936.7754   23734937.2144   23734939.7634   -4170327.79846  -3241237.19645
       531.3164        414.0114         37.8004         35.9004
  23132875.5404   23132874.0534   23132876.7054   -5631431.78546  -4373910.71846
     -1307.1664      -1018.5724         41.6004         39.2004
  23832949.4404   23832948.8484   23832953.0884   -3798477.09746  -2926547.19246
     -3019.1984      -2352.6214         40.3004         37.4004
  21614002.4944   21614002.2424   21614005.4984  -15017737.21148 -11682743.46947
     -2564.7644      -1998.5244         48.2004         45.1004
  22027904.8624   22027904.9584   22027908.1614  -13911306.15348 -10816352.55747
       817.4884        637.0024         48.2004         45.1004
  20078574.4364   20078574.0494   20078577.8994  -25734336.26248 -19746381.53647
      1581.4094       1232.2664         50.7004         47.7004
  23049056.3224   23049055.7204   23049059.3014   -9413718.75247  -7308592.91746
      3315.0184       2583.1334         43.9004         41.2004
  20887637.7454   20887637.4404   20887641.7304  -21540485.14848 -16750587.44447
       739.0994        575.9204         50.0004         47.2004
  23012521.3274   23012522.1154   23012525.3974   -2653496.38046  -2034799.32346
      3408.3784       2655.8774         40.6004         37.9004
 10  1  3  1 16  0.0000000  0  9G22G18G28G15G17G 9G12G27G26
  23731959.3144   23731959.8344   23731959.9974   -4185989.10046  -3253440.81046
       512.8384        399.6174         38.9004         36.9004
  23140383.0514   23140383.9094   23140387.7824   -5591966.20347  -4343158.29346
     -1323.9204      -1031.6224         42.0004         39.3004
  23850199.2794   23850198.6374   23850201.8394   -3707831.99346  -2855914.64146
     -3023.8104      -2356.2204         39.7004         37.1004
  21628682.6764   21628683.0154   21628687.6444  -14940586.59448 -11622626.09847
     -2578.6074      -2009.3034         48.1004         45.1004
  22023291.6604   22023292.5584   22023296.1574  -13935541.68748 -10835237.37747
       798.1994        621.9734         48.1004         45.1004
  20069589.4584   20069589.0924   20069593.0564  -25781551.55048 -19783172.66447
      1566.2614       1220.4604         50.7004         47.7004
  23030154.2934   23030153.8564   23030157.2584   -9513051.32147  -7385994.92946
      3307.1304       2576.9844         44.2004         41.6004
  20883445.1984   20883445.2044   20883449.7184  -21562514.88948 -16767753.47247
       729.5324        568.4664         50.0004         47.2004
  22993093.6794   22993093.1564   22993098.5204   -2755589.65246  -2114352.57346
      3397.9214       2647.7304         40.1004         37.4004
 10  1  3  1 16 30.0000000  0  9G22G18G28G15G17G 9G12G27G26
  23729082.9214   23729083.2764   23729083.9974   -4201095.75446  -3265212.24346
       494.2924        385.1644         39.0004         36.9004
  23147989.1954   23147987.3414   23147992.8774   -5551999.37446  -4312015.35046
     -1340.5694      -1044.5894         41.6004         38.6004
  23867473.8734   23867473.9654   23867476.8944   -3617049.60346  -2785175.14846
     -3028.3564      -2359.7584         39.2004         36.9004
  21643443.1714   21643443.7714   21643447.4564  -14863021.49548 -11562185.76247
     -2592.3724      -2020.0274         48.1004         45.1004
  22018791.2904   22018791.5444   22018795.0014  -13959198.95148 -10853671.60047
       778.9394        606.9634         48.1004         45.1004
  20060690.4564   20060690.6584   20060694.6354  -25828311.83148 -19819609.24947
      1551.0804       1208.6374         50.7004         47.7004
  23011295.6114   23011296.7054   23011299.1724   -9612145.11247  -7463210.87246
      3299.0804       2570.7144         44.1004         41.2004
  20879308.1304   20879307.6834   20879312.0884  -21584257.31848 -16784695.61947
       719.9484        560.9994         50.0004         47.2004
  22973725.6644   22973726.9474   22973731.2224   -2857366.50746  -2193659.21746
      3387.2744       2639.4364         40.4004         38.1004
 10  1  3  1 17  0.0000000  0  9G22G18G28G15G17G 9G12G27G26
  23726313.1984   23726313.6784   23726315.5454   -4215648.23346  -3276551.84546
       475.8474        370.7944         39.4004         37.1004
  23155689.3774   23155689.4994   23155692.1444   -5511533.25246  -4280483.31346
     -1357.1644      -1057.5244         41.3004         38.5004
  23884777.5344   23884776.3004   23884776.6524   -3526131.71946  -2714330.05946
     -3032.8324      -2363.2364         39.2004         36.9004
  21658282.9324   21658282.9194   21658285.4304  -14785043.85848 -11501423.96247
     -2606.1414      -2030.7674         48.1004         45.1004
  22014399.5174   22014399.4774   22014403.5494  -13982277.03348 -10871654.51747
       759.5924        591.8884         48.1004         45.1004
  20051879.2734   20051879.0534   20051883.2314  -25874615.63148 -19855690.12847
      1535.8244       1196.7484         50.5004         47.5004
  22992486.5094   22992485.4804   22992488.3624   -9710998.30447  -7540239.30946
      3291.0604       2564.4594         44.2004         41.6004
  20875225.1544   20875224.8614   20875229.6084  -21605711.85348 -16801413.43147
       710.3354        553.5084         49.8004         47.0004
  22954419.1674   22954419.0984   22954424.2244   -2958824.18246  -2272717.12446
      3376.5744       2631.0934         40.6004         38.1004
 10  1  3  1 17 30.0000000  0  9G22G18G28G15G17G 9G12G27G26
  23723648.6174   23723650.2494   23723651.4444   -4229645.67346  -3287458.99046
       457.3134        356.3474         39.0004         36.6004
  23163485.5204   23163485.6764   23163487.1744   -5470569.27246  -4248563.34946
     -1373.7434      -1070.4484         41.1004         38.3004
  23902103.7884   23902102.6034   23902104.8474   -3435079.86346  -2643380.55946
     -3037.2914      -2366.7204         39.4004         37.1004
  21673198.6514   21673198.7014   21673202.8054  -14706655.36548 -11440342.02247
     -2619.7704      -2041.3774         48.1004         44.9004
  22010118.3284   22010118.5664   22010121.9194  -14004774.96448 -10889185.35147
       740.2284        576.7904         48.2004         45.2004
  20043154.7714   20043155.0164   20043159.2084  -25920461.77548 -19891414.39747
      1520.5554       1184.8474         50.7004         47.7004
  22973719.4474   22973719.6644   22973723.8204   -9809609.46047  -7617079.14446
      3282.9594       2558.1484         44.4004         41.4004
  20871197.3274   20871197.2154   20871201.6914  -21626878.00548 -16817906.53547
       700.7264        546.0204         50.0004         47.0004
  22935173.2104   22935173.0374   22935178.9054   -3059959.72146  -2351524.01846
      3365.7824       2622.6844         40.3004         37.8004
 10  1  3  1 18  0.0000000  0  9G22G18G28G15G17G 9G12G27G26
  23721092.3154   23721091.2674   23721094.0464   -4243087.99846  -3297933.50046
       438.8274        341.9414         38.9004         36.2004
  23171374.7294   23171375.0124   23171377.3024   -5429109.32546  -4216256.94146
     -1390.2234      -1083.2974         41.3004         39.0004
  23919454.1834   23919452.6884   23919458.6054   -3343895.86646  -2572328.10746
     -3041.6134      -2370.0794         39.7004         37.6004
  21688193.2234   21688193.8134   21688198.1654  -14627858.18947 -11378941.62547
     -2633.3704      -2051.9734         47.9004         45.1004
  22005946.9284   22005947.2254   22005951.4884  -14026691.62348 -10906263.23347
       720.8474        561.6944         48.2004         45.2004
  20034518.7094   20034518.6144   20034522.2314  -25965848.61048 -19926780.76047
      1505.2184       1172.8944         50.7004         47.8004
  22955001.6454   22955002.1064   22955005.0224   -9907976.99847  -7693729.17946
      3274.8234       2551.8204         44.2004         41.6004
  20867224.9284   20867224.3974   20867228.6294  -21647755.13848 -16834174.42647
       691.0894        538.5064         50.0004         47.0004
  22915991.1054   22915991.4144   22915995.7024   -3160769.86646  -2430077.40346
      3354.9074       2614.2174         41.1004         38.8004
 10  1  3  1 18 30.0000000  0  9G22G18G28G15G17G 9G12G27G26
  23718639.4934   23718639.1084   23718640.8054   -4255974.90046  -3307975.23846
       420.2484        327.4594         38.9004         36.7004
  23179358.0284   23179357.5284   23179361.8044   -5387156.02946  -4183566.06846
     -1406.6634      -1096.1114         41.3004         38.6004
  23936829.8704   23936829.8814   23936834.9154   -3252581.26746  -2501173.85946
     -3045.9654      -2373.4864         39.7004         37.3004
  21703267.1194   21703265.9874   21703269.4734  -14548654.24647 -11317224.26947
     -2646.8644      -2062.4914         47.9004         44.9004
  22001887.5314   22001887.7384   22001891.1804  -14048026.44548 -10922887.74447
       701.5064        546.6294         48.1004         45.2004
  20025968.9014   20025969.0704   20025973.2404  -26010775.19148 -19961788.48447
      1489.8604       1160.9294         50.7004         47.7004
  22936329.9424   22936329.6044   22936332.5534  -10006099.25947  -7770188.07746
      3266.6284       2545.4174         44.6004         41.8004
  20863306.5904   20863306.8764   20863311.2364  -21668342.75848 -16850216.72747
       681.3924        530.9544         50.0004         47.0004
  22896869.5954   22896869.9294   22896873.8264   -3261252.09546  -2508375.21546
      3343.9034       2605.6364         41.3004         38.6004
 10  1  3  1 19  0.0000000  0  9G22G18G28G15G17G 9G12G27G26
  23716293.5224   23716292.5694   23716295.5024   -4268306.15046  -3317583.95946
       401.7864        313.0794         39.6004         37.3004
  23187435.5394   23187436.3674   23187438.1374   -5344710.54146  -4150491.66446
     -1423.0434      -1108.8664         41.5004         39.2004
  23954230.8824   23954229.7944   23954234.7694   -3161137.89946  -2429919.31746
     -3050.2674      -2376.8144         39.6004         37.1004
  21718413.7994   21718414.4344   21718418.7924  -14469045.52347 -11255191.50347
     -2660.3814      -2073.0174         47.7004         44.7004
  21997938.4384   21997938.9724   21997942.0544  -14068778.48148 -10939058.13647
       681.9984        531.4274         48.1004         45.2004
  20017508.0604   20017507.8844   20017511.7694  -26055239.72748 -19996436.16347
      1474.4304       1148.9004         50.7004         47.7004
  22917703.4624   22917704.3104   22917708.1484  -10103974.87447  -7846454.78446
      3258.4064       2539.0194         44.6004         41.9004
  20859444.4874   20859444.0914   20859448.8664  -21688640.12448 -16866032.85847
       671.7264        523.4234         50.0004         47.0004
  22877813.1094   22877812.0534   22877815.1144   -3361403.47146  -2586415.25146
      3332.8374       2597.0184         41.1004         38.6004
 10  1  3  1 19 30.0000000  0  9G22G18G28G15G17G 9G12G27G26
  23714053.0294   23714052.5284   23714053.0994   -4280081.65246  -3326759.70346
       383.2124        298.6114         39.4004         36.9004
  23195605.5984   23195604.8824   23195608.6274   -5301775.10446  -4117035.46646
     -1439.3204      -1121.5424         41.6004         39.2004
  23971656.1464   23971656.7954   23971659.1854   -3069567.35446  -2358565.64646
     -3054.4134      -2380.0784         39.4004         36.7004
  21733639.8724   21733640.8404   21733644.0544  -14389033.45747 -11192844.42747
     -2673.7374      -2083.4284         47.7004         44.7004
  21994101.4914   21994101.1224   21994104.1604  -14088946.46448 -10954773.41047
       662.4804        516.2164         48.2004         45.2004
  20009134.8214   20009134.7664   20009138.4334  -26099241.24048 -20030723.05747
      1459.0114       1136.8944         50.8004         47.7004
  22899126.5594   22899126.7544   22899129.7044  -10201602.49347  -7922528.25446
      3250.0894       2532.5354         44.8004         41.9004
  20855637.0744   20855637.2184   20855641.7154  -21708646.74148 -16881622.43147
       662.0304        515.8694         50.0004         47.2004
  22858816.7214   22858816.6194   22858820.8554   -3461220.92146  -2664195.07846
      3321.6324       2588.2824         41.3004         38.6004
 10  1  3  1 20  0.0000000  0  9G22G18G28G15G17G 9G12G27G26
  23711913.3654   23711915.6844   23711918.3004   -4291300.97846  -3335502.04145
       364.7024        284.1804         38.5004         35.9004
  23203868.9204   23203868.5664   23203872.9024   -5258351.68346  -4083199.03446
     -1455.5764      -1134.2274         41.6004         38.6004
  23989106.5764   23989106.9234   23989107.4454   -2977871.23546  -2287114.11746
     -3058.6504      -2383.3754         39.0004         36.7004
  21748943.3364   21748943.2784   21748945.9024  -14308620.27347 -11130184.81147
     -2687.1124      -2093.8534         47.7004         44.9004
  21990374.7234   21990374.8204   21990377.8094  -14108529.59548 -10970032.96447
       643.0254        501.0604         48.4004         45.4004
  20000850.4974   20000849.6844   20000853.6704  -26142778.57348 -20064648.24347
      1443.4834       1124.7924         50.8004         47.8004
  22880597.7294   22880597.4134   22880599.1024  -10298980.33347  -7998407.09047
      3241.7384       2526.0414         44.8004         42.1004
  20851885.9804   20851885.6664   20851890.0124  -21728361.91848 -16896984.90347
       652.2954        508.2774         50.0004         47.2004
  22839885.0494   22839886.4474   22839889.5074   -3560701.52046  -2741712.36846
      3310.4174       2579.5504         41.3004         38.8004
 10  1  3  1 20 30.0000000  0  9G22G18G28G15G17G 9G12G27G26
  23709891.9474   23709891.3814   23709888.5654   -4301964.48646  -3343811.29345
       346.1534        269.7294         38.0004         35.5004
  23212225.1194   23212223.7314   23212227.2944   -5214442.43546  -4048984.04346
     -1471.7384      -1146.8084         41.3004         38.3004
  24006579.9254   24006578.3524   24006581.7024   -2886051.01046  -2215565.86346
     -3062.7564      -2386.5674         38.9004         36.2004
  21764320.7624   21764321.6414   21764324.9414  -14227807.37547 -11067213.70647
     -2700.4084      -2104.2094         47.9004         45.2004
  21986759.2354   21986759.2374   21986762.5804  -14127527.49948 -10984836.49347
       623.4994        485.8314         48.2004         45.4004
  19992653.6504   19992653.4634   19992657.4184  -26185850.10548 -20098210.47247
      1427.9354       1112.6734         50.8004         47.8004
  22862113.8184   22862113.2934   22862116.1534  -10396107.02147  -8074090.19747
      3233.3454       2519.4924         44.9004         42.3004
  20848189.4884   20848189.2814   20848193.7934  -21747785.24648 -16912119.96547
       642.5694        500.7074         50.0004         47.2004
  22821018.6114   22821019.9844   22821023.6124   -3659842.63146  -2818965.18046
      3299.0744       2570.7014         40.9004         38.1004
 10  1  3  1 21  0.0000000  0  9G22G18G28G15G17G 9G12G27G26
  23707964.7064   23707964.5704   23707965.1244   -4312071.86546  -3351687.18345
       327.7084        255.3534         37.0004         34.6004
  23220672.1414   23220672.3764   23220675.0694   -5170048.79846  -4014391.62346
     -1487.8604      -1159.3624         41.3004         38.5004
  24024077.2824   24024075.2024   24024078.1514   -2794108.56946  -2143922.42246
     -3066.8034      -2389.7174         38.7004         36.4004
  21779773.9154   21779774.8024   21779779.2864  -14146597.40748 -11003933.23347
     -2713.5944      -2114.4904         48.2004         45.2004
  21983255.9904   21983256.0324   21983258.8284  -14145939.48548 -10999183.49047
       603.9454        470.6034         48.4004         45.6004
  19984545.9034   19984545.9914   19984549.7174  -26228454.40548 -20131408.63247
      1412.3284       1100.5154         50.7004         47.7004
  22843678.9344   22843679.3124   22843682.3594  -10492980.83747  -8149576.27647
      3224.9014       2512.9174         45.1004         42.3004
  20844549.0704   20844548.7904   20844553.3144  -21766916.17548 -16927027.18247
       632.8164        493.1004         50.0004         47.2004
  22802220.8844   22802219.9964   22802224.3914   -3758641.13646  -2895950.99546
      3287.4864       2561.6754         41.5004         39.2004
 10  1  3  1 21 30.0000000  0  9G22G18G28G15G17G 9G12G27G26
  23706148.5464   23706146.6964   23706146.3384   -4321622.74446  -3359129.38845
       309.0994        240.8594         36.3004         34.1004
  23229211.4364   23229212.0784   23229215.5054   -5125172.79046  -3979423.30946
     -1503.8924      -1171.8604         41.5004         38.6004
  24041595.6204   24041593.6394   24041597.0854   -2702045.57246  -2072185.04145
     -3070.7494      -2392.7974         38.3004         35.9004
  21795303.8854   21795304.0484   21795306.9064  -14064992.06648 -10940344.64247
     -2726.7484      -2124.7464         48.2004         45.1004
  21979864.2584   21979863.9044   21979866.8954  -14163764.46148 -11013073.05547
       584.3384        455.3234         48.4004         45.4004
  19976528.6234   19976527.9404   19976531.4934  -26270590.43548 -20164241.89847
      1396.7304       1088.3584         50.7004         47.7004
  22825293.4774   22825292.6794   22825296.9164  -10589600.21747  -8224864.08747
      3216.3694       2506.2704         45.1004         42.1004
  20840963.5584   20840964.0054   20840968.2764  -21785753.91548 -16941705.94747
       623.0264        485.4734         50.0004         47.2004
  22783483.7094   22783484.5634   22783489.5694   -3857094.12846  -2972667.57646
      3275.9354       2552.6724         41.8004         39.3004
 10  1  3  1 22  0.0000000  0  9G22G18G28G15G17G 9G12G27G26
  23704437.1994   23704436.1184   23704437.6814   -4330617.00946  -3366137.87745
       290.4904        226.3534         36.8004         35.2004
  23237842.7304   23237841.3484   23237846.9004   -5079816.66546  -3944080.89346
     -1519.8444      -1184.2784         41.3004         38.6004
  24059135.9614   24059134.8684   24059139.0894   -2609863.51346  -2000354.87446
     -3074.6814      -2395.8524         38.5004         36.4004
  21810907.1254   21810907.5324   21810911.1224  -13982993.20547 -10876449.43247
     -2739.8184      -2134.9214         47.9004         44.9004
  21976583.6734   21976583.8694   21976587.1844  -14181001.49748 -11026504.49547
       564.7484        440.0654         48.6004         45.6004
  19968599.0954   19968598.9704   19968602.9294  -26312256.97248 -20196709.33147
      1381.0294       1076.1274         50.8004         47.8004
  22806957.3144   22806956.2034   22806959.5554  -10685964.11347  -8299952.82347
      3207.8544       2499.6304         45.3004         42.6004
  20837435.4034   20837435.4344   20837439.6464  -21804297.69548 -16956155.64847
       613.2124        477.8284         50.0004         47.2004
  22764816.1834   22764816.3924   22764819.9644   -3955198.64646  -3049112.63346
      3264.3294       2543.6354         41.8004         39.2004
 10  1  3  1 22 30.0000000  0  9G22G18G28G15G17G 9G12G27G26
  23702831.5744   23702832.3324   23702830.5784   -4339054.86946  -3372712.75545
       272.0054        211.9554         37.5004         35.9004
  23246563.8694   23246564.8834   23246567.6574   -5033982.57746  -3908366.02146
     -1535.7564      -1196.6854         41.5004         39.0004
  24076700.5824   24076699.6534   24076704.0284   -2517563.87846  -1928433.08346
     -3078.6114      -2398.9164         39.0004         36.6004
  21826584.7724   21826585.5994   21826590.1734  -13900602.83148 -10812249.14447
     -2752.8604      -2145.0894         48.1004         44.9004
  21973414.3344   21973414.6514   21973418.7424  -14197649.98248 -11039477.31747
       545.1294        424.7764         48.6004         45.4004
  19960759.6694   19960759.6404   19960763.8714  -26353452.45148 -20228809.70347
      1365.3114       1063.8794         50.8004         47.8004
  22788668.9494   22788667.9334   22788670.1434  -10782070.92347  -8374841.23947
      3199.2444       2492.9174         45.5004         42.6004
  20833963.3524   20833962.6484   20833966.8734  -21822547.12048 -16970375.98547
       603.4084        470.1864         50.0004         47.2004
  22746214.5264   22746215.2164   22746219.1644   -4052951.71747  -3125283.85046
      3252.5384       2534.4424         42.2004         39.9004
 10  1  3  1 23  0.0000000  0  9G22G18G28G15G17G 9G12G27G26
  23701330.7244   23701330.1114   23701331.8444   -4346936.28246  -3378854.10846
       253.4294        197.4734         38.2004         36.2004
  23255378.2994   23255377.1504   23255381.1534   -4987672.18946  -3872280.00346
     -1551.5574      -1209.0044         41.5004         39.0004
  24094285.4954   24094286.7324   24094289.4904   -2425148.57946  -1856421.17846
     -3082.3944      -2401.8654         39.0004         36.6004
  21842339.2764   21842338.6254   21842341.3264  -13817823.13847 -10747745.49647
     -2765.8134      -2155.1854         47.9004         44.7004
  21970358.8984   21970359.4284   21970362.8504  -14213709.21448 -11051990.97247
       525.4714        409.4554         48.4004         45.6004
  19953010.6404   19953010.1154   19953014.2454  -26394175.51748 -20260541.95747
      1349.5274       1051.5784         50.8004         47.7004
  22770426.8164   22770427.4294   22770431.2834  -10877918.88747  -8449527.92647
      3190.6284       2486.2144         45.3004         42.5004
  20830545.7984   20830545.9434   20830550.3744  -21840501.74548 -16984366.60847
       593.5754        462.5264         50.2004         47.2004
  22727679.6564   22727679.2114   22727684.6354   -4150350.52847  -3201178.98046
      3240.6594       2525.1904         42.3004         39.7004
 10  1  3  1 23 30.0000000  0  9G22G18G28G15G17G 9G12G27G26
  23699938.0114   23699937.2774   23699938.1144   -4354261.05946  -3384561.68846
       234.8214        182.9764         38.7004         36.6004
  23264279.9104   23264280.3214   23264283.3964   -4940887.61546  -3835824.52646
     -1567.3894      -1221.3364         41.3004         38.6004
  24111894.5234   24111894.8764   24111893.3924   -2332619.12446  -1784320.29045
     -3086.1574      -2404.8024         38.5004         35.9004
  21858163.9594   21858164.8734   21858168.3454  -13734655.88947 -10682939.84247
     -2778.6934      -2165.2174         47.9004         44.9004
  21967415.8554   21967415.9864   21967419.3144  -14229178.63048 -11064045.04347
       505.8204        394.1414         48.6004         45.8004
  19945350.5974   19945351.0404   19945355.0084  -26434425.05148 -20291905.23847
      1333.7464       1039.2824         50.7004         47.8004
  22752238.3084   22752238.5984   22752240.8504  -10973506.70447  -8524011.92647
      3181.8914       2479.3944         45.3004         42.5004
  20827185.9104   20827185.6164   20827190.0154  -21858161.06448 -16998127.11547
       583.7004        454.8324         50.2004         47.2004
  22709213.7874   22709214.0124   22709218.1804   -4247392.03647  -3276795.75446
      3228.7824       2515.9214         42.5004         39.9004
 10  1  3  1 24  0.0000000  0  9G22G18G28G15G17G 9G12G27G26
  23698649.8924   23698648.6994   23698649.8454   -4361029.33846  -3389835.63346
       216.2884        168.5374         38.5004         36.2004
  23273272.8594   23273271.9824   23273276.1224   -4893631.22346  -3799001.34446
     -1583.0734      -1233.5624         40.9004         38.1004
  24129521.9854   24129523.1294   24129525.3344   -2239977.20746  -1712131.79145
     -3089.9064      -2407.7144         38.0004         35.5004
  21874064.8484   21874064.8704   21874068.4124  -13651103.06348 -10617833.75047
     -2791.5094      -2175.2064         48.1004         45.2004
  21964582.6454   21964583.5514   21964587.2234  -14244057.60348 -11075639.01847
       486.1164        378.7854         48.4004         45.4004
  19937782.4884   19937782.3284   19937786.0674  -26474199.80148 -20322898.55247
      1317.8924       1026.9324         50.8004         47.8004
  22734098.0124   22734098.2924   22734101.4174  -11068832.86447  -8598292.02547
      3173.1594       2472.5834         45.5004         42.8004
  20823881.7894   20823881.2854   20823885.8924  -21875524.21448 -17011656.84147
       573.8244        447.1354         50.2004         47.3004
  22690814.4264   22690815.3844   22690820.2964   -4344073.55647  -3352132.01046
      3216.7464       2506.5574         42.5004         39.7004
 10  1  3  1 24 30.0000000  0  9G22G18G28G15G17G 9G12G27G26
  23697469.4374   23697466.8894   23697467.7124   -4367240.97846  -3394675.89346
       197.7594        154.0984         38.3004         36.2004
  23282354.3284   23282355.2234   23282358.8324   -4845904.70346  -3761811.89546
     -1598.7104      -1245.7434         40.8004         38.1004
  24147174.0294   24147173.9894   24147175.0554   -2147224.18846  -1639856.68645
     -3093.6404      -2410.6284         37.6004         35.3004
  21890036.6454   21890036.7874   21890040.1254  -13567166.78047 -10552428.85847
     -2804.2524      -2185.1354         47.9004         44.7004
  21961865.2624   21961865.5974   21961868.8054  -14258345.44348 -11086772.38447
       466.3944        363.4254         48.6004         45.8004
  19930304.2664   19930303.8204   19930308.0244  -26513498.56448 -20353520.96047
      1302.0034       1014.5454         50.8004         47.8004
  22716007.3384   22716008.0954   22716011.1404  -11163896.02847  -8672367.19147
      3164.3424       2465.7174         45.6004         42.6004
  20820633.9274   20820633.6834   20820638.1954  -21892590.76548 -17024955.45147
       563.9354        439.4314         50.2004         47.3004
  22672488.7034   22672486.9854   22672490.9224   -4440391.90447  -3427185.26146
      3204.5354       2497.0354         42.5004         39.9004
 10  1  3  1 25  0.0000000  0  9G22G18G28G15G17G 9G12G27G26
  23696389.7414   23696390.0754   23696391.3584   -4372896.22146  -3399082.55945
       179.2724        139.6964         37.8004         35.7004
  23291525.0864   23291526.2704   23291528.0174   -4797710.43546  -3724257.90646
     -1614.2714      -1257.8834         40.4004         37.8004
  24164843.3204   24164845.2354   24164846.8594   -2054361.81746  -1567496.36945
     -3097.2494      -2413.4264         37.6004         35.7004
  21906081.7264   21906081.7974   21906084.9354  -13482848.95547 -10486726.65147
     -2816.9504      -2195.0304         47.5004         44.5004
  21959259.5544   21959259.1874   21959262.5674  -14272041.64148 -11097444.72247
       446.6594        348.0514         48.8004         45.8004
  19922916.2344   19922916.3544   19922920.0484  -26552320.07848 -20383771.49647
      1286.0644       1002.1274         50.8004         47.8004
  22697967.9734   22697968.3724   22697972.0724  -11258694.38647  -8746236.02247
      3155.4884       2458.8174         45.6004         43.0004
  20817442.6094   20817442.6574   20817446.8414  -21909360.09548 -17038022.45947
       554.0084        431.6964         50.2004         47.2004
  22654228.9954   22654228.5814   22654232.1914   -4536344.24547  -3501953.32246
      3192.3124       2487.5234         42.5004         39.9004
 10  1  3  1 25 30.0000000  0  9G22G18G28G15G17G 9G12G27G26
  23695420.3904   23695419.5154   23695422.9944   -4377995.20646  -3403055.82946
       160.5814        125.1264         38.2004         36.0004
  23300784.8424   23300783.8794   23300788.3624   -4749050.69946  -3686341.23946
     -1629.7234      -1269.9234         40.6004         38.1004
  24182535.5964   24182535.3774   24182539.2534   -1961391.75846  -1495052.20645
     -3100.7914      -2416.1994         37.8004         35.9004
  21922198.6784   21922198.9414   21922203.3644  -13398151.45547 -10420728.61147
     -2829.5794      -2204.8664         47.5004         44.5004
  21956765.6844   21956765.7214   21956768.9474  -14285145.50148 -11107655.51347
       426.9134        332.6584         48.8004         45.8004
  19915619.8264   19915620.1914   19915624.1254  -26590663.20548 -20413649.25748
      1270.1064        989.6924         50.8004         48.0004
  22679980.1424   22679980.5534   22679983.6444  -11353226.89047  -8819897.70847
      3146.6164       2451.9064         45.8004         43.0004
  20814309.0554   20814308.5474   20814312.5394  -21925831.47148 -17050857.29547
       544.0604        423.9444         50.2004         47.3004
  22636039.2234   22636039.0254   22636043.2164   -4631927.82347  -3576434.03046
      3179.9604       2477.8924         42.5004         39.9004
 10  1  3  1 26  0.0000000  0  9G22G18G28G15G17G 9G12G27G26
  23694555.4304   23694554.9834   23694556.5284   -4382538.01946  -3406595.70546
       142.2164        110.8214         38.2004         36.2004
  23310134.9714   23310134.2084   23310137.1844   -4699927.36846  -3648063.32046
     -1645.1094      -1281.9044         41.3004         39.2004
  24200245.9604   24200247.4794   24200251.1404   -1868315.42046  -1422525.20345
     -3104.2754      -2418.9164         37.8004         35.3004
  21938387.6294   21938388.1724   21938391.5844  -13313076.77547 -10354436.67047
     -2842.1064      -2214.6304         47.4004         44.4004
  21954384.1854   21954384.6074   21954388.4754  -14297656.73648 -11117404.50647
       407.1744        317.2704         48.8004         45.8004
  19908414.7644   19908414.7974   19908419.0964  -26628526.53248 -20443153.14748
      1254.0794        977.2034         51.0004         48.0004
  22662041.0454   22662041.0444   22662045.0084  -11447491.72647  -8893350.80547
      3137.6924       2444.9514         45.6004         42.8004
  20811230.6654   20811230.5234   20811235.0674  -21942004.47848 -17063459.62947
       534.1174        416.1924         50.2004         47.3004
  22617919.7114   22617920.3874   22617925.2994   -4727139.51747  -3650624.96746
      3167.5234       2468.2034         42.3004         39.7004
 10  1  3  1 26 30.0000000  0  9G22G18G28G15G17G 9G12G27G26
  23693795.2684   23693796.1534   23693797.0844   -4386524.59646  -3409702.17546
       123.6844         96.3794         38.3004         36.4004
  23319569.3864   23319568.2654   23319572.7724   -4650342.72146  -3609425.94146
     -1660.5304      -1293.9214         41.5004         38.5004
  24217978.7614   24217978.9014   24217982.5954   -1775134.43146  -1349916.67145
     -3107.8184      -2421.6794         37.1004         35.2004
  21954648.7144   21954648.9814   21954652.1404  -13227626.95647 -10287852.38447
     -2854.5734      -2224.3394         47.2004         44.0004
  21952116.5264   21952117.1444   21952120.1774  -14309574.69848 -11126691.21447
       387.3684        301.8444         48.8004         45.8004
  19901301.5344   19901301.2694   19901305.3534  -26665908.79648 -20472282.17948
      1238.0344        964.7054         51.0004         48.0004
  22644154.8634   22644154.5534   22644158.2414  -11541487.63647  -8966594.35747
      3128.6694       2437.9154         45.8004         42.8004
  20808210.2394   20808209.9624   20808214.4714  -21957878.50748 -17075828.99647
       524.1554        408.4344         50.2004         47.3004
  22599873.4134   22599873.4644   22599877.9854   -4821976.52847  -3724523.94946
      3155.0014       2458.4514         42.7004         40.0004
 10  1  3  1 27  0.0000000  0  9G22G18G28G15G17G 9G12G27G26
  23693146.0014   23693144.1134   23693145.9114   -4389954.94946  -3412375.17346
       105.0944         81.8934         38.9004         36.9004
  23329092.1014   23329091.9694   23329095.2364   -4600298.78346  -3570430.68246
     -1675.7424      -1305.7654         41.1004         38.5004
  24235730.2354   24235729.5924   24235734.7004   -1681850.05346  -1277227.54145
     -3111.2104      -2424.3144         37.0004         35.2004
  21970980.1654   21970980.5314   21970985.1784  -13141803.35947 -10220976.85647
     -2867.0034      -2234.0294         47.2004         44.4004
  21949961.7504   21949961.4754   21949965.1774  -14320898.50748 -11135514.94147
       367.5544        286.4084         48.6004         45.6004
  19894279.9124   19894279.2284   19894283.3084  -26702808.72248 -20501035.36548
      1221.9354        952.1554         51.0004         48.0004
  22626318.4014   22626319.2014   22626323.1194  -11635213.11947  -9039627.18447
      3119.6484       2430.8814         45.8004         43.0004
  20805247.0764   20805246.5824   20805250.4024  -21973452.84948 -17087964.84447
       514.1414        400.6234         50.2004         47.3004
  22581895.9794   22581898.0674   22581902.8904   -4916435.76747  -3798128.54946
      3142.3154       2448.5464         42.7004         39.7004
 10  1  3  1 27 30.0000000  0  9G22G18G28G15G17G 9G12G27G26
  23692595.9184   23692597.0084   23692597.5164   -4392829.52546  -3414615.10046
        86.6104         67.4914         38.9004         37.1004
  23338702.7604   23338702.3224   23338705.8134   -4549797.80446  -3531079.26846
     -1690.9494      -1317.6194         40.9004         38.1004
  24253500.3344   24253500.3384   24253504.2844   -1588464.20446  -1204459.30245
     -3114.5794      -2426.9424         37.1004         35.2004
  21987383.3134   21987383.6174   21987385.8854  -13055608.47447 -10153812.01847
     -2879.3364      -2243.6484         47.4004         44.2004
  21947919.6074   21947920.1544   21947923.1654  -14331627.81248 -11143875.42847
       347.7144        270.9424         48.6004         45.6004
  19887349.5304   19887349.5634   19887353.4294  -26739225.32648 -20529411.94248
      1205.8144        939.5954         51.0004         48.0004
  22608535.2014   22608535.1394   22608538.3844  -11728666.79647  -9112448.19247
      3110.5404       2423.8124         45.8004         42.8004
  20802339.8634   20802339.7404   20802343.7954  -21988726.87848 -17099866.67347
       504.1234        392.8224         50.2004         47.2004
  22563995.1694   22563995.7264   22564000.0424   -5010514.51447  -3871436.66546
      3129.5834       2438.6334         42.5004         39.7004
 10  1  3  1 28  0.0000000  0  9G22G18G28G15G17G 9G12G27G26
  23692153.5194   23692154.4364   23692157.8514   -4395148.38046  -3416422.00246
        68.0094         52.9934         39.6004         37.4004
  23348399.0954   23348399.1404   23348399.9164   -4498842.03246  -3491373.49546
     -1706.0894      -1329.4184         40.6004         37.6004
  24271289.3484   24271290.4774   24271295.4684   -1494978.75246  -1131613.48645
     -3117.8874      -2429.5224         37.3004         35.3004
  22003855.1774   22003855.7294   22003858.7634  -12969044.36347 -10086359.46947
     -2891.5994      -2253.1934         47.0004         43.9004
  21945991.4064   21945991.9004   21945994.7464  -14341762.21748 -11151772.35347
       327.8844        255.4944         48.6004         45.8004
  19880512.6724   19880511.8994   19880515.7784  -26775157.48048 -20557411.01548
      1189.6434        926.9984         51.0004         48.0004
  22590804.2014   22590804.2374   22590807.6834  -11821847.07947  -9185056.19547
      3101.4144       2416.6894         46.0004         43.2004
  20799490.7764   20799490.3734   20799494.5714  -22003700.23048 -17111534.21747
       494.0924        385.0084         50.2004         47.3004
  22546165.8434   22546166.4814   22546170.7384   -5104209.67947  -3944445.87946
      3116.7054       2428.5984         42.5004         39.9004
 10  1  3  1 28 30.0000000  0  9G22G18G28G15G17G 9G12G27G26
  23691822.4364   23691821.3024   23691822.4724   -4396911.73346  -3417796.04746
        49.4644         38.5464         40.4004         38.3004
  23358180.9514   23358181.5634   23358183.7524   -4447433.38746  -3451314.83746
     -1721.1304      -1341.1484         40.4004         37.9004
  24289102.2014   24289100.2424   24289101.2984   -1401394.81446  -1058690.92245
     -3121.0644      -2431.9984         37.5004         35.3004
  22020397.9584   22020398.1714   22020402.1844  -12882113.29647 -10018620.98847
     -2903.7984      -2262.6964         47.0004         44.4004
  21944176.1644   21944176.4614   21944179.9304  -14351301.27348 -11159205.37147
       308.0474        240.0384         48.8004         45.8004
  19873766.2714   19873766.7134   19873770.7334  -26810603.53348 -20585031.31848
      1173.4324        914.3654         51.0004         48.0004
  22573123.8184   22573124.0814   22573127.7814  -11914752.78147  -9257450.22547
      3092.2564       2409.5584         46.2004         43.3004
  20796699.0224   20796698.3884   20796702.9344  -22018372.14448 -17122966.87447
       484.0174        377.1574         50.2004         47.3004
  22528411.0524   22528411.5514   22528414.5724   -5197518.44147  -4017154.00746
      3103.7444       2418.4964         42.9004         40.2004
 10  1  3  1 29  0.0000000  0  9G22G18G28G15G17G 9G12G27G26
  23691589.1464   23691589.8344   23691591.5364   -4398119.97846  -3418737.53646
        31.0204         24.1734         40.8004         38.3004
  23368050.8384   23368049.7684   23368052.7054   -4395574.62846  -3410905.43946
     -1736.0584      -1352.7704         40.4004         37.8004
  24306925.5084   24306924.8104   24306929.1554   -1307713.95546   -985692.85845
     -3124.3024      -2434.5224         37.6004         35.3004
  22037009.6054   22037009.9314   22037014.1284  -12794816.95847  -9950597.86647
     -2915.9384      -2272.1574         47.4004         44.4004
  21942475.3854   21942474.6264   21942477.8104  -14360244.72548 -11166174.27247
       288.1874        224.5594         48.8004         45.8004
  19867114.1924   19867114.0294   19867118.1394  -26845562.74748 -20612272.26147
      1157.1764        901.6944         50.8004         47.8004
  22555498.1614   22555497.8094   22555501.4654  -12007382.29247  -9329629.03347
      3083.0234       2402.3554         46.2004         43.3004
  20793963.3364   20793963.4324   20793968.1744  -22032742.23048 -17134164.34047
       473.9644        369.3224         50.2004         47.2004
  22510728.9404   22510728.3714   22510732.9724   -5290437.87947  -4089558.73846
      3090.7774       2408.3964         42.9004         40.0004
 10  1  3  1 29 30.0000000  0  9G22G18G28G15G17G 9G12G27G26
  23691465.4384   23691466.2514   23691467.6804   -4398773.16246  -3419246.52346
        12.5234          9.7564         40.9004         38.5004
  23378004.0584   23378003.1194   23378005.7314   -4343267.62746  -3370146.74246
     -1750.9954      -1364.4154         40.1004         37.6004
  24324769.7894   24324768.6854   24324774.9424   -1213937.89946   -912620.58845
     -3127.4404      -2436.9674         37.3004         35.2004
  22053690.7404   22053691.5394   22053694.9534  -12707157.78847  -9882292.03047
     -2928.0264      -2281.5794         47.2004         44.2004
  21940885.6644   21940886.0254   21940888.6624  -14368592.34248 -11172678.89047
       268.3414        209.0984         48.6004         45.6004
  19860554.6474   19860554.5334   19860558.4834  -26880033.61948 -20639132.67748
      1140.8854        888.9974         50.8004         48.0004
  22537924.0164   22537924.7604   22537927.2644  -12099734.24147  -9401591.57547
      3073.7614       2395.1304         46.2004         43.3004
  20791286.8444   20791286.6004   20791291.3364  -22046809.75948 -17145126.04247
       463.8694        361.4574         50.2004         47.3004
  22493121.8844   22493121.5814   22493125.3924   -5382965.05647  -4161657.83646
      3077.6614       2398.1964         42.9004         40.2004
 10  1  3  1 30  0.0000000  0  9G22G18G28G15G17G 9G12G27G26
  23691446.9084   23691446.3044   23691448.6214   -4398871.80346  -3419323.39746
        -5.9764         -4.6584         41.5004         38.6004
  23388041.8584   23388042.2044   23388044.6364   -4290514.83346  -3329040.69346
     -1765.8344      -1375.9504         40.1004         37.6004
  24342632.4534   24342632.3344   24342639.0774   -1120068.15346   -839475.35845
     -3130.5024      -2439.3624         37.0004         35.0004
  22070441.3504   22070441.4214   22070443.7464  -12619137.64447  -9813704.90547
     -2939.9744      -2290.8864         47.4004         44.4004
  21939411.4344   21939411.5074   21939413.8064  -14376343.44048 -11178718.68647
       248.3984        193.5544         48.8004         45.8004
  19854088.1224   19854087.8434   19854092.1014  -26914015.15948 -20665611.78748
      1124.5524        876.2774         50.8004         48.0004
  22520402.2074   22520402.5154   22520405.9844  -12191807.20247  -9473336.73547
      3064.3874       2387.8394         46.2004         43.2004
  20788667.1504   20788667.3654   20788671.9554  -22060574.23348 -17155851.60747
       453.7554        353.5754         50.2004         47.3004
  22475588.1704   22475588.8244   22475592.4354   -5475097.06247  -4233449.00746
      3064.4124       2387.8364         42.9004         40.0004
 10  1  3  1 30 30.0000000  0  9G22G18G28G15G17G 9G12G27G26
  23691531.5764   23691532.7774   23691535.9364   -4398416.27646  -3418968.44546
       -24.4554        -19.0604         41.3004         38.8004
  23398164.5094   23398164.3984   23398166.8144   -4237318.45846  -3287589.00646
     -1780.6604      -1387.5264         40.1004         37.9004
  24360516.5334   24360516.0194   24360517.8834   -1026105.95246   -766258.07845
     -3133.5954      -2441.7744         37.1004         35.3004
  22087258.7994   22087258.6884   22087262.6314  -12530758.78047  -9744838.27147
     -2951.9034      -2300.1814         47.4004         44.4004
  21938048.8724   21938049.0454   21938052.6814  -14383497.60548 -11184293.33547
       228.5134        178.0614         48.6004         45.6004
  19847714.7134   19847714.8694   19847719.0804  -26947506.22648 -20691708.71948
      1108.1824        863.5184         51.0004         48.0004
  22502935.7834   22502934.7294   22502939.1634  -12283599.65647  -9544863.31647
      3055.0424       2380.5614         46.2004         43.3004
  20786106.0084   20786105.7254   20786110.3484  -22074035.18348 -17166340.65847
       443.6224        345.6774         50.2004         47.3004
  22458132.6714   22458132.5094   22458136.2344   -5566830.98647  -4304929.98846
      3051.0794       2377.4514         43.0004         40.4004
 10  1  3  1 31  0.0000000  0  9G22G18G28G15G17G 9G12G27G26
  23691726.2594   23691725.2164   23691727.2924   -4397406.87546  -3418181.91246
       -42.8734        -33.4114         41.3004         38.6004
  23408372.5844   23408372.0904   23408375.0164   -4183680.66046  -3245793.34546
     -1795.2764      -1398.9164         40.6004         38.1004
  24378411.7184   24378412.4734   24378415.5574    -932053.14746   -692970.18745
     -3136.5984      -2444.0944         37.5004         35.5004
  22104143.9274   22104144.4894   22104147.7544  -12442023.40447  -9675693.81647
     -2963.8064      -2309.4624         47.2004         44.2004
  21936801.3704   21936801.6814   21936805.5404  -14390054.55448 -11189402.62547
       208.5904        162.5444         48.6004         45.8004
  19841435.9074   19841435.4644   19841439.4494  -26980505.60648 -20717422.51248
      1091.7624        850.7214         51.0004         48.0004
  22485521.1314   22485521.8264   22485524.7344  -12375110.52347  -9616170.47547
      3045.6684       2373.2524         46.3004         43.5004
  20783602.8054   20783602.5784   20783606.6004  -22087192.00148 -17176592.72047
       433.4824        337.7764         50.2004         47.3004
  22440752.9014   22440752.2184   22440755.6214   -5658164.08147  -4376098.62546
      3037.7734       2367.0954         42.9004         39.9004
 10  1  3  1 31 30.0000000  0  9G22G18G28G15G17G 9G12G27G26
  23692020.7474   23692022.3804   23692024.6374   -4395843.43646  -3416963.68246
       -61.3164        -47.7814         40.8004         38.3004
  23418663.7964   23418662.5444   23418665.7334   -4129603.74846  -3203655.49646
     -1809.7974      -1410.2314         40.4004         37.6004
  24396326.8254   24396327.4714   24396328.6134    -837911.33046   -619612.84545
     -3139.5254      -2446.3884         37.1004         35.2004
  22121097.9774   22121097.4184   22121101.3964  -12352933.42047  -9606273.05247
     -2975.5744      -2318.6294         47.2004         44.4004
  21935667.4374   21935667.6344   21935670.7244  -14396014.06148 -11194046.38447
       188.6794        147.0234         48.8004         45.6004
  19835249.8124   19835249.5784   19835253.2924  -27013012.31348 -20742752.41748
      1075.3214        837.9084         51.0004         48.0004
  22468161.4374   22468162.0464   22468164.5914  -12466338.08947  -9687256.86347
      3036.1524       2365.8314         46.5004         43.7004
  20781156.7164   20781156.7184   20781161.2514  -22100043.94048 -17186607.21847
       423.2984        329.8454         50.3004         47.3004
  22423450.7274   22423449.5644   22423453.2734   -5749093.23447  -4446952.51146
      3024.2084       2356.5324         43.0004         40.4004
 10  1  3  1 32  0.0000000  0  9G22G18G28G15G17G 9G12G27G26
  23692427.5644   23692426.4294   23692428.5724   -4393726.55046  -3415314.19946
       -79.8344        -62.2064         40.8004         38.3004
  23429034.9894   23429032.7804   23429039.5394   -4075090.07546  -3161177.32646
     -1824.4164      -1421.6044         40.1004         37.3004
  24414259.0084   24414257.9814   24414262.0564    -743681.62746   -546187.08145
     -3142.4724      -2448.6834         36.8004         34.6004
  22138118.0554   22138118.4684   22138122.0324  -12263490.87547  -9536577.58047
     -2987.2394      -2327.7204         47.4004         44.4004
  21934647.9764   21934647.8684   21934649.7974  -14401375.91848 -11198224.42547
       168.7634        131.4964         48.6004         45.6004
  19829157.9064   19829157.9144   19829161.6864  -27045024.77848 -20767697.18848
      1058.8324        825.0624         51.0004         48.0004
  22450855.2284   22450856.1504   22450858.9444  -12557281.06147  -9758121.50247
      3026.6384       2358.4244         46.7004         43.7004
  20778769.2814   20778769.2084   20778773.4734  -22112590.31048 -17196383.61247
       413.1294        321.9194         50.3004         47.5004
  22406223.1954   22406223.8584   22406226.6894   -5839615.47847  -4517489.36846
      3010.5564       2345.8694         43.0004         40.4004
 10  1  3  1 32 30.0000000  0  9G22G18G28G15G17G 9G12G27G26
  23692934.0424   23692934.3364   23692936.9514   -4391057.00646  -3413234.06446
       -98.2384        -76.5514         40.4004         37.9004
  23439493.3664   23439491.6904   23439494.7164   -4020142.56246  -3118361.10946
     -1838.8004      -1432.8324         39.9004         37.4004
  24432205.7954   24432206.2034   24432208.4314    -649365.89146   -472694.24645
     -3145.3044      -2450.8934         37.1004         35.2004
  22155204.9264   22155205.1964   22155209.2914  -12173698.32447  -9466609.34647
     -2998.9334      -2336.8274         47.4004         44.4004
  21933740.5944   21933740.5484   21933744.0114  -14406140.02848 -11201936.69547
       148.8284        115.9694         48.6004         45.6004
  19823160.5514   19823160.1544   19823164.2234  -27076542.12348 -20792256.15348
      1042.3174        812.1954         51.0004         48.0004
  22433604.6844   22433604.1474   22433607.9374  -12647938.20047  -9828763.39447
      3017.1404       2351.0114         46.9004         44.0004
  20776440.6494   20776440.1164   20776444.5634  -22124830.69048 -17205921.57047
       402.9024        313.9514         50.3004         47.5004
  22389076.2114   22389075.3814   22389080.3054   -5929728.24647  -4587707.09846
      2996.9174       2335.2404         43.2004         40.6004
 10  1  3  1 33  0.0000000  0  9G22G18G28G15G17G 9G12G27G26
  23693548.6674   23693545.8694   23693549.1174   -4387834.86046  -3410723.38346
      -116.6544        -90.9034         40.1004         37.4004
  23450029.0924   23450030.4204   23450033.7124   -3964762.64346  -3075207.91446
     -1853.1624      -1444.0204         40.3004         37.8004
  24450168.7704   24450170.0924   24450172.6144    -554965.40346   -399135.46145
     -3148.0324      -2453.0084         37.0004         35.0004
  22172358.6774   22172358.9954   22172362.7184  -12083557.75547  -9396369.95847
     -3010.4624      -2345.8184         47.5004         44.7004
  21932948.5464   21932948.6694   21932951.5764  -14410305.92048 -11205182.84247
       128.8904        100.4364         48.8004         45.9004
  19817257.1254   19817257.1884   19817261.0364  -27107563.43648 -20816428.60348
      1025.7534        799.2854         51.0004         48.2004
  22416407.1174   22416406.3554   22416410.3454  -12738308.14047  -9899181.52947
      3007.5274       2343.5234         46.7004         43.3004
  20774169.7484   20774169.2914   20774173.4494  -22136764.50348 -17215220.64647
       392.6754        305.9834         50.5004         47.5004
  22372005.5914   22372005.4624   22372011.0804   -6019428.46647  -4657603.37046
      2983.1504       2324.5294         43.2004         40.2004
 10  1  3  1 33 30.0000000  0  9G22G18G28G15G17G 9G12G27G26
  23694265.5064   23694266.9024   23694267.8404   -4384060.88046  -3407782.61446
      -134.9914       -105.1914         39.9004         37.8004
  23460651.2734   23460651.0984   23460652.2434   -3908953.26546  -3031720.12446
     -1867.4014      -1455.1184         40.4004         37.8004
  24468149.2824   24468149.9964   24468152.7584    -460481.71146   -325511.80845
     -3150.8344      -2455.2034         37.1004         35.0004
  22189578.1044   22189577.8754   22189581.2384  -11993071.09947  -9325860.87547
     -3021.9594      -2354.7744         47.7004         44.5004
  21932269.5554   21932268.8034   21932272.2964  -14413873.50848 -11207962.74347
       108.9394         84.8844         48.8004         45.8004
  19811448.4824   19811448.7824   19811452.7224  -27138087.28648 -20840213.41548
      1009.1464        786.3504         51.2004         48.2004
  22399265.1244   22399264.9494   22399268.3094  -12828389.28547  -9969374.62547
      2997.8574       2336.0014         46.5004         43.3004
  20771957.1034   20771956.6914   20771960.7424  -22148391.13548 -17224280.35747
       382.4304        298.0044         50.3004         47.5004
  22355014.3744   22355015.3834   22355020.0744   -6108713.13447  -4727175.86846
      2969.2444       2313.6984         43.0004         40.4004
 10  1  3  1 34  0.0000000  0  9G22G18G28G15G17G 9G12G27G26
  23695087.7374   23695088.2394   23695090.6264   -4379735.31346  -3404412.04546
      -153.4684       -119.5894         39.9004         37.6004
  23471353.5844   23471352.9754   23471355.2594   -3852716.55746  -2987899.34246
     -1881.7154      -1466.2674         40.3004         37.8004
  24486144.9244   24486144.1334   24486148.5394    -365916.37446   -251824.58645
     -3153.5284      -2457.2914         36.8004         34.8004
  22206861.6844   22206862.2664   22206865.1734  -11902240.94747  -9255084.13947
     -3033.3704      -2363.6614         47.4004         44.4004
  21931703.1004   21931704.3024   21931707.6264  -14416842.52748 -11210276.25447
        89.0034         69.3524         48.8004         45.9004
  19805735.8334   19805735.3594   19805739.1024  -27168112.78648 -20863609.91148
       992.5384        773.4094         51.2004         48.4004
  22382177.9074   22382178.1434   22382180.7784  -12918180.27947 -10039341.61647
      2988.1474       2328.4314         46.3004         43.2004
  20769803.1784   20769802.9424   20769806.9984  -22159709.91448 -17233100.18847
       372.1584        289.9954         50.5004         47.5004
  22338104.4934   22338105.2624   22338109.6804   -6197579.37047  -4796422.27846
      2955.2234       2302.7714         43.6004         41.1004
 10  1  3  1 34 30.0000000  0  9G22G18G28G15G17G 9G12G27G26
  23696017.4094   23696017.3994   23696018.3374   -4374858.46146  -3400611.92546
      -171.7394       -133.8264         40.3004         37.9004
  23482132.3114   23482133.5164   23482137.8754   -3796055.19546  -2943747.63646
     -1895.7764      -1477.2304         40.1004         37.4004
  24504155.1014   24504155.8484   24504156.6644    -271270.92446   -178074.94845
     -3156.1464      -2459.3394         36.4004         34.5004
  22224211.2524   22224211.3724   22224213.6714  -11811069.39547  -9184041.37047
     -3044.7194      -2372.5124         47.4004         44.0004
  21931253.8534   21931252.7954   21931256.1234  -14419212.79348 -11212123.20347
        69.0104         53.7734         48.9004         45.8004
  19800116.5864   19800116.2574   19800120.1854  -27197638.80248 -20886617.19348
       975.8634        760.4114         51.2004         48.2004
  22365148.4494   22365148.2684   22365150.4674  -13007679.87347 -10109081.53047
      2978.4504       2320.8654         46.5004         43.9004
  20767708.0284   20767707.6674   20767711.7664  -22170720.36448 -17241679.76647
       361.8614        281.9694         50.5004         47.5004
  22321274.5844   22321274.6704   22321278.8334   -6286024.33247  -4865340.43346
      2941.0904       2291.7514         43.9004         41.1004
 10  1  3  1 35  0.0000000  0  9G22G18G28G15G17G 9G12G27G26
  23697051.0424   23697050.3184   23697052.2364   -4369430.95646  -3396382.69746
      -190.0654       -148.1024         40.6004         38.1004
  23492997.6394   23492998.5344   23493000.5514   -3738971.29946  -2899266.70646
     -1909.8204      -1488.1694         39.9004         37.4004
  24522182.5884   24522180.3214   24522180.5434    -176546.62846   -104263.83245
     -3158.8034      -2461.4084         36.3004         34.5004
  22241624.8624   22241625.1474   22241628.8224  -11719558.10947  -9112733.87947
     -3056.0304      -2381.3324         47.2004         44.0004
  21930915.7794   21930915.8644   21930919.5574  -14420984.51548 -11213503.73547
        49.0714         38.2324         48.9004         45.8004
  19794592.9694   19794592.7994   19794596.7874  -27226664.23148 -20909234.41648
       959.1584        747.3944         51.0004         48.0004
  22348171.6094   22348172.4414   22348175.1824  -13096886.88847 -10178593.46947
      2968.6384       2313.2234         46.7004         44.0004
  20765671.7334   20765671.2254   20765675.1384  -22181421.83248 -17250018.57247
       351.5474        273.9344         50.5004         47.5004
  22304525.7754   22304525.9654   22304528.7044   -6374045.17747  -4933928.08946
      2926.9184       2280.7194         43.9004         41.2004
 10  1  3  1 35 30.0000000  0  9G22G18G28G15G17G 9G12G27G26
  23698185.2754   23698187.3844   23698188.5394   -4363453.15446  -3391724.65246
      -208.4904       -162.4634         40.4004         37.6004
  23503940.9664   23503939.5024   23503942.9304   -3681467.35046  -2854458.45446
     -1923.8554      -1499.1024         40.1004         37.6004
  24540222.4214   24540220.0584   24540223.2024     -81745.14146    -30392.51945
     -3161.3154      -2463.3604         36.4004         34.6004
  22259102.0854   22259103.3734   22259107.0874  -11627709.49747  -9041163.54447
     -3067.2424      -2390.0604         47.0004         44.0004
  21930692.4644   21930692.1324   21930695.7314  -14422157.28048 -11214417.56247
        29.0944         22.6684         48.8004         45.6004
  19789164.5854   19789164.8204   19789169.3074  -27255188.18948 -20931460.87948
       942.4334        734.3664         51.0004         48.2004
  22331252.0294   22331251.9394   22331255.8934  -13185799.66447 -10247876.14247
      2958.8254       2305.5764         47.0004         44.2004
  20763693.9294   20763693.6144   20763697.8234  -22191813.88048 -17258116.27047
       341.2464        265.9074         50.5004         47.5004
  22287857.1364   22287856.9854   22287860.0984   -6461638.94447  -5002182.94146
      2912.6514       2269.5944         43.9004         41.2004
 10  1  3  1 36  0.0000000  0  9G22G18G28G15G17G 9G12G27G26
  23699428.8414   23699428.6624   23699432.0564   -4356925.52946  -3386638.16746
      -226.7554       -176.6924         40.4004         38.1004
  23514962.0164   23514962.3464   23514964.6354   -3623545.77046  -2809324.76246
     -1937.6504      -1509.8614         40.4004         37.8004
  24558276.9694   24558275.4244   24558277.2544      13132.17446     43537.88045
     -3163.8164      -2465.3174         36.1004         34.3004
  22276645.7314   22276645.4044   22276649.0394  -11535525.96447  -8969332.21447
     -3078.3434      -2398.7094         47.0004         44.0004
  21930584.2624   21930583.8664   21930586.9484  -14422730.84048 -11214864.48247
         9.1414          7.1244         48.8004         45.9004
  19783832.7864   19783832.6124   19783837.0004  -27283209.28448 -20953295.49648
       925.6404        721.2764         51.2004         48.4004
  22314388.4944   22314389.0034   22314392.3964  -13274416.90547 -10316928.51647
      2948.9544       2297.8784         47.0004         44.0004
  20761775.5184   20761775.0164   20761779.2864  -22201895.97648 -17265972.44947
       330.8944        257.8364         50.5004         47.5004
  22271269.9314   22271270.8414   22271273.9274   -6548802.84447  -5070102.82746
      2898.2594       2258.3624         44.1004         41.2004
 10  1  3  1 36 30.0000000  0  9G22G18G28G15G17G 9G12G27G26
  23700778.4234   23700775.5684   23700776.9024   -4349849.34246  -3381124.24546
      -245.0084       -190.9094         40.4004         37.8004
  23526066.8964   23526063.9304   23526067.0894   -3565209.20246  -2763867.72346
     -1951.3914      -1520.5614         40.4004         37.6004
  24576342.1904   24576342.5734   24576346.2234     108083.77146    117526.18145
     -3166.2924      -2467.2334         36.1004         34.3004
  22294248.7954   22294250.3764   22294254.1944  -11443009.62747  -8897241.57247
     -3089.3924      -2407.3194         47.0004         43.9004
  21930588.7354   21930588.4694   21930591.1294  -14422705.46148 -11214844.70047
       -10.8394         -8.4474         48.8004         45.6004
  19778596.4734   19778596.4814   19778600.5804  -27310726.47948 -20974737.47648
       908.8384        708.1874         51.2004         48.4004
  22297582.7704   22297582.1454   22297585.3394  -13362737.57447 -10385749.81547
      2939.0694       2290.1874         47.0004         44.2004
  20759915.9604   20759915.5674   20759919.8574  -22211667.19748 -17273586.39047
       320.5134        249.7494         50.5004         47.5004
  22254764.7474   22254765.0154   22254769.4364   -6635533.99147  -5137685.50046
      2883.7994       2247.1044         44.2004         41.4004
 10  1  3  1 37  0.0000000  0  9G22G18G28G15G17G 9G12G27G26
  23702225.6634   23702226.8374   23702230.7014   -4342224.64146  -3375182.88846
      -263.3184       -205.1874         40.3004         37.8004
  23537243.0204   23537242.0604   23537245.3894   -3506459.99346  -2718089.09546
     -1965.1544      -1531.2854         39.9004         37.1004
  24594422.8884   24594425.3044   24594429.8154     203108.28746    191571.25745
     -3168.6334      -2469.0604         36.3004         34.5004
  22311918.8374   22311919.1544   22311922.0544  -11350162.62547  -8824893.26947
     -3100.3994      -2415.8964         46.9004         43.7004
  21930706.8624   21930706.9624   21930710.3254  -14422081.13948 -11214358.20747
       -30.7764        -23.9874         48.6004         45.6004
  19773456.4344   19773456.0324   19773460.2844  -27337738.82248 -20995786.05548
       891.9684        695.0364         51.2004         48.4004
  22280831.4944   22280831.7714   22280834.3924  -13450759.91547 -10454338.64647
      2929.0574       2282.3934         46.9004         43.9004
  20758115.8924   20758115.4474   20758119.7194  -22221127.15348 -17280957.78747
       310.1404        241.6684         50.5004         47.5004
  22238343.8164   22238343.2304   22238347.4784   -6721829.38547  -5204928.63746
      2869.2584       2235.7704         44.1004         41.2004
 10  1  3  1 37 30.0000000  0  9G22G18G28G15G17G 9G12G27G26
  23703782.7064   23703782.3774   23703783.9234   -4334052.11446  -3368814.72346
      -281.5154       -219.3654         39.9004         37.3004
  23548499.1844   23548500.0514   23548504.6724   -3447300.01946  -2671990.46446
     -1978.8534      -1541.9564         39.4004         36.9004
  24612521.9104   24612521.2054   24612525.6864     298204.16646    265671.95045
     -3170.9704      -2470.8864         36.1004         34.0004
  22329649.1794   22329648.9144   22329653.2984  -11256987.30047  -8752289.12647
     -3111.2934      -2424.3864         46.9004         43.7004
  21930940.4504   21930940.2954   21930943.2594  -14420857.75948 -11213404.89947
       -50.7574        -39.5524         48.8004         45.9004
  19768411.8964   19768411.9204   19768416.5724  -27364245.22248 -21016440.39548
       875.0934        681.8884         51.2004         48.4004
  22264138.8524   22264138.7684   22264141.5574  -13538482.68747 -10522694.05247
      2919.0944       2274.6104         47.0004         44.2004
  20756374.5564   20756374.5704   20756378.9874  -22230275.53548 -17288086.39747
       299.7354        233.5594         50.5004         47.7004
  22222003.9354   22222004.8774   22222009.4814   -6807686.31247  -5271830.09846
      2854.5564       2224.3464         44.1004         41.4004
 10  1  3  1 38  0.0000000  0  9G22G18G28G15G17G 9G12G27G26
  23705441.4974   23705441.3084   23705443.3674   -4325332.80246  -3362020.43246
      -299.7714       -233.5854         39.2004         36.6004
  23559836.9404   23559837.1254   23559838.7314   -3387732.60446  -2625574.30446
     -1992.3134      -1552.4544         39.7004         37.6004
  24630631.6504   24630632.5164   24630633.7504     393370.02845    339827.15645
     -3173.5564      -2472.9004         35.7004         34.0004
  22347442.1454   22347442.7254   22347446.3964  -11163485.75847  -8679430.77847
     -3122.1354      -2432.8324         46.7004         43.7004
  21931286.7024   21931286.5164   21931290.5814  -14419035.39048 -11211984.86647
       -70.6904        -55.0804         48.9004         45.8004
  19763465.0804   19763464.8864   19763468.8524  -27390244.51748 -21036699.59148
       858.1764        668.7074         51.4004         48.4004
  22247502.6834   22247502.8074   22247506.0284  -13625904.93147 -10590815.26047
      2909.0304       2266.7744         47.0004         44.0004
  20754693.4454   20754693.2444   20754697.5404  -22239111.70948 -17294971.72947
       289.3354        225.4634         50.5004         47.7004
  22205750.9504   22205752.2754   22205755.0314   -6893101.93947  -5338387.71146
      2839.8084       2212.8314         43.9004         40.9004
 10  1  3  1 38 30.0000000  0  9G22G18G28G15G17G 9G12G27G26
  23707205.0964   23707205.4884   23707207.0954   -4316066.81746  -3354800.18646
      -318.0474       -247.8244         39.2004         36.7004
  23571250.0884   23571247.8024   23571252.2544   -3327759.92946  -2578842.37746
     -2005.8514      -1563.0014         39.9004         37.6004
  24648755.2144   24648754.2704   24648757.3784     488604.61745    414035.92345
     -3175.6504      -2474.5284         35.4004         33.6004
  22365297.9454   22365297.0334   22365300.0654  -11069660.26347  -8606319.99347
     -3132.9174      -2441.2284         46.7004         43.9004
  21931747.1784   21931747.7044   21931750.6674  -14416614.02048 -11210098.08047
       -90.6974        -70.6724         48.8004         45.8004
  19758614.1594   19758613.8534   19758617.6854  -27415735.88248 -21056562.99848
       841.2234        655.5014         51.4004         48.4004
  22230924.7104   22230924.7824   22230927.8204  -13713025.44647 -10658701.36147
      2898.9624       2258.9344         47.2004         44.4004
  20753071.7354   20753071.4584   20753075.1904  -22247635.01348 -17301613.26447
       278.8814        217.3124         50.5004         47.5004
  22189583.5044   22189581.7484   22189586.7664   -6978073.49247  -5404599.30346
      2824.9534       2201.2624         43.9004         41.2004
 10  1  3  1 39  0.0000000  0  9G22G18G28G15G17G 9G12G27G26
  23709072.2134   23709071.8674   23709074.1744   -4306255.13046  -3347154.70246
      -336.2344       -262.0034         39.0004         36.7004
  23582738.1964   23582738.2244   23582741.2464   -3267384.50646  -2531796.60946
     -2019.2574      -1573.4374         40.1004         37.4004
  24666892.7004   24666889.7814   24666894.7344     583906.21245    488296.92245
     -3177.8734      -2476.2634         35.4004         33.8004
  22383212.6484   22383212.3364   22383215.8324  -10975513.17247  -8532958.62947
     -3143.5964      -2449.5534         46.7004         43.7004
  21932322.3224   21932322.0724   21932325.7874  -14413593.92748 -11207744.72647
      -110.6674        -86.2304         48.8004         45.6004
  19753859.7114   19753859.7554   19753863.6964  -27440718.30648 -21076029.81848
       824.2584        642.2764         51.2004         48.2004
  22214405.0544   22214404.2654   22214407.8154  -13799842.19447 -10726350.75747
      2888.7724       2250.9864         47.5004         44.7004
  20751509.3874   20751509.1454   20751512.9314  -22255844.83548 -17308010.53347
       268.4294        209.1674         50.5004         47.5004
  22173496.5404   22173497.6324   22173501.6994   -7062597.97047  -5470462.50946
      2810.0284       2189.6364         44.1004         41.4004
 10  1  3  1 39 30.0000000  0  9G22G18G28G15G17G 9G12G27G26
  23711042.5624   23711040.9184   23711044.7664   -4295898.44146  -3339084.57546
      -354.3254       -276.0904         38.9004         36.6004
  23594303.9334   23594302.4464   23594305.5964   -3206608.74946  -2484438.88246
     -2032.5064      -1583.7684         39.9004         37.4004
  24685035.2834   24685036.8324   24685041.9864     679273.57245    562609.13245
     -3179.8774      -2477.8304         35.4004         34.0004
  22401188.1704   22401188.8314   22401191.7044  -10881046.52847  -8459348.25047
     -3154.1904      -2457.8094         46.5004         43.5004
  21933010.5864   21933010.9914   21933014.4404  -14409974.92748 -11204924.71447
      -130.6194       -101.7814         48.8004         45.8004
  19749202.9284   19749202.8324   19749207.1294  -27465190.83648 -21095099.32248
       807.2194        629.0014         51.2004         48.4004
  22197940.9164   22197940.9194   22197944.7144  -13886354.25347 -10793762.74747
      2878.6034       2243.0634         47.5004         44.7004
  20750006.8604   20750006.6094   20750010.8194  -22263740.53548 -17314163.03047
       257.9344        200.9894         50.5004         47.7004
  22157499.5354   22157498.9684   22157503.2814   -7146672.54747  -5535975.15646
      2794.9814       2177.9084         44.6004         41.9004
 10  1  3  1 40  0.0000000  0  9G22G18G28G15G17G 9G12G27G26
  23713120.2674   23713116.9714   23713118.8974   -4284997.16546  -3330590.03446
      -372.4154       -290.1924         38.5004         36.2004
  23605944.2164   23605943.9904   23605947.0504   -3145435.63946  -2436771.57546
     -2045.7514      -1594.0994         39.9004         37.6004
  24703197.4544   24703196.2874   24703199.6734     774705.09645    636971.38245
     -3182.0134      -2479.4914         35.6004         34.0004
  22419225.0474   22419225.4564   22419228.2624  -10786262.76147  -8385490.76847
     -3164.7204      -2466.0264         46.5004         43.5004
  21933813.7514   21933813.6704   21933816.3444  -14405756.99448 -11201637.99947
      -150.6144       -117.3644         48.8004         45.8004
  19744643.9174   19744643.4454   19744647.1064  -27489152.73048 -21113770.93148
       790.2084        615.7474         51.4004         48.4004
  22181537.4354   22181536.9804   22181540.3844  -13972560.44047 -10860936.38947
      2868.4314       2235.1394         47.9004         45.1004
  20748563.9534   20748563.4724   20748567.9994  -22271321.67848 -17320070.41747
       247.4504        192.8214         50.5004         47.7004
  22141586.4474   22141586.4334   22141590.3524   -7230294.62447  -5601135.17746
      2779.8014       2166.0674         44.8004         41.8004
 10  1  3  1 40 30.0000000  0  9G22G18G28G15G17G 9G12G27G26
  23715293.8934   23715295.2204   23715296.9324   -4273552.30346  -3321671.97646
      -390.5334       -304.3084         38.5004         36.2004
  23617661.0024   23617658.6704   23617664.0344   -3083867.34046  -2388796.29746
     -2058.8754      -1604.3164         40.1004         37.8004
  24721370.5364   24721368.4954   24721374.0014     870199.52845    711382.66745
     -3184.1004      -2481.1144         35.2004         33.6004
  22437321.6014   22437321.8004   22437325.1184  -10691164.21747  -8311388.01647
     -3175.1474      -2474.1374         46.5004         43.7004
  21934729.3344   21934729.8434   21934732.6854  -14400940.68548 -11197885.01547
      -170.5234       -132.8794         48.6004         45.6004
  19740180.3304   19740180.6474   19740184.5964  -27512602.63248 -21132043.58648
       773.1234        602.4314         51.2004         48.4004
  22165189.9314   22165190.5564   22165193.7284  -14058459.31847 -10927870.56747
      2858.1764       2227.1434         47.7004         44.9004
  20747180.7834   20747180.9684   20747185.3674  -22278587.58848 -17325732.17647
       236.9334        184.6184         50.5004         47.7004
  22125760.3854   22125760.2074   22125763.8604   -7313461.16547  -5665940.28646
      2764.6334       2154.2544         44.6004         41.8004
 10  1  3  1 41  0.0000000  0  9G22G18G28G15G17G 9G12G27G26
  23717577.3274   23717577.7094   23717577.3684   -4261564.77846  -3312331.07146
      -408.6564       -318.4374         38.9004         36.7004
  23629449.8764   23629450.5524   23629454.1714   -3021906.33146  -2340514.98146
     -2071.8834      -1614.4424         40.1004         37.3004
  24739552.9134   24739548.4204   24739562.0394     965755.04445    785841.49045
     -3185.9054      -2482.5194         34.9004         33.1004
  22455477.6794   22455478.3084   22455481.5384  -10595753.20947  -8237041.76447
     -3185.5404      -2482.2354         46.5004         43.5004
  21935759.4874   21935760.1044   21935763.6864  -14395525.98348 -11193665.75147
      -190.4904       -148.4414         48.6004         45.6004
  19735815.9944   19735815.8194   19735819.9024  -27535539.86248 -21149916.74348
       756.0184        589.1064         51.4004         48.4004
  22148904.2294   22148903.6294   22148906.7684  -14144050.01247 -10994564.60547
      2847.8504       2219.1094         47.7004         44.7004
  20745858.8034   20745858.5264   20745862.9414  -22285537.69848 -17331147.85247
       226.3904        176.4044         50.5004         47.7004
  22110021.1794   22110020.9164   22110025.4174   -7396169.51547  -5730388.35446
      2749.2104       2142.2374         44.6004         41.9004
 10  1  3  1 41 30.0000000  0  9G22G18G28G15G17G 9G12G27G26
  23719958.4534   23719960.1844   23719963.0734   -4249035.35946  -3302567.89546
      -426.6964       -332.4954         39.2004         36.7004
  23641316.6834   23641314.6554   23641318.8034   -2959555.54146  -2291929.97446
     -2084.8594      -1624.5774         39.7004         37.1004
  24757749.4884   24757751.6064   24757748.9224    1061370.90145    860347.35045
     -3188.3294      -2484.4194         34.9004         33.1004
  22473693.6094   22473693.4444   22473696.8394  -10500031.54047  -8162453.45447
     -3195.8454      -2490.2764         46.5004         43.5004
  21936904.9624   21936904.8094   21936907.2274  -14389513.11848 -11188980.39147
      -210.4214       -163.9624         48.8004         45.8004
  19731549.3984   19731549.0074   19731552.8954  -27557963.43848 -21167389.65648
       738.8664        575.7394         51.4004         48.4004
  22132674.5934   22132675.2224   22132678.2224  -14229330.59047 -11061017.00347
      2837.4944       2211.0414         47.7004         44.9004
  20744596.4334   20744596.2424   20744600.5074  -22292171.46548 -17336317.02947
       215.8454        168.1904         50.5004         47.7004
  22094370.7294   22094370.6364   22094373.7594   -7478416.54747  -5794476.96746
      2733.8554       2130.2654         44.6004         41.8004
 10  1  3  1 42  0.0000000  0  9G22G18G28G15G17G 9G12G27G26
  23722446.9064   23722446.5204   23722448.9684   -4235964.80846  -3292383.07646
      -444.7394       -346.5564         38.9004         36.6004
  23653254.8874   23653254.4144   23653259.1004   -2896817.12746  -2243042.91046
     -2097.8094      -1634.6674         39.6004         36.9004
  24775955.3414   24775955.2334   24775962.7604    1157045.72645    934899.18045
     -3190.2034      -2485.8734         34.5004         33.3004
  22491968.4404   22491967.6724   22491971.5044  -10404001.57447  -8087624.89847
     -3206.1304      -2498.2874         46.7004         43.7004
  21938162.4014   21938162.1194   21938165.4744  -14382902.30448 -11183829.08747
      -230.3584       -179.5014         48.6004         45.6004
  19727379.6494   19727379.5894   19727383.7944  -27579872.10748 -21184461.33748
       721.7104        562.3714         51.4004         48.4004
  22116506.8224   22116506.0364   22116508.7754  -14314300.02347 -11127226.93547
      2827.0974       2202.9324         47.9004         44.9004
  20743393.8654   20743393.6744   20743398.4534  -22298488.45948 -17341239.37147
       205.2694        159.9494         50.5004         47.7004
  22078806.6234   22078807.1064   22078811.4364   -7560199.55447  -5858203.99647
      2718.2634       2118.1274         44.8004         42.3004
 10  1  3  1 42 30.0000000  0  9G22G18G28G15G17G 9G12G27G26
  23725038.6814   23725037.5114   23725038.6074   -4222353.88546  -3281777.16446
      -462.7634       -360.5994         38.9004         36.6004
  23665267.9114   23665266.4874   23665269.2424   -2833693.59846  -2193855.79946
     -2110.5264      -1644.5484         39.4004         36.9004
  24794172.5684   24794171.1774   24794175.8224    1252777.95145   1009495.65645
     -3192.0634      -2487.3224         34.2004         32.9004
  22510299.2364   22510299.6124   22510302.9294  -10307665.70547  -8012557.99147
     -3216.2634      -2506.1764         46.5004         43.5004
  21939533.7584   21939534.5544   21939536.9194  -14375693.52248 -11178211.85847
      -250.2584       -195.0114         48.6004         45.8004
  19723308.7894   19723308.6114   19723312.7124  -27601265.15948 -21201131.24948
       704.5004        548.9624         51.4004         48.4004
  22100395.4714   22100396.3274   22100399.1644  -14398957.07147 -11193193.45047
      2816.6834       2194.8204         47.7004         44.7004
  20742252.3894   20742252.4294   20742256.7434  -22304488.00748 -17345914.35147
       194.6874        151.7044         50.5004         47.7004
  22063334.3944   22063333.9544   22063337.4404   -7641515.78747  -5921567.30747
      2702.7254       2106.0194         45.3004         42.6004
 10  1  3  1 43  0.0000000  0  9G22G18G28G15G17G 9G12G27G26
  23727729.6804   23727729.7274   23727732.6604   -4208203.67146  -3270751.07346
      -480.6684       -374.5464         39.2004         37.1004
  23677350.0134   23677350.2164   23677354.5544   -2770188.05046  -2144370.98546
     -2123.2434      -1654.4624         38.9004         36.2004
  24812401.7754   24812400.4734   24812402.6524    1348565.92745   1084135.61345
     -3193.8174      -2488.6994         34.3004         32.9004
  22528689.5344   22528689.7084   22528693.1454  -10211026.35647  -7937254.60447
     -3226.3504      -2514.0474         46.5004         43.3004
  21941020.3444   21941020.2984   21941023.1274  -14367887.30348 -11172129.06647
      -270.1764       -210.5294         48.9004         45.9004
  19719335.8824   19719336.1254   19719339.8424  -27622141.57948 -21217398.58648
       687.2634        535.5294         51.4004         48.4004
  22084346.0604   22084346.1954   22084349.1184  -14483300.81647 -11258915.82647
      2806.2154       2186.6564         47.7004         44.7004
  20741172.0274   20741171.5494   20741175.5784  -22310169.71148 -17350341.66247
       184.0764        143.4324         50.7004         47.7004
  22047948.5784   22047948.7344   22047952.1174   -7722362.43547  -5984564.71247
      2687.0274       2093.7804         45.3004         42.3004
 10  1  3  1 43 30.0000000  0  9G22G18G28G15G17G 9G12G27G26
  23730524.9614   23730525.8044   23730526.7904   -4193514.76146  -3259305.13446
      -498.5694       -388.4934         39.7004         37.6004
  23689508.3834   23689507.1384   23689511.3234   -2706303.14146  -2094590.55246
     -2135.7474      -1664.2204         38.5004         36.0004
  24830637.1714   24830638.0664   24830643.0344    1444408.27145   1158817.99245
     -3195.6604      -2490.1304         34.3004         33.1004
  22547136.4904   22547136.6914   22547139.2394  -10114085.81247  -7861716.50147
     -3236.3554      -2521.8334         46.3004         43.2004
  21942618.2114   21942618.9914   21942621.9584  -14359484.13548 -11165581.13847
      -290.0774       -226.0324         48.8004         45.8004
  19715462.0794   19715461.8744   19715465.8874  -27642500.54348 -21233262.71248
       669.9794        522.0624         51.4004         48.5004
  22068356.6434   22068355.8294   22068359.2324  -14567329.72747 -11324392.90047
      2795.7024       2178.4624         47.7004         44.7004
  20740150.4424   20740150.3614   20740154.8264  -22315532.98248 -17354520.83947
       173.4604        135.1614         50.5004         47.7004
  22032654.3924   22032654.4284   22032658.1434   -7802736.73547  -6047194.03647
      2671.3244       2081.5464         45.5004         42.6004
 10  1  3  1 44  0.0000000  0  9G22G18G28G15G17G 9G12G27G26
  23733421.2364   23733421.9274   23733424.4784   -4178288.34346  -3247440.41646
      -516.4624       -402.4334         40.1004         37.8004
  23701736.6174   23701736.9184   23701738.6734   -2642041.32046  -2044516.45846
     -2148.3394      -1674.0204         38.9004         36.9004
  24848883.9344   24848883.3884   24848892.6034    1540303.94045   1233541.88245
     -3197.4704      -2491.5344         34.0004         32.7004
  22565640.3964   22565640.4724   22565642.7394  -10016846.28847  -7785945.45647
     -3246.2804      -2529.5644         46.0004         43.0004
  21944331.9854   21944331.9334   21944334.0824  -14350483.82348 -11158567.90247
      -309.9654       -241.5334         48.8004         45.6004
  19711686.0874   19711686.3154   19711690.2684  -27662341.07648 -21248722.87348
       652.7104        508.6064         51.4004         48.5004
  22052426.5004   22052425.6814   22052428.6764  -14651042.65747 -11389623.75747
      2785.1484       2170.2484         47.7004         44.7004
  20739190.8964   20739190.5464   20739194.9324  -22320577.17948 -17358451.39047
       162.8104        126.8654         50.5004         47.7004
  22017450.3974   22017449.9244   22017454.1254   -7882635.98847  -6109453.19347
      2655.3154       2069.0734         45.5004         42.6004
 10  1  3  1 44 30.0000000  0  9G22G18G28G15G17G 9G12G27G26
  23736422.1244   23736421.9294   23736423.7434   -4162525.11146  -3235157.35446
      -534.3784       -416.3974         40.1004         37.6004
  23714035.9374   23714035.9504   23714041.1834   -2577405.00846  -1994150.50746
     -2160.7384      -1683.6854         39.2004         36.9004
  24867146.7244   24867145.4864   24867149.0124    1636251.45945   1308306.12845
     -3199.0634      -2492.7754         33.5004         32.4004
  22584201.1804   22584201.1754   22584205.1824   -9919309.90147  -7709943.06247
     -3256.1144      -2537.2244         46.0004         43.2004
  21946158.0244   21946158.0244   21946160.4134  -14340886.82048 -11151089.68047
      -329.8324       -257.0074         48.8004         45.8004
  19708009.8834   19708009.5624   19708013.6074  -27681661.95448 -21263778.09548
       635.3684        495.0974         51.4004         48.4004
  22036556.4844   22036556.6254   22036559.9554  -14734438.17847 -11454607.26747
      2774.5524       2161.9924         47.9004         45.1004
  20738292.0664   20738291.8574   20738296.2874  -22325301.86948 -17362132.97547
       152.1594        118.5674         50.7004         47.8004
  22002335.4594   22002336.3434   22002340.7524   -7962057.29247  -6171339.90047
      2639.3784       2056.6604         45.5004         42.6004
 10  1  3  1 45  0.0000000  0  9G22G18G28G15G17G 9G12G27G26
  23739522.9764   23739522.7124   23739525.7494   -4146225.92546  -3222456.71746
      -552.2564       -430.3304         40.4004         38.1004
  23726407.6744   23726407.7654   23726410.2444   -2512396.75546  -1943494.70346
     -2173.1234      -1693.3414         39.4004         36.7004
  24885413.0014   24885411.8214   24885411.7394    1732249.45145   1383109.72345
     -3200.7874      -2494.1194         33.5004         32.2004
  22602816.9944   22602817.2314   22602821.0714   -9821479.28947  -7633711.40247
     -3265.8944      -2544.8474         46.0004         43.0004
  21948097.3034   21948097.6464   21948100.8664  -14330693.54748 -11143146.86047
      -349.7114       -272.5044         48.9004         45.9004
  19704432.0404   19704431.8764   19704436.0884  -27700462.91148 -21278428.19048
       618.0334        481.5844         51.4004         48.5004
  22020747.3024   22020747.2794   22020750.0154  -14817515.09047 -11519342.51847
      2763.9024       2153.6964         47.9004         44.9004
  20737454.1584   20737453.6774   20737457.8554  -22329706.30948 -17365565.00747
       141.4744        110.2404         50.7004         47.8004
  21987315.4754   21987314.7184   21987318.3264   -8040997.83547  -6232852.00947
      2623.2924       2044.1224         45.6004         42.6004
 10  1  3  1 45 30.0000000  0  9G22G18G28G15G17G 9G12G27G26
  23742727.9204   23742727.8524   23742729.9884   -4129391.99346  -3209339.38946
      -570.0104       -444.1654         41.1004         38.6004
  23738848.8744   23738848.6544   23738851.3104   -2447019.41946  -1892551.36846
     -2185.4194      -1702.9304         39.2004         36.9004
  24903689.4834   24903688.8834   24903686.2364    1828296.65445   1457951.76845
     -3202.3714      -2495.3544         33.0004         31.9004
  22621489.9364   22621489.7074   22621493.2044   -9723356.46147  -7557252.06047
     -3275.5814      -2552.4004         46.0004         43.0004
  21950151.0304   21950150.6994   21950154.1744  -14319904.47948 -11134739.77547
      -369.5714       -287.9714         48.9004         45.9004
  19700953.4444   19700953.3594   19700957.4634  -27718742.87148 -21292672.32048
       600.6404        468.0344         51.4004         48.5004
  22004999.4774   22004999.3084   22005002.2004  -14900272.36147 -11583828.70247
      2753.2264       2145.3684         47.9004         44.7004
  20736676.8084   20736676.4654   20736680.8594  -22333789.95048 -17368747.07347
       130.7654        101.8934         50.7004         47.8004
  21972385.2304   21972385.0354   21972389.1364   -8119454.95547  -6293987.42947
      2607.1924       2031.5704         45.6004         42.8004
 10  1  3  1 46  0.0000000  0  9G22G18G28G15G17G 9G12G27G26
  23746031.9494   23746032.9154   23746035.1334   -4112024.38146  -3195806.17246
      -587.8084       -458.0284         41.5004         39.2004
  23751359.6074   23751357.5244   23751362.5844   -2381275.72146  -1841322.54246
     -2197.5654      -1712.3814         39.2004         36.7004
  24921977.8564   24921977.6694   24921978.3654    1924391.42045   1532830.78645
     -3203.8934      -2496.5344         33.1004         32.4004
  22640217.4894   22640217.4714   22640220.9064   -9624944.08647  -7480567.09447
     -3285.2224      -2559.9124         46.0004         43.2004
  21952316.2364   21952316.3474   21952320.4584  -14308519.94048 -11125868.68347
      -389.4134       -303.4444         48.8004         45.6004
  19697574.3104   19697574.2544   19697578.1744  -27736501.20648 -21306509.98448
       583.2284        454.4624         51.4004         48.5004
  21989311.4174   21989311.5414   21989314.9204  -14982708.78447 -11648064.84647
      2742.5164       2137.0224         47.7004         44.7004
  20735960.6484   20735960.5374   20735964.8584  -22337552.40248 -17371678.85747
       120.0414         93.5414         50.7004         47.8004
  21957546.6524   21957546.9224   21957550.9864   -8197425.93547  -6354744.02247
      2590.9344       2018.9224         45.5004         42.5004
 10  1  3  1 46 30.0000000  0  9G22G18G28G15G17G 9G12G27G26
  23749438.4964   23749437.5614   23749440.6394   -4094124.00446  -3181857.86446
      -605.5664       -471.8634         41.3004         38.3004
  23763939.7134   23763939.1944   23763941.3004   -2315168.38946  -1789810.36146
     -2209.6294      -1721.7894         39.0004         36.4004
  24940274.0974   24940271.0004   24940274.2264    2020532.59845   1607745.93945
     -3205.5414      -2497.8254         33.5004         32.6004
  22658998.2704   22658999.5644   22659002.5694   -9526244.24247  -7403658.09947
     -3294.7724      -2567.3484         46.0004         43.0004
  21954596.4254   21954596.6444   21954599.4504  -14296540.46148 -11116534.00747
      -409.2254       -318.8754         48.8004         45.8004
  19694294.0684   19694294.2364   19694298.3634  -27753736.96248 -21319940.44648
       565.8064        440.8864         51.5004         48.5004
  21973685.8574   21973685.7284   21973688.5024  -15064823.08247 -11712050.01747
      2731.7594       2128.6434         47.7004         44.7004
  20735305.9894   20735305.6294   20735310.2234  -22340993.01148 -17374359.85647
       109.3124         85.1804         50.7004         47.8004
  21942802.4414   21942802.1114   21942805.9244   -8274908.07647  -6415119.70147
      2574.5324       2006.1334         45.3004         42.3004
 10  1  3  1 47  0.0000000  0 10G22G14G18G28G15G17G 9G12G27G26
  23752946.3164   23752946.9154   23752947.8404   -4075691.90746  -3167495.17146
      -623.2974       -485.6824         40.4004         37.4004
                                  24783089.327     -300679.09244    -99431.586 2
      3510.0824       2739.214          26.4004         13.300
  23776587.8164   23776587.1744   23776588.3624   -2248700.00546  -1738016.85745
     -2221.6194      -1731.1364         38.3004         35.9004
  24958573.7604   24958572.4734   24958577.4904    2116719.26745   1682696.51245
     -3206.9984      -2498.9584         33.1004         32.2004
  22677834.2064   22677834.9634   22677838.8184   -9427259.40147  -7326527.05547
     -3304.2274      -2574.7284         45.6004         42.6004
  21956988.5954   21956989.5414   21956992.1274  -14283966.44748 -11106736.05447
      -429.0404       -334.3164         48.8004         45.8004
  19691114.6004   19691114.4004   19691118.1774  -27770449.17048 -21332962.95248
       548.3394        427.2764         51.5004         48.5004
  21958121.4744   21958121.5214   21958124.4714  -15146614.03247 -11775783.21047
      2720.9374       2120.2114         47.7004         44.9004
  20734713.3664   20734712.7164   20734716.5124  -22344111.32448 -17376789.71047
        98.5654         76.8014         50.8004         47.8004
  21928151.7634   21928151.8224   21928155.5114   -8351898.53147  -6475112.25847
      2558.1524       1993.3744         45.3004         42.5004
 10  1  3  1 47 30.0000000  0  9G22G18G28G15G17G 9G12G27G26
  23756554.6374   23756553.6094   23756556.3884   -4056728.91146  -3152718.81146
      -640.9584       -499.4524         39.9004         37.4004
  23789304.0404   23789303.1284   23789306.0694   -2181873.15046  -1685944.01345
     -2233.5684      -1740.4464         38.2004         35.9004
  24976883.8574   24976887.7024   24976886.7364    2212949.58655   1757681.14655
     -3208.4254      -2500.0644         33.0004         32.4004
  22696724.5204   22696724.5774   22696728.1264   -9327991.63247  -7249175.56847
     -3313.6074      -2582.0304         45.5004         42.5004
  21959494.7314   21959494.7454   21959497.6644  -14270798.36148 -11096475.18647
      -448.8314       -349.7384         48.8004         45.6004
  19688034.3964   19688033.8764   19688037.6384  -27786636.82448 -21345576.72348
       530.8364        413.6374         51.5004         48.5004
  21942618.6364   21942619.2154   21942621.5484  -15228080.53047 -11839263.59647
      2710.1204       2111.7804         47.9004         44.9004
  20734180.7694   20734180.6754   20734184.7124  -22346906.64548 -17378967.88847
        87.7924         68.4094         50.7004         47.8004
  21913594.5984   21913594.6304   21913599.3024   -8428394.46547  -6534719.46447
      2541.6094       1980.4744         45.5004         42.6004
 10  1  3  1 48  0.0000000  0 10G22G14G18G28G15G17G 9G12G27G26
  23760264.8414   23760264.9374   23760265.6294   -4037236.19946  -3137529.71446
      -658.5844       -513.1824         39.9004         37.4004
                                  24726639.322      -74316.63744     -2047.123
      3499.3434       2727.494          26.4004          1.500
  23802089.8744   23802088.7664   23802092.1004   -2114690.53846  -1633593.97046
     -2245.3254      -1749.6004         38.5004         36.6004
  24995206.7274   24995207.8974   24995213.1614    2309222.43345   1832698.95345
     -3209.7854      -2501.1284         33.5004         32.2004
  22715667.8364   22715667.7794   22715672.1214   -9228443.88147  -7171605.87247
     -3322.9094      -2589.2764         45.5004         42.5004
  21962113.6774   21962113.7104   21962117.3564  -14257036.54848 -11085751.68047
      -468.6064       -365.1554         48.8004         45.8004
  19685053.7504   19685053.5224   19685057.3394  -27802299.24548 -21357781.21948
       513.3024        399.9744         51.5004         48.7004
  21927178.7554   21927178.4684   21927181.8014  -15309221.13248 -11902490.03647
      2699.2234       2103.2944         48.1004         45.1004
  20733710.2364   20733710.3334   20733714.4874  -22349378.61748 -17380894.10447
        76.9974         59.9944         50.7004         47.8004
  21899132.4664   21899132.8404   21899137.2054   -8504393.43747  -6593939.43647
      2524.9744       1967.5074         45.8004         43.0004
 10  1  3  1 48 30.0000000  0 10G22G14G18G28G15G17G 9G12G27G26
  23764074.4724   23764074.4694   23764077.6064   -4017215.12746  -3121928.89846
      -676.1674       -526.8894         40.4004         37.9004
                                  24698350.879     -179215.76944   -117888.723 3
      3493.7034       2722.548          26.4004         21.000
  23814941.0204   23814939.8474   23814942.4534   -2047155.02446  -1580968.91946
     -2257.0594      -1758.7474         38.9004         36.6004
  25013539.1624   25013538.4784   25013541.0624    2405536.06945   1907748.55545
     -3210.9334      -2502.0334         32.8004         31.7004
  22734664.3494   22734664.6504   22734668.2764   -9128617.73347  -7093819.27547
     -3332.1514      -2596.4804         45.5004         42.5004
  21964845.2604   21964845.3384   21964848.9434  -14242681.42348 -11074565.85747
      -488.3894       -380.5644         48.8004         45.8004
  19682173.3494   19682173.1034   19682176.8724  -27817435.98548 -21369576.08648
       495.7934        386.3284         51.5004         48.7004
  21911800.0184   21911800.1754   21911803.9954  -15390034.72248 -11965461.66347
      2688.3274       2094.7984         48.1004         45.2004
  20733301.5904   20733301.5454   20733305.6994  -22351526.81248 -17382568.02447
        66.2104         51.5924         50.8004         47.8004
  21884766.1804   21884766.5204   21884770.3974   -8579892.62047  -6652769.96147
      2508.3024       1954.5164         46.0004         43.3004
 10  1  3  1 49  0.0000000  0 10G22G14G18G28G15G17G 9G12G27G26
  23767985.3324   23767985.4134   23767987.8324   -3996666.74746  -3105917.16846
      -693.7464       -540.5774         39.7004         37.1004
  24677754.3794                                    -283947.40544   -202220.39945
      3488.2844       2719.1444         26.4004         34.0004
  23827858.0844   23827857.6964   23827861.2884   -1979269.26746  -1528070.93146
     -2268.6794      -1767.8084         39.0004         36.7004
  25031868.6584   25031871.3914                    2501889.76055   1982829.40255
     -3212.5274      -2503.2684         31.7004         31.2004
  22753712.7144   22753713.7844   22753717.3724   -9028515.94047  -7015817.87547
     -3341.2764      -2603.5874         45.6004         42.8004
  21967689.6134   21967689.6304   21967692.9544  -14227733.70848 -11062918.27747
      -508.0974       -395.9264         48.8004         45.6004
  19679393.3424   19679392.4664   19679396.8744  -27832046.18748 -21380960.67148
       478.2054        372.6264         51.5004         48.5004
  21896484.3104   21896483.7694   21896487.0534  -15470520.32548 -12028177.71547
      2677.3634       2086.2544         48.1004         44.9004
  20732954.3884   20732954.2414   20732958.6664  -22353350.62448 -17383989.17447
        55.3714         43.1434         50.8004         47.8004
  21870494.9254   21870495.4034   21870498.1474   -8654889.42547  -6711209.03947
      2491.4984       1941.4314         46.2004         43.2004
 10  1  3  1 49 30.0000000  0 10G22G14G18G28G15G17G 9G12G27G26
  23771993.2054   23771994.2864   23771995.6104   -3975592.03746  -3089495.33546
      -711.2964       -554.2694         39.0004         36.0004
  24657857.3514                   24657858.6564    -388509.25745   -283697.21945
      3482.4974       2713.6414         35.4004         34.6004
  23840844.6134   23840843.8274   23840845.9004   -1911036.08846  -1474902.27446
     -2280.2174      -1776.7944         39.0004         36.7004
  25050208.2864   25050205.5284                    2598282.28855   2057940.45555
     -3213.8074      -2504.2484         31.4004         30.7004
  22772813.7364   22772813.4634   22772817.3524   -8928140.86947  -6937603.52047
     -3350.3504      -2610.6664         45.5004         42.3004
  21970647.1274   21970647.4124   21970650.3714  -14212194.04448 -11050809.41647
      -527.8774       -411.3394         48.8004         45.8004
  19676712.8674   19676712.8684   19676716.8694  -27846128.78648 -21391934.13148
       460.6114        358.9154         51.5004         48.7004
  21881231.3994   21881231.1414   21881233.6184  -15550676.78548 -12090637.29747
      2666.3514       2077.6744         48.1004         44.9004
  20732669.3954   20732668.9194   20732673.4594  -22354849.51948 -17385157.14447
        44.5264         34.6944         50.8004         47.8004
  21856318.7984   21856319.2814   21856323.1014   -8729381.08147  -6769254.47947
      2474.6214       1928.2764         46.0004         43.2004
 10  1  3  1 50  0.0000000  0 10G22G14G18G28G15G17G 9G12G27G26
  23776104.1444   23776105.6794   23776105.0684   -3953992.30546  -3072664.36745
      -728.8374       -567.9324         38.2004         35.3004
  24637992.2774   24637991.0564   24637994.4944    -492898.70546   -365039.65345
      3476.6744       2709.0974         36.3004         34.6004
  23853892.7544   23853891.2304   23853895.8364   -1842458.16646  -1421464.93045
     -2291.6384      -1785.7024         38.7004         35.9004
  25068574.3464                                    2694711.85255   2133080.36055
     -3215.0204      -2505.2024         30.5004         30.7004
  22791965.0414   22791966.9004   22791970.1134   -8827494.59547  -6859177.84947
     -3359.3594      -2617.6684         45.5004         42.6004
  21973716.2504   21973716.6884   21973719.7704  -14196063.15448 -11038239.87047
      -547.5424       -426.6634         48.6004         45.6004
  19674133.7974   19674133.4234   19674137.6904  -27859682.97048 -21402495.83848
       442.9924        345.1874         51.5004         48.7004
  21866040.8854   21866040.4364   21866043.5384  -15630502.84348 -12152839.40747
      2655.3474       2069.0954         48.1004         45.1004
  20732445.7734   20732445.8694   20732450.2804  -22356022.83848 -17386071.41847
        33.6744         26.2424         50.8004         47.8004
  21842241.2584   21842240.9974   21842244.6124   -8803364.92947  -6826904.22347
      2457.6354       1915.0354         46.0004         43.3004
 10  1  3  1 50 30.0000000  0 10G22G14G18G28G15G17G 9G12G27G26
  23780315.4124   23780313.6064   23780318.1434   -3931868.51946  -3055425.09845
      -746.2484       -581.4884         37.1004         34.6004
  24618161.0084   24618160.3314   24618162.0984    -597113.37246   -446245.91645
      3470.9124       2704.6084         36.6004         34.8004
  23867008.6364   23867006.8054   23867010.8724   -1773538.16546  -1367761.04845
     -2303.0174      -1794.5424         38.2004         35.3004
  25086924.4504                                    2791177.30554     54398.27553
     -3216.1294      -2506.0754         26.4004         23.4004
  22811169.5034   22811169.9314   22811173.6764   -8726579.79947  -6780542.94547
     -3368.2954      -2624.6544         45.5004         42.6004
  21976898.9204   21976898.6284   21976901.7834  -14179341.37248 -11025209.90347
      -567.2294       -441.9974         48.8004         45.8004
  19671655.1664   19671654.8134   19671659.0194  -27872708.10848 -21412645.29748
       425.3144        331.4144         51.5004         48.7004
  21850913.6764   21850913.6914   21850916.3444  -15709997.55848 -12214783.33947
      2644.2704       2060.4674         48.1004         45.2004
  20732284.9394   20732284.6744   20732288.6214  -22356870.00748 -17386731.54547
        22.7804         17.7524         50.8004         47.8004
  21828259.2144   21828258.9904   21828262.4324   -8876838.29747  -6884156.19847
      2440.5854       1901.7454         46.2004         43.3004
 10  1  3  1 51  0.0000000  0 10G22G14G18G28G15G17G 9G12G27G26
  23784625.1074   23784624.1344   23784627.0994   -3909221.95146  -3037778.32045
      -763.5534       -594.9794         36.6004         34.6004
  24598362.4714   24598364.7374   24598366.1964    -701150.41446   -527313.74545
      3464.8254       2699.8694         37.0004         34.8004
  23880186.8154   23880186.5244   23880191.3984   -1704279.05746  -1313792.92746
     -2314.2644      -1803.3104         38.2004         36.0004
  25105277.4434                                    2887680.71354    129550.74254
     -3217.0714      -2505.1034         26.4004         29.6004
  22830423.5724   22830424.0194   22830427.2454   -8625398.60747  -6701700.45947
     -3377.0934      -2631.4994         45.6004         42.6004
  21980192.6554   21980193.1724   21980195.6874  -14162029.42348 -11011720.07947
      -586.9154       -457.3364         48.8004         45.8004
  19669277.8734   19669277.2854   19669281.3274  -27885203.39548 -21422381.89148
       407.6734        317.6704         51.5004         48.7004
  21835849.1584   21835848.9604   21835852.8724  -15789159.74548 -12276468.15247
      2633.1704       2051.8224         48.1004         45.1004
  20732185.6344   20732185.4214   20732189.4414  -22357390.47848 -17387137.10347
        11.9024          9.2764         50.7004         47.8004
  21814374.8214   21814374.9264   21814378.5164   -8949798.38147  -6941008.21147
      2423.4024       1888.3754         46.2004         43.0004
 10  1  3  1 51 30.0000000  0 10G22G14G18G28G15G17G 9G12G27G26
  23789032.8874   23789031.6804                   -3886053.90845  -3019725.35845
      -780.9984       -608.5804         35.6004         33.8004
  24578600.9414   24578600.3194   24578602.3094    -805007.64646   -608241.45545
      3458.8574       2695.2084         37.0004         34.8004
  23893432.2844   23893432.3424   23893434.7904   -1634683.27946  -1259562.47946
     -2325.4334      -1812.0204         38.2004         36.0004
  25123659.2284                                    2984214.52254    204720.59954
     -3218.1514      -2505.9254         26.4004         29.8004
  22849727.8274   22849728.5554   22849731.8954   -8523953.38447  -6622652.22847
     -3385.8904      -2638.3594         45.6004         42.8004
  21983600.6224   21983599.8434   21983601.4444  -14144127.94348 -10997770.85147
      -606.5604       -472.6454         48.6004         45.4004
  19667000.7654   19667000.3064   19667004.3144  -27897168.16848 -21431705.10248
       389.9664        303.8704         51.5004         48.7004
  21820848.1064   21820848.7864   21820852.1044  -15867987.92848 -12337892.71047
      2621.9924       2043.1124         48.1004         45.2004
  20732148.4574   20732148.6294   20732153.0034  -22357583.72448 -17387287.68947
          .9724           .7654         50.7004         47.8004
  21800589.5144   21800589.5654   21800593.2024   -9022242.61647  -6997458.24547
      2406.1904       1874.9474         46.0004         43.2004
 10  1  3  1 52  0.0000000  0  9G22G14G18G15G17G 9G12G27G26
  23793542.3404   23793542.9994   23793544.6504   -3862365.84845  -3001267.10445
      -798.2724       -622.0334         35.9004         34.3004
  24558869.6494   24558869.8984   24558872.2584    -908682.36746   -689026.90645
      3452.7994       2690.4914         36.4004         34.3004
  23906737.7284   23906736.9024   23906740.1804   -1564754.04846  -1205072.19345
     -2336.5054      -1820.6484         37.8004         35.3004
  22869082.3814   22869082.9444   22869086.2234   -8422246.74247  -6543400.28447
     -3394.5424      -2645.0854         45.5004         42.6004
  21987117.6264   21987118.2134   21987121.3134  -14125637.58148 -10983362.76547
      -626.1774       -487.9314         48.6004         45.6004
  19664824.9644   19664824.5714   19664828.7794  -27908601.64548 -21440614.29948
       372.2524        290.0634         51.5004         48.7004
  21805912.4594   21805911.7644   21805914.6584  -15946481.09248 -12399056.19947
      2610.8554       2034.4384         48.1004         45.1004
  20732174.8334   20732174.3184   20732178.5314  -22357449.32248 -17387182.95347
        -9.9564         -7.7594         50.7004         47.8004
  21786903.8894   21786903.7704   21786906.1784   -9094168.36347  -7053504.29147
      2388.8504       1861.4424         46.2004         43.5004
 10  1  3  1 52 30.0000000  0  9G22G14G18G15G17G 9G12G27G26
  23798147.5024   23798148.9254   23798147.4384   -3838158.86146  -2982404.53145
      -815.5754       -635.5174         36.1004         34.5004
  24539175.6144   24539177.8324   24539179.0824   -1012172.21145   -769668.28945
      3446.5414       2685.6144         35.6004         33.6004
  23920108.8724   23920107.6994   23920109.7814   -1494493.94246  -1150324.09445
     -2347.4884      -1829.2094         37.6004         35.5004
  22888486.0714   22888486.1164   22888489.1954   -8320281.53647  -6463946.89347
     -3403.1234      -2651.7754         45.6004         42.6004
  21990748.9724   21990748.8004   21990752.1374  -14106558.97148 -10968496.29547
      -645.7454       -503.1854         48.8004         45.6004
  19662750.4394   19662750.0854   19662754.3494  -27919503.25548 -21449109.06848
       354.5064        276.2384         51.7004         48.7004
  21791038.7214   21791038.8364   21791042.3414  -16024638.03448 -12459957.70447
      2599.5984       2025.6574         48.1004         45.1004
  20732262.8854   20732262.4204   20732266.4284  -22356986.84348 -17386822.58347
       -20.8944        -16.2844         50.7004         47.8004
  21773314.7624   21773315.2004   21773318.3924   -9165573.07447  -7109144.32647
      2371.4224       1847.8674         46.2004         43.2004
 10  1  3  1 53  0.0000000  0  9G22G14G18G15G17G 9G12G27G26
  23802853.7944   23802852.8704   23802855.4274   -3813434.08846  -2963138.48745
      -832.7744       -648.9144         36.8004         35.0004
  24519517.9164   24519518.9804   24519522.1224   -1115474.71545   -850163.67345
      3440.2084       2680.6844         35.4004         33.6004
  23933540.7194   23933539.8124   23933544.1834   -1423905.68646  -1095320.25245
     -2358.4184      -1837.7264         38.0004         35.9004
  22907938.2644   22907938.5034   22907941.6874   -8218059.17047  -6384293.10447
     -3411.6724      -2658.4434         45.6004         42.6004
  21994490.6944   21994490.7974   21994493.5764  -14086893.05148 -10953172.20347
      -665.3114       -518.4294         48.6004         45.4004
  19660776.9654   19660777.1654   19660780.9324  -27929872.17548 -21457188.74548
       336.7484        262.4014         51.7004         48.7004
  21776229.4654   21776230.4534   21776233.7514  -16102457.78048 -12520596.45747
      2588.3594       2016.8984         48.1004         45.1004
  20732412.5934   20732412.7054   20732417.1224  -22356195.67548 -17386206.08947
       -31.8624        -24.8264         50.7004         47.8004
  21759825.4354   21759826.8564   21759830.6114   -9236454.33047  -7164376.45747
      2354.0044       1834.2864         46.3004         43.5004
 10  1  3  1 53 30.0000000  0  9G22G14G18G15G17G 9G12G27G26
  23807657.2604   23807654.9604   23807659.0594   -3788192.99346  -2943470.04045
      -849.9144       -662.2734         37.1004         35.2004
  24499896.9044   24499896.2124   24499899.4744   -1218587.00845   -930510.88445
      3433.8754       2675.7544         35.2004         33.6004
  23947035.5194   23947034.7014   23947040.0414   -1352992.00246  -1040062.84746
     -2369.1554      -1846.0944         38.5004         36.4004
  22927439.3254   22927439.0794   22927442.1524   -8115582.29647  -6304440.97647
     -3420.1194      -2665.0284         45.5004         42.5004
  21998344.6704   21998344.8164   21998347.9704  -14066640.47648 -10937390.94947
      -684.8614       -533.6514         48.6004         45.6004
  19658905.7964   19658905.6994   19658909.2564  -27939707.92548 -21464852.97048
       318.9574        248.5404         51.7004         48.9004
  21761485.1804   21761485.4434   21761488.9714  -16179939.60548 -12580971.88647
      2577.0724       2008.1044         48.1004         44.9004
  20732626.0624   20732626.2454   20732630.1314  -22355075.34848 -17385333.10847
       -42.8424        -33.3854         50.7004         47.8004
  21746438.2754   21746438.3284   21746442.0504   -9306809.18547  -7219198.41647
      2336.3524       1820.5394         46.3004         43.3004
 10  1  3  1 54  0.0000000  0  9G22G14G18G15G17G 9G12G27G26
  23812557.5494   23812556.5644   23812558.5254   -3762436.80746  -2923400.24145
      -867.1154       -675.6764         37.5004         35.5004
  24480313.4694   24480312.7954   24480315.2034   -1321507.09645  -1010708.39545
      3427.3974       2670.7034         35.2004         33.8004
  23960592.4014   23960590.7984   23960592.2974   -1281755.61646   -984554.01045
     -2379.9064      -1854.4724         38.5004         35.9004
  22946987.1824   22946987.1894   22946991.4914   -8012853.19447  -6224392.33047
     -3428.4874      -2671.5584         45.3004         42.6004
  22002310.0094   22002310.6544   22002313.4744  -14045801.77648 -10921152.99047
      -704.3684       -548.8594         48.6004         45.8004
  19657135.8024   19657135.2924   19657139.3534  -27949009.69248 -21472101.09848
       301.1484        234.6654         51.7004         48.9004
  21746806.0344   21746805.7024   21746809.4574  -16257081.96447 -12641082.80547
      2565.7364       1999.2694         47.9004         44.9004
  20732902.4444   20732902.0394   20732906.2904  -22353625.59048 -17384203.42847
       -53.8184        -41.9364         50.7004         47.8004
  21733150.4244   21733150.4794   21733155.1264   -9376635.33047  -7273608.37347
      2318.7414       1806.8014         46.2004         43.0004
 10  1  3  1 54 30.0000000  0  9G22G14G18G15G17G 9G12G27G26
  23817555.0894   23817555.8734   23817557.8484   -3736166.87446  -2902930.15245
      -884.2234       -689.0074         37.0004         34.8004
  24460763.7684   24460762.8924   24460766.4914   -1424232.14545  -1090753.88645
      3420.9334       2665.6584         35.4004         33.8004
  23974209.1214   23974208.4014   23974210.1544   -1210199.62146   -928796.12645
     -2390.5404      -1862.7564         38.2004         35.9004
  22966584.1424   22966584.1974   22966587.7264   -7909874.81047  -6144149.43547
     -3436.7254      -2677.9644         45.5004         42.6004
  22006386.4704   22006386.5844   22006390.1934  -14024377.98348 -10904459.11747
      -723.8874       -564.0644         48.6004         45.4004
  19655466.9544   19655467.1054   19655470.8264  -27957777.16748 -21478932.89248
       283.3414        220.7894         51.7004         48.7004
  21732191.7924   21732191.6854   21732194.8354  -16333883.73348 -12700928.32647
      2554.3334       1990.3914         48.1004         45.2004
  20733241.1554   20733240.6684   20733244.8694  -22351845.55948 -17382816.39147
       -64.8624        -50.5404         50.7004         47.8004
  21719963.1764   21719964.3424   21719968.9514   -9445929.89247  -7327604.11847
      2300.8824       1792.8994         46.0004         43.2004
 10  1  3  1 55  0.0000000  0 10G22G14G18G15G17G 9G12G27G30G26
  23822655.1734   23822654.8834   23822654.8624   -3709384.47946  -2882060.79145
      -901.2414       -702.2654         36.4004         34.3004
  24441254.9804   24441252.3384   24441258.6004   -1526759.33945  -1170645.13845
      3414.2114       2660.4284         35.7004         34.1004
  23987885.6734   23987881.9664   23987887.6174   -1138326.53646   -872791.13845
     -2400.9974      -1870.9174         37.6004         35.3004
  22986226.1194   22986226.7244   22986231.1554   -7806649.03847  -6063713.75647
     -3444.9514      -2684.3874         45.3004         42.5004
  22010574.7884   22010575.2974   22010577.6354  -14002369.98648 -10887310.00447
      -743.3564       -579.2344         48.4004         45.4004
  19653901.0414   19653900.3424   19653904.1394  -27966009.47048 -21485347.67348
       265.4934        206.8824         51.7004         48.7004
  21717641.7334   21717641.7784   21717645.1344  -16410344.05848 -12760507.77747
      2542.9524       1981.5274         48.2004         45.4004
  20733642.4014   20733642.3044   20733646.5054  -22349734.58548 -17381171.48747
       -75.9004        -59.1464         50.7004         47.7004
  24430737.6734                                    -351766.57744   -252634.42345
      3754.6474       2925.7164         26.4004         33.1004
  21706880.4434   21706880.1544   21706883.6914   -9514690.35647  -7381183.69047
      2283.0974       1779.0304         46.3004         43.5004
 10  1  3  1 55 30.0000000  0 10G22G14G18G15G17G 9G12G27G30G26
  23827844.3854   23827842.2274   23827847.2674   -3682091.21045  -2860793.32245
      -918.2694       -715.5354         35.2004         33.4004
  24421779.7344   24421777.5144   24421783.5614   -1629086.49645  -1250380.60445
      3407.4804       2655.1824         35.9004         34.1004
  24001622.0044   24001621.3024   24001624.4344   -1066139.68646   -816541.64646
     -2411.4554      -1879.0564         38.2004         36.2004
  23005917.0194   23005917.1854   23005919.6924   -7703178.45647  -5983087.35347
     -3453.0624      -2690.7014         45.1004         42.1004
  22014873.7154   22014873.7434   22014878.0134  -13979778.14548 -10869705.95647
      -762.7744       -594.3684         48.6004         45.6004
  19652435.8874   19652435.6274   19652439.5334  -27973705.86148 -21491344.86048
       247.6064        192.9394         51.7004         48.7004
  21703157.8644   21703157.1454   21703160.3304  -16486461.54248 -12819820.09447
      2531.5054       1972.6074         48.4004         45.4004
  20734106.8014   20734106.9474   20734111.1374  -22347292.44848 -17379268.53147
       -86.9404        -67.7454         50.7004         47.7004
  24409311.2344                                    -464357.30944    -70897.45043
      3751.3494       2923.1294         26.4004         23.4004
  21693897.1004   21693897.3464   21693901.6674   -9582914.33747  -7434345.22547
      2265.2014       1765.0964         46.3004         43.7004
 10  1  3  1 56  0.0000000  0 10G22G14G18G15G17G 9G12G27G30G26
  23833134.8684   23833134.8744   23833138.4324   -3654288.58545  -2839128.87445
      -935.2444       -728.7584         35.7004         34.1004
  24402346.5684   24402344.9844   24402351.7134   -1731210.88045  -1329958.09645
      3400.7154       2649.9124         35.7004         34.0004
  24015418.7454   24015417.2024   24015422.0044    -993641.54746   -760049.59246
     -2421.7674      -1887.0874         38.5004         36.4004
  23025652.2954   23025652.1104   23025656.5314   -7599465.64347  -5902272.16546
     -3461.0954      -2696.9444         44.9004         41.9004
  22019283.6824   22019284.5304   22019287.2184  -13956603.73048 -10851647.95947
      -782.1444       -609.4664         48.6004         45.8004
  19651073.2154   19651073.1384   19651077.2004  -27980865.78248 -21496924.01848
       229.6914        178.9814         51.5004         48.7004
  21688737.4944   21688737.1824   21688740.5594  -16562235.36648 -12878864.60047
      2520.0454       1963.6644         48.4004         45.2004
  20734635.1184   20734635.0554   20734639.1384  -22344518.76448 -17377107.22747
       -98.0044        -76.3694         50.7004         47.8004
  24387898.1024                                    -576850.26644   -158553.95545
      3748.0734       2920.5864         26.4004         34.3004
  21681017.2424   21681017.0004   21681021.5664   -9650599.33947  -7487086.77947
      2247.1534       1751.0344         46.5004         43.7004
 10  1  3  1 56 30.0000000  0 10G22G14G18G15G17G 9G12G27G30G26
  23838527.9934   23838526.1304   23838527.3464   -3625977.64346  -2817068.45345
      -952.1634       -741.9424         37.0004         35.2004
  24382946.5994   24382949.2034   24382957.0304   -1833130.23745  -1409375.79245
      3393.8094       2644.5344         35.6004         33.8004
  24029270.9704   24029270.6294   24029276.4644    -920834.92146   -703317.18846
     -2431.9914      -1895.0584         38.3004         36.0004
  23045432.7624   23045432.9914   23045437.2174   -7495512.85847  -5821269.99746
     -3469.0404      -2703.1574         44.8004         41.8004
  22023804.5524   22023804.5214   22023808.0194  -13932847.51248 -10833136.60347
      -801.5584       -624.5954         48.6004         45.6004
  19649813.3194   19649812.9454   19649817.0414  -27987488.97348 -21502084.94748
       211.8254        165.0574         51.5004         48.7004
  21674383.0494   21674384.1104   21674386.7964  -16637664.36148 -12937640.41947
      2508.5344       1954.6954         48.4004         45.4004
  20735226.0304   20735225.8664   20735230.0854  -22341412.80848 -17374687.00747
      -109.0884        -85.0024         50.7004         47.8004
  24366515.9364                   24366517.7564    -689243.68045   -246133.32145
      3744.7904       2918.0224         33.8004         35.3004
  21668240.3754   21668240.5914   21668244.2364   -9717742.72747  -7539406.29647
      2229.0634       1736.9274         46.5004         43.7004
 10  1  3  1 57  0.0000000  0 10G22G14G18G15G17G 9G12G27G30G26
  23844006.3964   23844005.4894   23844007.5424   -3597160.15945  -2794613.33345
      -968.9994       -755.0724         35.7004         33.4004
  24363595.9804   24363596.6374   24363602.5084   -1934841.80745  -1488631.60345
      3386.8444       2639.1004         35.9004         34.5004
  24043186.1994   24043184.8934   24043188.5014    -847722.69246   -646346.65845
     -2442.1304      -1902.9544         38.0004         35.5004
  23065260.5024   23065261.7474   23065264.8294   -7391322.44647  -5740082.67847
     -3476.9254      -2709.2984         44.8004         42.1004
  22028435.6534   22028436.1654   22028439.0554  -13908510.61948 -10814172.76947
      -820.9114       -639.6694         48.6004         45.6004
  19648655.1564   19648654.7724   19648659.0054  -27993574.49148 -21506826.90648
       193.8794        151.0754         51.7004         48.7004
  21660096.4504   21660095.6044   21660099.4544  -16712747.67648 -12996146.87247
      2496.9954       1945.7134         48.4004         45.4004
  20735880.8054   20735880.3674   20735884.6484  -22337974.26948 -17372007.62947
      -120.1734        -93.6394         50.7004         47.8004
  24345145.3864   24345145.2694   24345149.8884    -801536.29746   -333634.00845
      3741.3924       2915.3694         36.8004         35.3004
  21655566.5594   21655567.3324   21655570.6134   -9784342.02847  -7591301.83347
      2210.9204       1722.7954         46.7004         43.7004
 10  1  3  1 57 30.0000000  0 10G22G14G18G15G17G 9G12G27G30G26
  23849596.8884   23849592.8724   23849590.6394   -3567837.48145  -2771764.48845
      -985.7794       -768.1444         34.2004         32.7004
  24344281.4264   24344281.7664   24344285.5634   -2036342.94346  -1567723.42145
      3379.8664       2633.6584         37.0004         35.3004
  24057153.3774   24057154.5844   24057158.6174    -774307.84146   -589140.31045
     -2452.2034      -1910.8174         37.5004         35.0004
  23085133.6714   23085132.1224   23085135.9654   -7286896.92547  -5658712.13146
     -3484.7124      -2715.3614         44.6004         41.4004
  22033177.3594   22033177.3414   22033180.5114  -13883593.80448 -10794757.05547
      -840.2134       -654.7134         48.6004         45.6004
  19647599.4094   19647599.4584   19647603.0914  -27999121.94248 -21511149.59948
       175.9444        137.0974         51.7004         48.7004
  21645873.2824   21645874.2134   21645877.4884  -16787484.24848 -13054383.14847
      2485.4284       1936.6974         48.4004         45.6004
  20736598.3004   20736598.1424   20736602.4284  -22334202.63948 -17369068.69847
      -131.2864       -102.3004         50.7004         47.8004
  24323798.0814   24323798.0404   24323801.4374    -913726.60146   -421054.99045
      3737.9784       2912.7124         37.6004         35.7004
  21642997.7324   21642996.7324   21643001.5854   -9850394.78547  -7642771.51247
      2192.6054       1708.5214         46.7004         43.7004
