     2.11           OBSERVATION DATA    G (GPS)             RINEX VERSION / TYPE
teqc  2009Mar23     root                20100103 01:16:03UTCPGM / RUN BY / DATE
Linux 2.4.20-8|Pentium IV|gcc|Linux|486/DX+                 COMMENT
teqc  2009Mar23     root                20100102 01:00:00UTCCOMMENT
BIT 2 OF LLI FLAGS DATA COLLECTED UNDER A/S CONDITION       COMMENT
PTBB                                                        MARKER NAME
14234M001                                                   MARKER NUMBER
Automatic           BKG/GOWettzell+PTB                      OBSERVER / AGENCY
RT820013901         ASHTECH Z-XII3T     1L01-1D04           REC # / TYPE / VERS
CR15930             ASH700936E      SNOW                    ANT # / TYPE
  3844060.0000   709661.2700  5023129.5100                  APPROX POSITION XYZ
        0.0562        0.0000        0.0000                  ANTENNA: DELTA H/E/N
     1     1                                                WAVELENGTH FACT L1/2
     9    C1    P1    P2    L1    L2    D1    D2    S1    S2# / TYPES OF OBSERV
    30.0000                                                 INTERVAL
Forced Modulo Decimation to 30 seconds                      COMMENT
 SNR is mapped to RINEX snr flag value [0-9]                COMMENT
  L1 & L2: min(max(int(snr_dBHz/6), 0), 9)                  COMMENT
pseudorange smoothing corrections not applied               COMMENT
  2010     1     2     0     0    0.0000000     GPS         TIME OF FIRST OBS
                                                            END OF HEADER
 10  1  2  0  0  0.0000000  0  7G 5G18G 8G28G 9G27G15
  24531101.5924   24531100.0884   24531102.9274      95671.70846     92957.38446
     -3732.9304      -2908.7764         39.0004         36.6004
  23277288.3394   23277286.9554   23277289.7434   -5168244.68146  -3804260.99246
      1629.0754       1269.4124         40.1004         37.8004
  23362575.9184   23362574.8034   23362577.8404   -7865271.20246  -6109466.75646
     -3118.7974      -2430.2264         41.8004         39.2004
  21658675.4034   21658675.3694   21658679.1704  -15229767.94948 -11829671.57047
     -1498.8914      -1167.9674         48.9004         46.1004
  22419642.4914   22419642.1124   22419646.8094  -13377974.11247 -10412020.08146
      3348.7634       2609.4194         44.1004         41.2004
  22180250.7384   22180250.0904   22180254.8164  -14744403.48047 -11469438.94747
      2035.6724       1586.2294         47.2004         44.2004
  20450690.6124   20450690.1554   20450692.9844  -20276289.62748 -15779018.03648
        95.8004         74.6484         52.4004         49.6004
 10  1  2  0  0 30.0000000  0  8G17G 5G18G 8G28G 9G27G15
  23915794.7094   23915794.9254   23915798.4864   -4727307.77546  -3670167.90546
      3037.6954       2367.0374         41.3004         38.6004
  24552412.0684   24552412.8024   24552416.6324     207680.23246    180236.76946
     -3734.2774      -2909.8284         38.7004         36.4004
  23268035.7344   23268037.1384   23268038.7294   -5216862.51246  -3842145.01546
      1612.0604       1256.1504         40.8004         38.5004
  23380394.0214   23380393.4484   23380397.4984   -7771636.33347  -6036504.54646
     -3123.4924      -2433.9044         42.0004         39.5004
  21667273.1264   21667273.5564   21667277.1084  -15184584.75748 -11794463.88747
     -1513.3254      -1179.2214         48.9004         45.9004
  22400544.6074   22400545.1224   22400549.0434  -13478331.69147 -10490220.80346
      3341.7234       2603.9354         44.1004         41.2004
  22168649.0814   22168649.0544   22168653.2134  -14805370.03847 -11516945.34747
      2028.7674       1580.8624         47.0004         44.0004
  20450192.3784   20450192.4424   20450195.5054  -20278904.31948 -15781055.46648
        78.4994         61.1714         52.4004         49.6004
 10  1  2  0  1  0.0000000  0  8G17G 5G18G 8G28G 9G27G15
  23898472.2714   23898473.4954   23898477.9034   -4818331.91846  -3741095.78246
      3030.5244       2361.4444         41.3004         38.5004
  24573732.4134   24573735.6254   24573737.7964     319728.27246    267546.96646
     -3735.5344      -2910.8034         38.7004         36.4004
  23258882.0804   23258881.6644   23258884.4824   -5264970.04746  -3879631.41646
      1595.0264       1242.8814         41.3004         38.8004
  23398238.3654   23398237.5234   23398242.6124   -7677861.53447  -5963433.32346
     -3128.1324      -2437.5044         42.2004         39.2004
  21675954.1134   21675953.8654   21675957.6254  -15138969.18448 -11758919.27947
     -1527.7074      -1190.4204         48.9004         45.9004
  22381488.0514   22381488.0984   22381492.2384  -13578477.16347 -10568256.23146
      3334.6634       2598.4464         44.1004         41.2004
  22157086.5774   22157086.8134   22157090.7994  -14866129.18047 -11564290.12947
      2021.8594       1575.4704         47.0004         44.0004
  20449793.1824   20449793.6594   20449796.6784  -20280999.42548 -15782688.03248
        61.1634         47.6614         52.4004         49.6004
 10  1  2  0  1 30.0000000  0  8G17G 5G18G 8G28G 9G27G15
  23881193.4804   23881193.4504   23881196.2414   -4909139.68546  -3811855.05646
      3023.2434       2355.7674         41.3004         38.8004
  24595063.6594   24595064.4344   24595067.6804     431812.85246    354885.62446
     -3736.7794      -2911.7784         38.5004         36.0004
  23249825.3664   23249825.3224   23249826.9074   -5312565.54146  -3916718.80546
      1577.9604       1229.5794         41.6004         39.3004
  23416109.4454   23416107.3644   23416113.5504   -7583948.00446  -5890253.97346
     -3132.7854      -2441.1264         41.6004         38.5004
  21684717.0124   21684716.6234   21684719.4194  -15092922.97848 -11723039.11847
     -1542.0504      -1201.6014         48.8004         45.8004
  22362471.2684   22362471.6654   22362475.4124  -13678409.46447 -10646125.52446
      3327.4974       2592.8444         44.2004         41.4004
  22145565.1674   22145563.9804   22145568.9624  -14926680.55247 -11611472.99947
      2014.9224       1570.0674         47.0004         44.0004
  20449494.5014   20449494.0424   20449496.9354  -20282574.46848 -15783915.35048
        43.8214         34.1464         52.4004         49.4004
 10  1  2  0  2  0.0000000  0  8G17G 5G18G 8G28G 9G27G15
  23863953.7354   23863954.7444   23863958.5344   -4999727.68246  -3882443.11546
      3015.8734       2350.0364         41.6004         39.2004
  24616398.8184   24616399.6414   24616402.9854     543931.47946    442250.77545
     -3737.8384      -2912.6094         37.6004         35.0004
  23240864.9294   23240864.2644   23240867.3864   -5359647.39246  -3953405.96846
      1560.8014       1216.2144         41.8004         39.0004
  23434004.7694   23434004.8544   23434010.1854   -7489896.45546  -5816967.06546
     -3137.3744      -2444.7124         40.8004         37.6004
  21693560.6224   21693559.9974   21693563.6834  -15046447.58048 -11686824.51747
     -1556.3024      -1212.7084         48.9004         45.9004
  22343496.3794   22343496.5084   22343500.5154  -13778126.88047 -10723827.39546
      3320.3004       2587.2444         44.4004         41.8004
  22134082.1204   22134081.5084   22134086.2244  -14987023.74747 -11658493.63447
      2007.9374       1564.6254         47.0004         44.2004
  20449293.3304   20449293.4984   20449296.4014  -20283629.00648 -15784737.08548
        26.4714         20.6254         52.4004         49.6004
 10  1  2  0  2 30.0000000  0  8G17G 5G18G 8G28G 9G27G15
  23846758.7374   23846758.8174   23846762.4664   -5090093.08746  -3952857.70646
      3008.4284       2344.2214         41.8004         39.3004
  24637744.2494   24637739.5674   24637745.1734     656081.58246    529640.45745
     -3738.9844      -2913.4994         37.0004         34.6004
  23232002.5554   23232004.0724   23232006.7844   -5406213.74946  -3989691.42246
      1543.6064       1202.8154         41.8004         39.3004
  23451931.0414   23451928.5614   23451934.9194   -7395708.28646  -5743573.71446
     -3141.8674      -2448.2124         41.1004         38.8004
  21702485.8504   21702485.5594   21702488.7324  -14999544.92948 -11650276.99647
     -1570.5284      -1223.7944         48.8004         45.8004
  22324562.8954   22324561.7674   22324566.1434  -13877627.96447 -10801360.69246
      3313.0704       2581.6244         44.6004         41.8004
  22122638.3954   22122638.2524   22122642.4294  -15047158.41447 -11705351.79347
      2000.9894       1559.2154         47.0004         44.2004
  20449191.6804   20449192.0604   20449194.8494  -20284161.95048 -15785152.37948
         9.0714          7.0674         52.4004         49.6004
 10  1  2  0  3  0.0000000  0  8G17G 5G18G 8G28G 9G27G15
  23829607.7454   23829607.1404   23829609.1234   -5180232.89746  -4023096.51746
      3000.8564       2338.3264         41.8004         39.2004
  24659082.2174   24659084.1294   24659090.6324     768260.36446    617052.46945
     -3739.8084      -2914.1334         36.4004         34.3004
  23223242.7504   23223241.0284   23223243.9994   -5452263.11446  -4025574.02846
      1526.3764       1189.3804         41.8004         39.3004
  23469877.5564   23469879.0574   23469883.5504   -7301384.69246  -5670074.86646
     -3146.3514      -2451.6944         41.5004         38.6004
  21711493.0464   21711492.3684   21711495.3684  -14952216.64848 -11613397.80647
     -1584.6904      -1234.8264         48.8004         45.9004
  22305669.0364   22305668.7434   22305673.3674  -13976911.34547 -10878724.34947
      3305.7944       2575.9524         44.8004         42.1004
  22111234.4754   22111234.7294   22111239.1864  -15107084.08547 -11752047.10947
      1994.0224       1553.7834         47.0004         44.2004
  20449190.2244   20449190.1104   20449192.5004  -20284172.94948 -15785160.96048
        -8.3394         -6.5004         52.2004         49.4004
 10  1  2  0  3 30.0000000  0  8G17G 5G18G 8G28G 9G27G15
  23812496.5034   23812496.2154   23812498.6854   -5270144.15646  -4093157.23646
      2993.1694       2332.3284         41.8004         39.0004
  24680433.4964   24680437.1354   24680441.2844     880464.59446    704484.35945
     -3740.5894      -2914.7444         36.3004         34.3004
  23214576.7454   23214576.8884   23214579.3964   -5497794.55146  -4061053.09246
      1509.0344       1175.8854         41.8004         38.8004
  23487853.5924   23487854.1284   23487856.9604   -7206926.68546  -5596471.29146
     -3150.8404      -2455.2044         41.3004         38.6004
  21720578.8664   21720578.5374   21720582.3104  -14904464.22348 -11576188.12747
     -1598.7814      -1245.8034         48.8004         45.8004
  22286816.6604   22286816.6604   22286821.7274  -14075975.34447 -10955917.07246
      3298.4824       2570.2544         44.8004         41.9004
  22099871.9374   22099871.7184   22099875.0724  -15166800.32347 -11798579.22347
      1987.0784       1548.3674         47.2004         44.2004
  20449286.3674   20449286.8594   20449289.8594  -20283661.73048 -15784762.62248
       -25.7744        -20.0824         52.2004         49.4004
 10  1  2  0  4  0.0000000  0  8G17G 5G18G 8G28G 9G27G15
  23795432.1164   23795431.5164   23795434.6574   -5359824.04246  -4163037.64646
      2985.4514       2326.3174         41.6004         39.2004
  24701792.3364   24701793.4224   24701799.5844     992691.98846    791934.22245
     -3741.2634      -2915.2714         36.4004         34.8004
  23206011.1464   23206011.3094   23206013.4684   -5542806.05046  -4096126.95846
      1491.6894       1162.3594         41.5004         38.5004
  23505855.6184   23505853.9744   23505858.3934   -7112335.27946  -5522763.77746
     -3155.2544      -2458.6434         41.3004         38.8004
  21729746.0774   21729746.2764   21729749.5124  -14856289.53148 -11538649.40447
     -1612.8564      -1256.7694         48.8004         45.8004
  22268008.0124   22268007.7884   22268012.6874  -14174818.62147 -11032937.80147
      3291.0544       2564.4524         44.9004         42.1004
  22088548.5234   22088547.8504   22088551.4394  -15226306.55747 -11844947.71947
      1980.0464       1542.8984         47.2004         44.4004
  20449483.9134   20449484.0204   20449486.8844  -20282627.33848 -15783956.61748
       -43.2024        -33.6614         52.2004         49.4004
 10  1  2  0  4 30.0000000  0  8G17G 5G18G 8G28G 9G27G15
  23778409.2874   23778410.3134   23778414.6234   -5449269.51846  -4232735.40946
      2977.5344       2320.1534         41.8004         39.2004
  24723152.2764   24723154.6064   24723159.0284    1104939.70346    879399.99745
     -3741.9824      -2915.8384         36.6004         34.6004
  23197545.4414   23197545.2324   23197547.7354   -5587296.12446  -4130794.56346
      1474.3204       1148.8034         40.8004         37.9004
  23523880.5244   23523880.0134   23523883.3124   -7017611.52046  -5448953.11746
     -3159.6504      -2462.0594         41.3004         38.3004
  21738993.9754   21738993.7244   21738996.5524  -14807694.35448 -11500783.03147
     -1626.8334      -1267.6604         48.8004         45.6004
  22249240.4364   22249241.4154   22249245.4264  -14273439.70147 -11109785.37946
      3283.6774       2558.6974         44.9004         41.9004
  22077262.9704   22077263.3364   22077268.0234  -15285602.39147 -11891152.25347
      1972.9794       1537.3824         47.2004         44.2004
  20449780.2524   20449780.5194   20449783.2834  -20281069.31148 -15782742.58148
       -60.6604        -47.2664         52.2004         49.4004
 10  1  2  0  5  0.0000000  0  8G17G 5G18G 8G28G 9G27G15
  23761432.4214   23761433.5444   23761438.3414   -5538477.58546  -4302248.19246
      2969.5544       2313.9514         41.6004         38.8004
  24744514.5344   24744519.1614   24744525.1134    1217205.07846    966879.48045
     -3742.5754      -2916.2994         36.6004         34.8004
  23189176.5434   23189177.1594   23189179.3264   -5631262.99346  -4165054.46646
      1456.8324       1135.1814         40.3004         37.4004
  23541930.8654   23541929.2264   23541934.0504   -6922756.49546  -5375040.16446
     -3164.0184      -2465.4554         40.9004         38.3004
  21748320.9504   21748320.6404   21748323.6904  -14758680.13748 -11462590.13347
     -1640.7574      -1278.5104         48.6004         45.6004
  22230518.2134   22230517.2924   22230520.2524  -14371837.05147 -11186458.63446
      3276.1664       2552.8594         44.8004         41.9004
  22066021.4894   22066020.4194   22066024.6654  -15344687.34747 -11937192.47447
      1965.9874       1531.9384         47.2004         44.4004
  20450176.6224   20450176.5534   20450179.4044  -20278987.13748 -15781120.12248
       -78.1464        -60.8944         52.2004         49.4004
 10  1  2  0  5 30.0000000  0  8G17G 5G18G 8G28G 9G27G15
  23744504.9114   23744505.7624   23744507.6174   -5627445.27846  -4371573.62346
      2961.5394       2307.6884         41.8004         39.5004
  24765882.4264   24765884.3334   24765889.1424    1329485.17346   1054370.47045
     -3742.9384      -2916.5774         37.0004         35.0004
  23180912.2264   23180909.4854   23180913.3164   -5674705.58746  -4198905.87546
      1439.3794       1121.5894         40.4004         37.9004
  23560004.4334   23560004.9384   23560010.5184   -6827771.61446  -5301026.02646
     -3168.2874      -2468.7964         40.9004         38.1004
  21757727.9874   21757727.3564   21757730.4474  -14709248.69048 -11424072.12247
     -1654.6524      -1289.3354         48.8004         45.8004
  22211834.9404   22211834.8544   22211839.0914  -14470009.41647 -11262956.57847
      3268.6094       2546.9584         44.9004         42.1004
  22054817.1424   22054816.6504   22054821.0664  -15403560.97747 -11983068.00347
      1958.9054       1526.4164         47.4004         44.4004
  20450672.4314   20450672.9994   20450675.8934  -20276380.30148 -15779088.83248
       -95.6404        -74.5254         52.2004         49.6004
 10  1  2  0  6  0.0000000  0  8G17G 5G18G 8G28G 9G27G15
  23727621.6704   23727620.8174   23727624.5664   -5716169.45247  -4440709.33746
      2953.3644       2301.3204         42.2004         39.5004
  24787255.7824   24787254.7654   24787256.7484    1441777.30846   1141870.80745
     -3743.1764      -2916.7624         36.8004         34.6004
  23172744.7144   23172744.4154   23172747.0994   -5717622.38646  -4232347.51946
      1421.7694       1107.8744         40.6004         38.5004
  23578104.5644   23578104.6714   23578108.5524   -6732657.75246  -5226911.37446
     -3172.6094      -2472.1624         40.1004         36.7004
  21767213.4994   21767212.7424   21767216.2544  -14659401.86548 -11385230.43147
     -1668.4654      -1300.1084         48.8004         45.8004
  22193197.3604   22193196.5754   22193200.9644  -14567955.21847 -11339277.97147
      3261.0594       2541.0764         45.1004         42.3004
  22043653.4514   22043653.4954   22043658.1084  -15462222.99547 -12028778.66147
      1951.8684       1520.9374         47.2004         44.2004
  20451269.0304   20451268.9714   20451271.5654  -20273248.49748 -15776648.47148
      -113.1604        -88.1774         52.4004         49.4004
 10  1  2  0  6 30.0000000  0  8G17G 5G18G 8G28G 9G27G15
  23710784.2564   23710784.4384   23710788.2904   -5804647.11247  -4509652.97346
      2945.1164       2294.8934         42.0004         39.3004
  24808627.1644   24808626.2484   24808627.3914    1554079.01346   1229378.62745
     -3743.5304      -2917.0344         36.4004         34.5004
  23164679.1594   23164678.1574   23164681.6604   -5760011.95546  -4265378.34346
      1404.1614       1094.1594         41.5004         39.3004
  23596229.1124   23596228.7734   23596232.9644   -6637415.86646  -5152696.94046
     -3176.8904      -2475.5094         39.6004         37.1004
  21776777.4564   21776777.2944   21776780.5064  -14609141.33748 -11346066.37747
     -1682.2294      -1310.8244         48.8004         45.8004
  22174601.4044   22174602.0984   22174606.2874  -14665672.72147 -11415421.49547
      3253.4254       2535.1244         45.3004         42.6004
  22032531.7264   22032531.0394   22032535.9194  -15520672.91647 -12074324.04347
      1944.7854       1515.4134         47.2004         44.4004
  20451964.4214   20451964.5664   20451967.3204  -20269590.93348 -15773798.43048
      -130.6964       -101.8454         52.2004         49.2004
 10  1  2  0  7  0.0000000  0  8G17G 5G18G 8G28G 9G27G15
  23693995.1704   23693993.9894   23693997.6824   -5892875.60747  -4578402.47046
      2936.7454       2288.3584         42.0004         39.2004
  24830000.5704   24829996.2974   24830000.7704    1666387.68946   1316891.87145
     -3743.7364      -2917.1944         36.1004         34.1004
  23156712.8454   23156712.3264   23156715.9094   -5801872.58947  -4297997.02446
      1386.5174       1080.4074         42.0004         39.5004
  23614377.5804   23614376.9194   23614380.6744   -6542047.31546  -5078383.86146
     -3181.1304      -2478.8044         39.9004         37.6004
  21786420.0894   21786419.4134   21786422.8484  -14558468.59848 -11306581.12247
     -1695.9324      -1321.5074         48.6004         45.6004
  22156050.7124   22156050.9824   22156054.7174  -14763160.66647 -11491386.12947
      3245.7534       2529.1654         45.5004         42.5004
  22021449.1894   22021449.0234   22021453.3474  -15578910.25547 -12119703.77947
      1937.6804       1509.8834         47.4004         44.4004
  20452760.5194   20452760.7964   20452763.9164  -20265407.40148 -15770538.55148
      -148.2274       -115.5024         52.2004         49.4004
 10  1  2  0  7 30.0000000  0  8G17G 5G18G 8G28G 9G27G15
  23677252.6624   23677253.5224   23677256.1144   -5980851.99047  -4646955.48446
      2928.3424       2281.8484         42.2004         39.7004
  24851367.8654   24851366.9784   24851373.4034    1778700.79045   1404408.62345
     -3743.8214      -2917.2734         35.6004         33.8004
  23148847.5124   23148847.4044   23148850.3224   -5843203.09446  -4330202.62046
      1368.8274       1066.6304         41.8004         38.8004
  23632550.0074   23632548.9764   23632553.5604   -6446552.65146  -5003972.46446
     -3185.2464      -2482.0154         40.4004         37.8004
  21796139.8064   21796140.0064   21796143.9404  -14507385.77548 -11266776.31847
     -1709.5734      -1332.1364         48.6004         45.6004
  22137544.0294   22137542.8344   22137547.2534  -14860417.46047 -11567170.61547
      3238.0214       2523.1334         45.5004         42.5004
  22010407.6214   22010407.3004   22010411.3764  -15636934.77447 -12164917.67347
      1930.6024       1504.3664         47.2004         44.4004
  20453657.1804   20453657.0224   20453660.3104  -20260697.23448 -15766868.28648
      -165.7844       -129.1844         52.2004         49.4004
 10  1  2  0  8  0.0000000  0  8G17G 5G18G 8G28G 9G27G15
  23660559.4164   23660559.4764   23660564.0704   -6068573.31946  -4715309.72146
      2919.7694       2275.1414         41.8004         38.8004
  24872736.8264   24872739.3704   24872743.2004    1891015.04045   1491926.27145
     -3743.7294      -2917.2004         35.0004         33.4004
  23141084.1364   23141083.1684   23141087.1654   -5884002.25346  -4361994.15746
      1351.0634       1052.7834         41.8004         39.0004
  23650743.6684   23650743.9804   23650748.7074   -6350933.57546  -4929464.16946
     -3189.4004      -2485.2534         40.1004         37.4004
  21805938.9504   21805938.6014   21805942.1834  -14455894.54148 -11226653.27347
     -1723.1604      -1342.7234         48.6004         45.4004
  22119081.1484   22119080.5004   22119083.7464  -14957441.30247 -11642773.60847
      3230.2334       2517.0614         45.3004         42.5004
  21999407.5264   21999406.7784   21999410.6374  -15694745.83447 -12209965.24647
      1923.4654       1498.7974         47.4004         44.7004
  20454653.7554   20454653.7914   20454656.3354  -20255460.35948 -15762787.61448
      -183.3544       -142.8754         52.2004         49.4004
 10  1  2  0  8 30.0000000  0  8G17G 5G18G 8G28G 9G27G15
  23643915.3654   23643916.1034   23643919.5324   -6156036.29046  -4783462.69746
      2911.0934       2268.3894         41.8004         39.3004
  24894112.1084   24894111.7184   24894118.7414    2003327.70745   1579442.67245
     -3743.7024      -2917.1704         34.7004         33.3004
  23133421.5504   23133420.8864   23133424.8654   -5924268.45846  -4393370.39946
      1333.3024       1038.9584         41.8004         39.5004
  23668964.4414   23668963.1694   23668966.4394   -6255191.05146  -4854859.66646
     -3193.5514      -2488.4844         39.6004         36.7004
  21815815.1544   21815814.4704   21815818.1644  -14403996.45448 -11186213.20647
     -1736.6864      -1353.2614         48.4004         45.4004
  22100662.1614   22100662.0564   22100666.1944  -15054230.80547 -11718193.99247
      3222.3844       2510.9534         45.3004         42.5004
  21988446.7544   21988446.1664   21988449.8044  -15752343.04047 -12254846.17947
      1916.3384       1493.2484         47.5004         44.5004
  20455750.6514   20455750.6054   20455753.2354  -20249696.02648 -15758295.93048
      -200.9314       -156.5714         52.2004         49.2004
 10  1  2  0  9  0.0000000  0  8G17G 5G18G 8G28G 9G27G15
  23627322.3144   23627322.9964   23627327.5234   -6243238.41547  -4851412.40646
      2902.3724       2261.5964         42.0004         39.3004
  24915484.6484   24915483.9024   24915489.6094    2115636.55345   1666955.98845
     -3743.5914      -2917.0904         34.0004         32.7004
  23125860.4474   23125860.7714   23125862.9464   -5964000.36447  -4424330.33146
      1315.4624       1025.0414         42.2004         39.7004
  23687207.4484   23687205.7784   23687211.6694   -6159325.99046  -4780159.68946
     -3197.5554      -2491.6004         39.4004         37.1004
  21825768.3364   21825767.9864   21825771.2094  -14351693.38648 -11145457.57047
     -1750.1674      -1363.7634         48.4004         45.4004
  22082288.1364   22082288.2154   22082291.7014  -15150784.57647 -11793430.69247
      3214.5024       2504.7984         45.1004         42.1004
  21977526.8024   21977526.4594   21977530.6104  -15809725.91747 -12299560.10547
      1909.1644       1487.6654         47.7004         44.7004
  20456948.0964   20456948.0574   20456950.7894  -20243403.94648 -15753393.01548
      -218.5394       -170.2854         52.2004         49.4004
 10  1  2  0  9 30.0000000  0  8G17G 5G18G 8G28G 9G27G15
  23610778.3434   23610778.1254   23610782.1054   -6330176.47046  -4919156.36146
      2893.4884       2254.6794         41.8004         38.8004
  24936854.1814   24936852.7594   24936857.3904    2227938.72245   1754464.12745
     -3743.3274      -2916.8834         33.3004         32.4004
  23118404.7484   23118402.5984   23118404.7724   -6003196.49847  -4454872.78046
      1297.5854       1011.0954         42.7004         40.2004
  23705471.1334   23705471.3214   23705477.1144   -6063339.48546  -4705365.04946
     -3201.5934      -2494.7464         39.7004         37.6004
  21835798.0094   21835797.5034   21835800.5884  -14298987.05248 -11104387.69647
     -1763.5914      -1374.2274         48.4004         45.4004
  22063959.9814   22063959.6904   22063963.4534  -15247101.26247 -11868482.62447
      3206.5774       2498.6424         45.3004         42.3004
  21966647.3694   21966646.6624   21966651.7604  -15866894.18947 -12344106.79347
      1902.0344       1482.1074         47.5004         44.5004
  20458245.5514   20458245.7144   20458248.7244  -20236583.75148 -15748078.59048
      -236.1464       -184.0074         52.2004         49.4004
 10  1  2  0 10  0.0000000  0  8G17G 5G18G 8G28G 9G27G15
  23594285.3014   23594285.5754   23594289.2234   -6416847.59546  -4986692.29546
      2884.5714       2247.7274         41.6004         39.2004
  24958217.1024   24958222.9834   24958223.8394    2340232.15255   1841965.67155
     -3743.1634      -2916.7414         32.8004         32.0004
  23111045.0204   23111045.4254   23111048.8944   -6041855.74647  -4484996.88246
      1279.6914        997.1584         42.7004         39.9004
  23723759.7314   23723760.2294   23723766.5094   -5967232.15646  -4630476.31246
     -3205.5934      -2497.8564         40.6004         38.5004
  21845903.7224   21845903.5034   21845906.4624  -14245879.17448 -11063004.92647
     -1776.9344      -1384.6204         48.4004         45.4004
  22045676.1934   22045676.1044   22045681.2344  -15343179.44647 -11943348.74647
      3198.6214       2492.4434         45.1004         42.5004
  21955810.5374   21955809.2864   21955813.6314  -15923847.45847 -12388485.95647
      1894.8464       1476.5074         47.5004         44.4004
  20459643.0514   20459644.0014   20459647.2004  -20229235.18148 -15742352.43848
      -253.7604       -197.7334         52.2004         49.4004
 10  1  2  0 10 30.0000000  0  7G17G18G 8G28G 9G27G15
  23577843.8084   23577844.6814   23577847.2914   -6503248.78246  -5054017.90846
      2875.4864       2240.6454         41.6004         39.0004
  23103792.3774   23103791.2124   23103794.4834   -6079976.92947  -4514701.71446
      1261.6904        983.1364         42.5004         39.5004
  23742075.7954   23742073.4424   23742076.5884   -5871005.62446  -4555494.64946
     -3209.5204      -2500.9244         40.9004         38.3004
  21856086.6134   21856085.8594   21856088.3794  -14192371.62848 -11021310.74047
     -1790.2094      -1394.9624         48.4004         45.4004
  22027440.0684   22027438.9174   22027443.1724  -15439017.49447 -12018027.72147
      3190.5654       2486.1564         45.3004         42.3004
  21945012.9594   21945013.2804   21945016.1734  -15980585.01847 -12432697.04547
      1887.6574       1470.9004         47.5004         44.5004
  20461143.5674   20461143.2764   20461146.0964  -20221357.75048 -15736214.19148
      -271.4084       -211.4864         52.2004         49.2004
 10  1  2  0 11  0.0000000  0  7G17G18G 8G28G 9G27G15
  23561454.7214   23561454.8384   23561456.8214   -6589376.82646  -5121130.69146
      2866.2954       2233.4744         41.8004         39.2004
  23096639.0154   23096639.7144   23096642.1114   -6117558.51747  -4543986.05646
      1243.6404        969.0374         42.2004         39.2004
  23760405.5464   23760404.6664   23760410.0074   -5774660.73446  -4480420.73046
     -3213.4284      -2503.9744         40.3004         37.4004
  21866343.7874   21866343.5824   21866346.3844  -14138466.39548 -10979306.65447
     -1803.4584      -1405.2944         48.4004         45.4004
  22009248.2104   22009247.7124   22009252.5684  -15534613.73047 -12092518.28047
      3182.5104       2479.8734         45.5004         42.6004
  21934256.1284   21934257.1354   21934261.2864  -16037106.58947 -12476739.81547
      1880.4354       1465.2714         47.5004         44.7004
  20462742.5944   20462742.7194   20462746.0154  -20212951.06748 -15729663.53348
      -289.0444       -225.2274         52.1004         49.4004
 10  1  2  0 11 30.0000000  0  7G17G18G 8G28G 9G27G15
  23545114.3534   23545116.7324   23545120.6894   -6675229.13646  -5188028.58946
      2857.1004       2226.3184         41.8004         39.2004
  23089591.8444   23089590.6904   23089592.4064   -6154599.22946  -4572848.95346
      1225.6914        955.0754         41.8004         38.8004
  23778759.7024   23778760.6474   23778766.3594   -5678198.39846  -4405255.31746
     -3217.3214      -2506.9984         39.7004         37.4004
  21876677.6214   21876676.5894   21876679.9864  -14084165.09348 -10936993.94947
     -1816.6174      -1415.5444         48.4004         45.4004
  21991102.6374   21991102.0724   21991106.8244  -15629966.44147 -12166819.08847
      3174.3154       2473.4934         45.5004         42.5004
  21923543.6994   21923543.0004   21923546.5344  -16093411.64147 -12520613.87947
      1873.2164       1459.6494         47.5004         44.7004
  20464442.8784   20464443.4814   20464446.8924  -20204014.83148 -15722700.23648
      -306.7174       -238.9964         52.2004         49.4004
 10  1  2  0 12  0.0000000  0  7G17G18G 8G28G 9G27G15
  23528834.5244   23528833.0374   23528835.0094   -6760802.73846  -5254709.34246
      2847.8164       2219.0704         41.8004         38.8004
  23082644.0474   23082643.8054   23082648.1344   -6191098.02446  -4601289.56046
      1207.5584        940.9584         41.8004         39.5004
  23797142.4164   23797141.5004   23797144.6084   -5581620.32846  -4329999.73646
     -3221.2314      -2510.0384         40.1004         37.6004
  21887085.3404   21887085.2394   21887087.7424  -14029469.73548 -10894374.19047
     -1829.7374      -1425.7714         48.4004         45.4004
  21973004.0264   21973003.8374   21973007.7504  -15725074.30447 -12240929.08647
      3166.1494       2467.1124         45.5004         42.5004
  21912869.8874   21912869.6244   21912872.5634  -16149500.09747 -12564319.15947
      1865.9764       1454.0074         47.7004         44.7004
  20466244.1164   20466244.6454   20466247.9114  -20194548.91848 -15715324.20448
      -324.3634       -252.7524         52.2004         49.2004
 10  1  2  0 12 30.0000000  0  7G17G18G 8G28G 9G27G15
  23512600.3354   23512603.0824   23512605.9564   -6846094.87946  -5321170.76146
      2838.3454       2211.7014         41.6004         39.2004
  23075804.6474   23075803.9074   23075805.7694   -6227053.51547  -4629306.82146
      1189.4464        926.8474         42.3004         39.7004
  23815541.6554   23815541.4814   23815544.3324   -5484926.84846  -4254654.21846
     -3225.0394      -2513.0194         40.1004         37.4004
  21897568.1544   21897568.1754   21897570.9254  -13974381.72848 -10851448.46547
     -1842.7934      -1435.9444         48.4004         45.4004
  21954952.8904   21954952.5924   21954956.5104  -15819935.79547 -12314847.13947
      3157.9374       2460.7314         45.6004         42.8004
  21902237.6024   21902237.4504   21902241.3474  -16205371.40347 -12607855.23747
      1858.7274       1448.3624         47.7004         44.9004
  20468146.5104   20468146.6984   20468150.0514  -20184553.00248 -15707535.18548
      -342.0254       -266.5104         52.1004         49.2004
 10  1  2  0 13  0.0000000  0  7G17G18G 8G28G 9G27G15
  23496428.3814   23496426.5104   23496429.1914   -6931102.29747  -5387410.33146
      2828.7664       2204.2384         42.0004         39.3004
  23069065.4584   23069065.1064   23069067.6544   -6262464.78147  -4656900.01746
      1171.2734        912.6864         42.7004         40.0004
  23833960.4994   23833960.6234   23833966.3364   -5388119.44646  -4179219.90946
     -3228.8744      -2516.0194         39.6004         36.7004
  21908125.8054   21908125.0394   21908128.0424  -13918903.13848 -10808218.38747
     -1855.7974      -1446.0674         48.4004         45.2004
  21936948.6044   21936948.2814   21936952.4674  -15914549.52147 -12388572.11047
      3149.6764       2454.2984         45.6004         42.8004
  21891647.1114   21891646.8454   21891651.0174  -16261025.17147 -12651221.81147
      1851.4834       1442.7194         47.9004         44.9004
  20470149.0324   20470149.8854   20470153.0714  -20174026.63748 -15699332.83148
      -359.7194       -280.2994         52.1004         49.4004
 10  1  2  0 13 30.0000000  0  7G17G18G 8G28G 9G27G15
  23480302.8964   23480304.3764   23480307.3644   -7015822.14547  -5453425.79546
      2819.1854       2196.7654         42.2004         39.5004
  23062431.0494   23062430.0864   23062433.0054   -6297330.33347  -4684067.96946
      1153.0724        898.4884         42.7004         39.7004
  23852406.2744   23852404.9004   23852412.1204   -5291198.52946  -4103697.15546
     -3232.5854      -2518.8734         39.2004         36.6004
  21918756.3584   21918756.3144   21918759.6284  -13863035.70248 -10764685.30947
     -1868.7004      -1456.1224         48.2004         45.2004
  21918990.1954   21918991.5524   21918995.5914  -16008913.79847 -12462102.71447
      3141.3164       2447.7764         45.8004         43.0004
  21881098.4174   21881097.9614   21881101.7844  -16316460.73947 -12694418.34747
      1844.2084       1437.0504         47.9004         44.9004
  20472253.9374   20472254.1124   20472257.1824  -20162969.72348 -15690717.05948
      -377.4154       -294.0884         52.1004         49.2004
 10  1  2  0 14  0.0000000  0  7G17G18G 8G28G 9G27G15
  23464239.5034   23464238.7984   23464241.5094   -7100251.79247  -5519215.14346
      2809.4284       2189.1774         42.2004         39.3004
  23055899.7124   23055899.5264   23055902.2494   -6331649.05947  -4710809.83246
      1134.8364        884.2834         42.5004         39.7004
  23870872.3324   23870870.8524   23870876.3704   -5194165.68946  -4028087.22246
     -3236.3104      -2521.7974         39.0004         36.6004
  21929461.4244   21929460.7244   21929464.1144  -13806781.32448 -10720850.73747
     -1881.5954      -1466.1804         48.2004         45.2004
  21901082.2764   21901081.7334   21901086.2154  -16103027.42447 -12535437.99647
      3132.9354       2441.2404         46.0004         43.2004
  21870589.9014   21870590.6334   21870594.3844  -16371677.94547 -12737444.72447
      1836.9244       1431.3734         47.9004         45.1004
  20474459.0084   20474458.8914   20474462.3574  -20151382.24548 -15681687.86148
      -395.1034       -307.8734         52.1004         49.2004
 10  1  2  0 14 30.0000000  0  7G17G18G 8G28G 9G27G15
  23448227.8664   23448226.7904   23448230.9964   -7184388.14747  -5584775.95446
      2799.6484       2181.5584         42.0004         39.3004
  23049473.0604   23049472.9374   23049475.5424   -6365419.90947  -4737124.78446
      1116.5804        870.0434         42.7004         40.0004
  23889356.4144   23889355.9584   23889361.4344   -5097021.89246  -3952390.80145
     -3239.9844      -2524.6474         38.3004         35.9004
  21940239.3514   21940239.0304   21940241.8854  -13750141.82348 -10676716.05547
     -1894.3804      -1476.1414         48.2004         45.1004
  21883221.6174   21883221.0464   21883223.8024  -16196888.95347 -12608576.84047
      3124.4874       2434.6704         45.8004         42.8004
  21860125.5404   21860124.5854   21860128.6264  -16426676.04147 -12780300.36747
      1829.6224       1425.6814         47.9004         44.9004
  20476764.6944   20476765.3704   20476768.2184  -20139263.53048 -15672244.72048
      -412.8114       -321.6694         52.1004         49.2004
 10  1  2  0 15  0.0000000  0  7G17G18G 8G28G 9G27G15
  23432272.9204   23432272.8834   23432278.1394   -7268228.27447  -5650105.90846
      2789.7034       2173.7934         42.3004         39.9004
  23043151.0554   23043151.8644   23043154.5044   -6398641.63247  -4763011.85246
      1098.2504        855.7714         42.9004         39.9004
  23907862.0004   23907862.8984   23907869.2664   -4999768.09946  -3876608.65845
     -3243.6164      -2527.4924         38.2004         35.9004
  21951091.0374   21951090.2594   21951093.2524  -13693119.09048 -10632282.75347
     -1907.1264      -1486.0714         48.1004         45.1004
  21865407.2284   21865408.1694   21865412.0964  -16290496.50347 -12681517.78447
      3115.9964       2428.0554         46.0004         43.3004
  21849700.4174   21849700.6004   21849704.3894  -16481454.75147 -12822985.06847
      1822.3034       1419.9674         47.9004         44.9004
  20479172.5394   20479172.3964   20479175.5634  -20126613.51348 -15662387.56848
      -430.5354       -335.4804         52.1004         49.4004
 10  1  2  0 15 30.0000000  0  7G17G18G 8G28G 9G27G15
  23416376.1544   23416376.1134   23416381.4084   -7351769.13047  -5715202.70146
      2779.6374       2165.9414         42.5004         40.0004
  23036933.6114   23036933.4954   23036938.0524   -6431313.31747  -4788470.31846
      1079.8564        841.4554         42.7004         39.7004
  23926389.7104   23926390.3264   23926393.3454   -4902405.63346  -3800741.85445
     -3247.2034      -2530.2824         37.8004         35.3004
  21962013.8124   21962013.7784   21962016.8304  -13635714.82948 -10587552.16547
     -1919.8164      -1495.9634         48.1004         44.9004
  21847645.6484   21847643.9854   21847647.3984  -16383848.43247 -12754259.53147
      3107.4354       2421.3784         46.2004         43.3004
  21839318.2044   21839318.3674   21839322.3964  -16536013.62847 -12865498.47547
      1814.9554       1414.2544         47.9004         44.9004
  20481680.9934   20481680.8344   20481683.9004  -20113432.08248 -15652116.33848
      -448.2554       -349.2904         52.1004         49.2004
 10  1  2  0 16  0.0000000  0  7G17G18G 8G28G 9G27G15
  23400537.3314   23400537.6454   23400538.7304   -7435008.12547  -5780064.23546
      2769.5614       2158.1014         42.7004         39.9004
  23030821.3674   23030820.0564   23030824.3154   -6463433.64047  -4813499.13946
      1061.4644        827.1034         42.7004         39.9004
  23944940.6204   23944938.6104   23944942.0464   -4804934.96046  -3724790.67145
     -3250.8234      -2533.1144         37.6004         35.0004
  21973010.3734   21973009.8124   21973012.4224  -13577930.96947 -10542525.77747
     -1932.4394      -1505.7974         47.9004         44.9004
  21829929.1794   21829928.5604   21829931.7144  -16476943.33347 -12826800.99247
      3098.8644       2414.6874         46.5004         43.5004
  21828978.7784   21828978.1854   21828981.7344  -16590352.12447 -12907840.15547
      1807.6034       1408.5204         47.9004         44.9004
  20484289.3894   20484290.1164   20484293.4114  -20099719.10748 -15641430.90448
      -465.9564       -363.0824         52.1004         49.2004
 10  1  2  0 16 30.0000000  0  7G17G18G 8G28G 9G27G15
  23384756.9924   23384755.7404   23384758.3344   -7517942.45147  -5844688.36246
      2759.3554       2150.1324         43.0004         40.4004
  23024813.7584   23024813.8694   23024817.9764   -6495001.56247  -4838097.51846
      1043.0284        812.7424         42.5004         39.7004
  23963508.2964   23963508.4574   23963511.9774   -4707357.46646  -3648756.35645
     -3254.2824      -2535.7994         37.6004         35.5004
  21984077.9684   21984077.3284   21984080.5214  -13519769.01947 -10497204.78047
     -1945.0294      -1515.6124         47.9004         44.9004
  21812262.5064   21812261.9504   21812265.9704  -16569780.17347 -12899141.37847
      3090.2464       2407.9814         46.5004         43.5004
  21818679.6374   21818679.3204   21818684.0954  -16644470.02547 -12950009.94847
      1800.2374       1402.7784         47.9004         44.9004
  20487000.7734   20487001.0874   20487004.0844  -20085474.32948 -15630331.09548
      -483.7084       -376.9154         52.1004         49.2004
 10  1  2  0 17  0.0000000  0  7G17G18G 8G28G 9G27G15
  23369031.1284   23369031.4914   23369035.2714   -7600568.66947  -5909072.39646
      2748.9984       2142.0614         42.9004         39.9004
  23018913.9354   23018912.4614   23018916.0424   -6526015.97247  -4862264.59546
      1024.5524        798.3454         42.9004         40.2004
  23982094.7294   23982095.5224   23982103.9454   -4609674.02346  -3572639.41545
     -3257.9384      -2538.6614         37.5004         35.2004
  21995217.0194   21995216.8594   21995220.2424  -13461231.31947 -10451590.99647
     -1957.4944      -1525.3184         47.9004         44.9004
  21794645.8814   21794645.7524   21794649.4924  -16662357.04847 -12971279.20647
      3081.5564       2401.2184         46.7004         44.0004
  21808423.2454   21808423.2364   21808428.3094  -16698366.67447 -12992007.33447
      1792.8604       1397.0344         47.9004         45.1004
  20489812.6544   20489812.7894   20489815.8234  -20070697.73048 -15618816.87348
      -501.4364       -390.7284         52.1004         49.2004
 10  1  2  0 17 30.0000000  0  7G17G18G 8G28G 9G27G15
  23353366.2884   23353367.3524   23353370.8934   -7682884.35347  -5973214.49346
      2738.6474       2134.0174         42.9004         40.2004
  23013117.4314   23013116.7394   23013118.6254   -6556476.23947  -4885999.88046
      1006.0924        783.9764         42.9004         40.2004
  24000706.5384   24000701.7984   24000709.9364   -4511885.39946  -3496440.57645
     -3261.2664      -2541.2564         36.8004         34.5004
  22006428.1764   22006427.1624   22006430.3294  -13402319.56647 -10405685.72947
     -1969.9364      -1535.0154         47.9004         44.7004
  21777077.9524   21777077.5864   21777082.5624  -16754672.26547 -13043213.14247
      3072.8034       2394.3874         46.7004         43.7004
  21798210.0214   21798209.4934   21798213.8264  -16752041.47248 -13033831.85347
      1785.4504       1391.2574         48.1004         45.2004
  20492726.2634   20492726.1684   20492728.9184  -20055389.13748 -15606888.10948
      -519.1484       -404.5304         52.1004         49.2004
 10  1  2  0 18  0.0000000  0  7G17G18G 8G28G 9G27G15
  23337761.9214   23337762.1014   23337766.4214   -7764886.63247  -6037112.35646
      2728.1254       2125.8124         42.9004         40.0004
  23007427.1794   23007425.3274   23007428.3094   -6586381.13447  -4909302.40346
       987.5674        769.5234         43.0004         40.2004
  24019331.7214   24019332.5494   24019336.5404   -4413992.80045  -3420160.68145
     -3264.8204      -2544.0164         35.7004         33.8004
  22017708.2204   22017708.3024   22017712.4604  -13343035.67347 -10359490.49047
     -1982.3214      -1544.6634         47.7004         44.9004
  21759560.9864   21759560.7314   21759566.0184  -16846724.41147 -13114942.05847
      3063.9744       2387.5154         46.7004         43.7004
  21788037.3614   21788037.3594   21788042.0474  -16805494.16248 -13075483.28947
      1778.0694       1385.5064         48.1004         45.1004
  20495740.0654   20495740.2924   20495743.4394  -20039548.46948 -15594544.73648
      -536.8844       -418.3514         52.1004         49.2004
 10  1  2  0 18 30.0000000  0  7G17G18G 8G28G 9G27G15
  23322219.1784   23322218.8804   23322221.6234   -7846572.55147  -6100763.69646
      2717.5334       2117.5654         42.7004         40.0004
  23001840.4444   23001840.7194   23001843.2524   -6615729.85347  -4932171.54346
       969.0024        755.0544         42.9004         39.9004
  24037982.0764   24037981.6824   24037984.0974   -4315997.61146  -3343800.80845
     -3268.2594      -2546.6884         36.1004         34.6004
  22029060.4574   22029060.2294   22029064.3834  -13283381.35147 -10313006.60047
     -1994.6224      -1554.2554         47.9004         44.9004
  21742094.8604   21742094.4944   21742099.3754  -16938511.93947 -13186464.80247
      3055.1534       2380.6384         46.9004         44.0004
  21777908.4924   21777908.4924   21777912.6344  -16858724.34748 -13116961.35247
      1770.6194       1379.7044         48.1004         45.2004
  20498855.5814   20498856.0714   20498859.3994  -20023175.58448 -15581786.65548
      -554.6274       -432.1774         52.1004         49.2004
 10  1  2  0 19  0.0000000  0  7G17G18G 8G28G 9G27G15
  23306732.9144   23306734.0544   23306738.9904   -7927939.00347  -6164166.12146
      2706.8584       2109.2364         42.7004         40.0004
  22996361.5184   22996361.5064   22996364.9204   -6644521.15647  -4954606.32546
       950.4064        740.5834         42.9004         40.2004
  24056648.5344   24056648.6324   24056652.8654   -4217900.41446  -3267361.48745
     -3271.5674      -2549.2634         36.8004         35.0004
  22040482.3194   22040482.3004   22040486.1784  -13223358.69747 -10266235.70347
     -2006.8554      -1563.7944         47.7004         44.7004
  21724679.3614   21724678.6374   21724683.3354  -17030033.23547 -13257780.08247
      3046.2284       2373.6794         47.0004         44.2004
  21767821.1624   21767821.2744   21767825.6204  -16911731.46548 -13158265.58547
      1763.1734       1373.9044         48.1004         45.1004
  20502072.8994   20502072.8764   20502076.2614  -20006270.46548 -15568613.84748
      -572.3804       -446.0114         52.1004         49.1004
 10  1  2  0 19 30.0000000  0  7G17G18G 8G28G 9G27G15
  23291311.7174   23291311.8494   23291315.6644   -8008983.57247  -6227317.72546
      2696.1004       2100.8524         42.9004         40.0004
  22990990.6024   22990988.5194   22990992.1854   -6672753.91647  -4976605.87046
       931.7594        726.0324         42.9004         39.9004
  24075335.1894   24075334.1804   24075341.1894   -4119702.22346  -3190843.39745
     -3274.9694      -2551.9284         36.8004         34.6004
  22051974.3484   22051974.4474   22051977.6924  -13162969.50547 -10219179.18647
     -2019.0464      -1573.2844         47.7004         44.9004
  21707313.4034   21707313.2494   21707318.4914  -17121286.72147 -13328886.68447
      3037.3044       2366.7314         47.0004         44.0004
  21757777.6004   21757777.3474   21757781.0204  -16964515.14348 -13199395.71747
      1755.7254       1368.0944         48.1004         45.1004
  20505391.4904   20505391.2704   20505394.4414  -19988832.94948 -15555026.18948
      -590.1234       -459.8354         52.1004         49.1004
 10  1  2  0 20  0.0000000  0  7G17G18G 8G28G 9G27G15
  23275952.4884   23275951.8634   23275955.7494   -8089703.24047  -6290216.16446
      2685.1944       2092.3694         43.0004         40.6004
  22985724.0594   22985722.5504   22985726.1844   -6700427.67447  -4998169.81446
       913.1124        711.5134         42.7004         40.0004
  24094043.4594   24094041.0784   24094045.6554   -4021403.96246  -3114247.40545
     -3278.3084      -2554.5294         37.0004         34.8004
  22063535.2384   22063535.2644   22063538.2464  -13102215.59047 -10171838.47747
     -2031.2084      -1582.7554         47.7004         44.7004
  21690001.0854   21690000.5454   21690003.6254  -17212271.15347 -13399783.63247
      3028.3074       2359.7194         47.0004         44.0004
  21747775.2194   21747774.8434   21747779.4524  -17017075.04648 -13240351.48747
      1748.2744       1362.2914         48.1004         45.1004
  20508810.8424   20508810.5764   20508814.0884  -19970863.27148 -15541023.85948
      -607.8544       -473.6524         51.9004         49.1004
 10  1  2  0 20 30.0000000  0  7G17G18G 8G28G 9G27G15
  23260655.0014   23260656.1074   23260658.6274   -8170094.85647  -6352858.97846
      2674.1984       2083.7954         43.6004         41.1004
  22980562.7394   22980563.0494   22980567.8104   -6727541.36047  -5019297.36446
       894.4354        696.9764         42.7004         39.7004
  24112764.2514   24112762.2384   24112769.7614   -3923007.16646  -3037574.60245
     -3281.4994      -2557.0114         36.3004         34.1004
  22075166.8564   22075166.0684   22075168.2704  -13041099.03747 -10124215.18647
     -2043.2364      -1592.1324         47.7004         44.7004
  21672737.0734   21672737.2024   21672741.8804  -17302984.54647 -13470469.37047
      3019.2194       2352.6404         46.9004         43.7004
  21737816.8634   21737816.4594   21737819.6614  -17069410.72048 -13281132.53647
      1740.7744       1356.4484         48.1004         45.1004
  20512331.4024   20512331.7854   20512334.8294  -19952361.33648 -15526606.77548
      -625.5994       -487.4794         51.9004         49.1004
 10  1  2  0 21  0.0000000  0  7G17G18G 8G28G 9G27G15
  23245418.4544   23245417.9704   23245423.8944   -8250155.93647  -6415244.25946
      2663.1544       2075.1964         43.7004         41.1004
  22975511.0794   22975511.2534   22975514.6914   -6754094.15847  -5039987.85546
       875.7424        682.3864         42.5004         39.9004
  24131503.7714   24131505.0604   24131513.3284   -3824512.21745  -2960825.28245
     -3284.6424      -2559.4474         35.7004         34.0004
  22086865.1134   22086864.5484   22086866.9874  -12979621.36847 -10076310.50747
     -2055.2474      -1601.4994         47.7004         44.7004
  21655527.3984   21655527.2034   21655531.3324  -17393425.46647 -13540942.79347
      3010.1484       2345.5684         46.9004         43.9004
  21727900.6084   21727899.9604   21727903.3994  -17121521.55848 -13321738.37847
      1733.2684       1350.6034         48.1004         45.1004
  20515954.0084   20515954.1034   20515956.7524  -19933326.99248 -15511774.83648
      -643.3524       -501.3154         51.9004         49.1004
 10  1  2  0 21 30.0000000  0  7G17G18G 8G28G 9G27G15
  23230246.1004   23230247.4074   23230251.0794   -8329883.71447  -6477369.77646
      2651.9784       2066.4684         43.7004         40.7004
  22970564.2424   22970565.4434   22970567.7714   -6780085.11547  -5060240.55046
       856.9764        667.7594         42.9004         40.0004
  24150270.5904   24150268.9914   24150272.6484   -3725920.65845  -2884000.73645
     -3287.9144      -2562.0104         35.7004         34.0004
  22098632.2644   22098631.7154   22098634.0384  -12917784.68347 -10028126.08447
     -2067.1814      -1610.7864         47.7004         44.7004
  21638368.8604   21638369.3734   21638373.3614  -17483592.68147 -13611202.93747
      3001.0004       2338.4384         46.7004         43.9004
  21718027.0574   21718026.4604   21718030.0234  -17173407.20448 -13362168.74447
      1725.7654       1344.7554         48.1004         45.1004
  20519676.9274   20519676.9804   20519680.1514  -19913760.49248 -15496528.21948
      -661.0904       -515.1354         51.9004         48.9004
 10  1  2  0 22  0.0000000  0  7G17G18G 8G28G 9G27G15
  23215141.8134   23215139.1794   23215144.3344   -8409275.35347  -6539233.40246
      2640.7344       2057.7244         43.7004         40.9004
  22965726.1414   22965725.8944   22965729.6934   -6805513.44647  -5080054.82146
       838.2234        653.1614         42.9004         40.0004
  24169050.7694   24169048.5824   24169055.6604   -3627232.98246  -2807101.27045
     -3291.1234      -2564.5154         36.1004         34.5004
  22110467.0564   22110466.4814   22110469.1254  -12855590.97247  -9979663.44747
     -2079.0674      -1620.0514         47.7004         44.7004
  21621263.4224   21621263.0094   21621267.5804  -17573484.55447 -13681248.53047
      2991.7714       2331.2524         46.9004         44.0004
  21708196.3814   21708195.5774   21708199.4334  -17225067.12547 -13402423.22547
      1718.2054       1338.8664         47.9004         45.1004
  20523501.1404   20523501.7714   20523504.6664  -19893661.67448 -15480866.81348
      -678.8214       -528.9534         51.7004         48.7004
 10  1  2  0 22 30.0000000  0  7G17G18G 8G28G 9G27G15
  23200095.4704   23200096.2884   23200100.1294   -8488327.78647  -6600832.69746
      2629.4164       2048.9054         43.7004         40.9004
  22960994.8864   22960993.8384   22960998.2384   -6830378.39047  -5099430.10746
       819.3884        638.4794         42.9004         40.0004
  24187846.4944   24187846.3194   24187851.8954   -3528450.17946  -2730127.71645
     -3294.2404      -2566.9484         36.1004         34.1004
  22122368.7704   22122369.0554   22122372.0654  -12793041.96547  -9930923.96147
     -2090.8744      -1629.2514         47.5004         44.4004
  21604210.2144   21604209.7814   21604214.2284  -17663099.52847 -13751078.35347
      2982.5394       2324.0574         46.9004         44.0004
  21698408.4624   21698408.2934   21698411.9564  -17276500.93448 -13442501.51147
      1710.6934       1333.0124         48.1004         45.1004
  20527427.8484   20527427.9134   20527430.6734  -19873030.62948 -15464790.68748
      -696.5464       -542.7624         51.7004         48.9004
 10  1  2  0 23  0.0000000  0  7G17G18G 8G28G 9G27G15
  23185119.0684   23185117.8314   23185121.4054   -8567038.45747  -6662165.64246
      2617.9534       2039.9604         43.6004         40.7004
  22956372.0684   22956369.8744   22956374.3314   -6854678.98247  -5118365.63146
       800.6024        623.8594         43.0004         40.4004
  24206661.0034   24206658.1314   24206668.0494   -3429573.63045  -2653081.09445
     -3297.4244      -2569.4154         35.0004         33.1004
  22134338.9084   22134338.9054   22134341.8114  -12730139.61447  -9881909.14047
     -2102.6144      -1638.4014         47.4004         44.4004
  21587210.2324   21587210.4374   21587213.6124  -17752435.62247 -13820690.88747
      2973.2114       2316.7824         47.0004         44.2004
  21688664.4784   21688663.6434   21688667.4674  -17327708.07948 -13482403.18047
      1703.1104       1327.0934         48.1004         45.2004
  20531454.5054   20531454.8764   20531457.8234  -19851867.51748 -15448299.96148
      -714.3204       -556.6124         51.7004         48.7004
 10  1  2  0 23 30.0000000  0  7G17G18G 8G28G 9G27G15
  23170206.1604   23170205.2644   23170209.0554   -8645404.17647  -6723229.83746
      2606.4264       2030.9834         43.6004         40.6004
  22951854.7184   22951853.9754   22951856.3984   -6878414.42847  -5136860.78846
       781.7594        609.1514         43.0004         40.0004
  24225492.9104   24225492.8274   24225494.5484   -3330603.94145  -2575961.89345
     -3300.5204      -2571.8394         34.2004         32.7004
  22146376.1414   22146375.7804   22146378.9504  -12666885.85247  -9832620.49647
     -2114.2894      -1647.5034         47.4004         44.4004
  21570263.2294   21570263.4954   21570267.4424  -17841491.44447 -13890085.02547
      2963.8454       2309.4794         47.2004         44.2004
  21678963.7004   21678963.1144   21678966.4134  -17378688.25248 -13522127.99747
      1695.5474       1321.2064         48.2004         45.4004
  20535583.0304   20535583.6894   20535586.1724  -19830172.09648 -15431394.45748
      -732.0534       -570.4334         51.5004         48.7004
 10  1  2  0 24  0.0000000  0  7G17G18G 8G28G 9G27G15
  23155360.0614   23155359.3614   23155362.7134   -8723422.41747  -6784023.28246
      2594.7854       2021.9144         43.6004         40.6004
  22947445.4414   22947445.4174   22947447.6564   -6901584.12447  -5154915.11746
       762.8814        594.4514         43.0004         40.4004
  24244348.3204   24244348.5114   24244350.8474   -3231542.23145  -2498770.97745
     -3303.5444      -2574.1924         34.7004         33.3004
  22158480.0624   22158479.5044   22158482.0074  -12603282.50047  -9783059.43147
     -2125.9114      -1656.5584         47.4004         44.4004
  21553370.7804   21553369.8654   21553374.4774  -17930265.56047 -13959259.66047
      2954.4164       2302.1364         47.4004         44.5004
  21669305.1604   21669304.6814   21669308.1954  -17429441.01348 -13561675.59547
      1687.9484       1315.2844         48.2004         45.2004
  20539813.0954   20539813.2024   20539816.1624  -19807944.60648 -15414074.35048
      -749.7854       -584.2494         51.5004         48.7004
 10  1  2  0 24 30.0000000  0  7G17G18G 8G28G 9G27G15
  23140579.4434   23140578.9814   23140583.0214   -8801090.43347  -6844543.80046
      2583.0534       2012.7774         43.7004         41.1004
  22943144.0954   22943143.7714   22943146.3284   -6924187.24747  -5172527.94846
       743.9344        579.7094         43.0004         40.2004
  24263213.1694   24263214.0064   24263214.9684   -3132389.67945  -2421509.29845
     -3306.5824      -2576.5524         34.7004         33.4004
  22170648.4624   22170648.3864   22170651.1204  -12539331.64747  -9733227.61347
     -2137.4574      -1665.5564         47.2004         44.0004
  21536530.5304   21536530.8584   21536535.9074  -18018756.57047 -14028213.67847
      2944.9734       2294.7804         47.4004         44.5004
  21659690.5474   21659690.2104   21659693.8264  -17479965.83448 -13601045.59147
      1680.3644       1309.3754         48.4004         45.4004
  20544143.5504   20544144.1164   20544147.2674  -19785185.56248 -15396340.03248
      -767.4974       -598.0484         51.7004         48.7004
 10  1  2  0 25  0.0000000  0  7G17G18G 8G28G 9G27G15
  23125866.1064   23125866.3884   23125869.8824   -8878405.74547  -6904789.46446
      2571.2474       2003.5714         43.6004         40.7004
  22938950.2784   22938950.2084   22938950.6144   -6946223.33547  -5189698.92246
       725.0474        564.9474         42.9004         40.0004
  24282097.9294   24282094.3244   24282106.3414   -3033147.08045  -2344177.42045
     -3309.5694      -2578.8854         35.0004         34.0004
  22182884.2424   22182884.1754   22182886.2464  -12475035.16447  -9683126.45247
     -2148.9474      -1674.5084         47.2004         44.4004
  21519745.3314   21519745.4374   21519750.0134  -18106963.17647 -14096946.10047
      2935.4444       2287.3624         47.5004         44.5004
  21650119.8404   21650119.4854   21650123.1204  -17530262.39748 -13640237.70847
      1672.7264       1303.4274         48.4004         45.4004
  20548576.1834   20548576.3434   20548579.1904  -19761894.74848 -15378191.35048
      -785.2394       -611.8754         51.7004         48.7004
 10  1  2  0 25 30.0000000  0  7G17G18G 8G28G 9G27G15
  23111221.9644   23111220.9954   23111227.1914   -8955364.99047  -6964757.71446
      2559.3244       1994.2954         43.7004         41.1004
  22934866.1844   22934864.3404   22934867.0264   -6967691.49347  -5206427.35946
       706.1464        550.2534         42.9004         40.2004
  24301005.8604   24301005.6974   24301007.6404   -2933815.12746  -2266775.98545
     -3312.4794      -2581.1504         36.6004         35.0004
  22195185.8034   22195184.5844   22195187.1904  -12410394.61347  -9632757.18447
     -2160.3794      -1683.4164         47.4004         44.2004
  21503015.1734   21503014.7294   21503019.6804  -18194883.17247 -14165455.15747
      2925.8704       2279.8984         47.4004         44.4004
  21640592.8284   21640591.6994   21640595.1114  -17580330.02348 -13679251.44447
      1665.1034       1297.4814         48.4004         45.4004
  20553108.7784   20553109.2884   20553112.5284  -19738072.42148 -15359628.51648
      -802.9314       -625.6624         51.5004         48.7004
 10  1  2  0 26  0.0000000  0  7G17G18G 8G28G 9G27G15
  23096645.3394   23096645.5934   23096649.7074   -9031965.67147  -7024446.55346
      2547.3364       1984.9514         43.7004         41.1004
  22930886.7194   22930886.5884   22930890.6264   -6988591.11047  -5222712.77246
       687.1544        535.4384         42.9004         40.2004
  24319925.3434   24319922.7884   24319925.3344   -2834394.96246  -2189305.83345
     -3315.3734      -2583.4114         36.1004         33.8004
  22207551.3694   22207550.5844   22207552.9964  -12345412.26947  -9582121.59647
     -2171.7384      -1692.2674         47.4004         44.4004
  21486340.0384   21486339.1124   21486343.0624  -18282515.40347 -14233739.99547
      2916.2594       2272.4074         47.4004         44.4004
  21631106.9794   21631108.0024   21631110.9174  -17630168.35748 -13718086.51047
      1657.4434       1291.5194         48.4004         45.4004
  20557743.3774   20557743.7014   20557747.1844  -19713718.82748 -15340651.69348
      -820.6454       -639.4664         51.5004         48.7004
 10  1  2  0 26 30.0000000  0  7G17G18G 8G28G 9G27G15
  23082136.3624   23082136.9194   23082140.9324   -9108205.09147  -7083853.88046
      2535.2684       1975.5184         44.1004         41.2004
  22927019.0744   22927017.4544   22927020.3984   -7008921.43747  -5238554.59246
       668.1694        520.6464         42.7004         39.5004
  24338850.7084   24338854.5974   24338861.5554   -2734887.77045  -2111767.81445
     -3318.3804      -2585.7494         34.5004         32.7004
  22219981.9784   22219981.0804   22219983.9644  -12280090.20847  -9531221.29647
     -2183.0304      -1701.0644         47.2004         44.2004
  21469718.6304   21469718.4104   21469722.2994  -18369857.99747 -14301799.14547
      2906.5754       2264.8684         47.4004         44.4004
  21621667.6724   21621667.1264   21621671.2094  -17679776.93748 -13756742.53747
      1649.7694       1285.5324         48.4004         45.4004
  20562479.2084   20562479.3424   20562482.8014  -19688833.94848 -15321260.88848
      -838.3554       -653.2654         51.5004         48.9004
 10  1  2  0 27  0.0000000  0  7G17G18G 8G28G 9G27G15
  23067698.7604   23067699.6384   23067702.1004   -9184080.28747  -7142977.41246
      2523.0904       1966.0414         44.1004         41.2004
  22923256.8834   22923256.7874   22923259.7174   -7028682.04047  -5253952.45246
       649.1584        505.8494         42.2004         39.3004
  24357813.5414   24357812.5774   24357813.0674   -2635294.43245  -2034162.66145
     -3321.2444      -2587.9724         34.3004         33.1004
  22232476.4724   22232475.5104   22232478.6894  -12214430.02647  -9480057.50547
     -2194.2894      -1709.8414         47.2004         44.2004
  21453153.1404   21453153.2554   21453156.8644  -18456909.48447 -14369631.45847
      2896.8404       2257.2824         47.4004         44.4004
  21612271.3044   21612270.7514   21612274.5364  -17729155.14148 -13795219.06447
      1642.1034       1279.5664         48.2004         45.2004
  20567315.4704   20567315.7324   20567318.8244  -19663418.07848 -15301456.33048
      -856.0414       -667.0404         51.5004         48.7004
 10  1  2  0 27 30.0000000  0  7G17G18G 8G28G 9G27G15
  23053329.9194   23053329.0464   23053333.5614   -9259588.61647  -7201815.05746
      2510.8214       1956.4664         43.9004         40.9004
  22919605.3524   22919605.3804   22919609.2184   -7047872.43047  -5268906.01746
       630.1844        491.0704         42.0004         39.2004
  24376780.7074   24376779.6784   24376783.2484   -2535615.80745  -1956491.18145
     -3324.0364      -2590.1584         34.7004         33.4004
  22245034.4124   22245033.6494   22245037.3574  -12148433.61647  -9428631.73947
     -2205.4724      -1718.5584         47.0004         43.9004
  21436644.2834   21436644.0184   21436647.2364  -18543668.38347 -14437235.76847
      2887.0704       2249.6604         47.5004         44.5004
  21602918.7994   21602918.1664   21602922.3834  -17778302.51848 -13833515.72047
      1634.3774       1273.5364         48.4004         45.4004
  20572252.7704   20572253.2044   20572256.6544  -19637471.53148 -15281238.23848
      -873.7314       -680.8284         51.5004         48.7004
 10  1  2  0 28  0.0000000  0  7G17G18G 8G28G 9G27G15
  23039030.9594   23039031.7424   23039034.9594   -9334727.60747  -7260364.91746
      2498.4294       1946.8394         43.7004         40.9004
  22916061.7724   22916061.9424   22916065.0064   -7066492.27447  -5283414.99846
       611.0934        476.1754         42.0004         39.0004
  24395759.9364   24395760.5704   24395767.5504   -2435852.70845  -1878753.67745
     -3326.8794      -2592.3794         34.7004         33.3004
  22257655.6964   22257655.8924   22257659.5004  -12082103.32247  -9376945.80047
     -2216.5544      -1727.1894         46.7004         43.7004
  21420190.0214   21420190.0844   21420193.8204  -18630133.28447 -14504611.02347
      2877.2364       2242.0044         47.5004         44.5004
  21593611.0934   21593609.9694   21593614.1484  -17827218.72948 -13871632.24847
      1626.6754       1267.5354         48.4004         45.6004
  20577291.5764   20577291.6194   20577295.0754  -19610994.26248 -15260606.60148
      -891.4154       -694.6064         51.5004         48.7004
 10  1  2  0 28 30.0000000  0  7G17G18G 8G28G 9G27G15
  23024804.0914   23024803.9814   23024807.6204   -9409494.32247  -7318624.66446
      2485.9954       1937.1384         43.9004         41.4004
  22912629.6094   22912628.4564   22912631.3654   -7084540.31346  -5297478.42946
       592.0464        461.3384         41.8004         39.2004
  24414761.4414   24414759.1504   24414765.7704   -2336006.17945  -1800951.16945
     -3329.6414      -2594.5264         33.5004         32.0004
  22270342.2434   22270342.0894   22270344.7154  -12015440.91747  -9325001.06247
     -2227.5924      -1735.7794         46.7004         43.9004
  21403793.2224   21403792.4114   21403795.8614  -18716302.40447 -14571755.79147
      2867.3484       2234.2974         47.5004         44.5004
  21584346.2924   21584345.7254   21584349.7404  -17875903.29348 -13909568.27047
      1618.9484       1261.5124         48.4004         45.4004
  20582430.5794   20582430.8774   20582434.0184  -19583986.74148 -15239561.79148
      -909.1014       -708.3884         51.5004         48.5004
 10  1  2  0 29  0.0000000  0  7G17G18G 8G28G 9G27G15
  23010649.1444   23010648.6114   23010650.9544   -9483885.99247  -7376592.21746
      2473.4244       1927.3444         44.1004         41.2004
  22909302.8804   22909301.7824   22909305.7724   -7102016.20747  -5311096.01046
       572.9664        446.4724         42.0004         39.3004
  24433773.2084   24433774.0464   24433785.6854   -2236077.40045  -1723084.55445
     -3332.4754      -2596.7344         33.0004         32.0004
  22283090.4574   22283089.9654   22283093.1854  -11948447.91647  -9272798.72547
     -2238.5874      -1744.3534         46.7004         43.7004
  21387452.3964   21387451.3514   21387455.2764  -18802174.28747 -14638668.93947
      2857.4194       2226.5584         47.5004         44.7004
  21575125.0424   21575125.4264   21575129.6104  -17924355.76548 -13947323.44447
      1611.2184       1255.4984         48.4004         45.4004
  20587670.0314   20587671.1004   20587674.3474  -19556449.21648 -15218103.99148
      -926.7494       -722.1434         51.4004         48.5004
 10  1  2  0 29 30.0000000  0  7G17G18G 8G28G 9G27G15
  22996563.5294   22996564.0454   22996567.2834   -9557899.89847  -7434265.36446
      2460.7904       1917.4954         44.1004         41.2004
  22906085.3324   22906085.8174   22906088.6424   -7118919.83847  -5324267.66746
       553.9164        431.6404         42.3004         39.7004
  24452808.5504   24452806.6934                   -2136067.07545  -1645154.46945
     -3334.8434      -2598.5844         31.9004         31.2004
  22295900.2314   22295900.5334   22295904.4184  -11881126.75047  -9220340.67347
     -2249.4784      -1752.8454         46.5004         43.7004
  21371167.1194   21371167.2544   21371171.2204  -18887747.28447 -14705349.18847
      2847.4244       2218.7794         47.5004         44.7004
  21565949.3354   21565949.2344   21565953.8064  -17972575.75148 -13984897.46247
      1603.4514       1249.4464         48.4004         45.4004
  20593011.9734   20593012.2594   20593015.1504  -19528382.63648 -15196233.93448
      -944.3894       -735.8854         51.5004         48.5004
 10  1  2  0 30  0.0000000  0  7G17G18G 8G28G 9G27G15
  22982551.4344   22982551.6044   22982554.6984   -9631533.42947  -7491642.12746
      2448.0844       1907.5924         44.1004         41.2004
  22902979.6034   22902978.9394   22902981.3314   -7135250.18247  -5336992.62046
       534.7814        416.7184         42.3004         39.5004
  24471854.3374                                   -2035976.34245  -1567161.67645
     -3337.6794      -2600.7954         31.4004         31.0004
  22308774.4894   22308773.6824   22308777.4584  -11813479.17747  -9167628.27147
     -2260.3384      -1761.2924         46.7004         43.9004
  21354939.8564   21354940.4844   21354944.2844  -18973019.75947 -14771795.25947
      2837.3784       2210.9454         47.7004         44.7004
  21556817.9214   21556817.9634   21556821.9214  -18020562.53548 -14022289.76547
      1595.6654       1243.3714         48.6004         45.6004
  20598453.1904   20598453.8624   20598457.0644  -19499786.29948 -15173951.07948
      -962.0474       -749.6524         51.5004         48.5004
 10  1  2  0 30 30.0000000  0  7G17G18G 8G28G 9G27G15
  22968611.5844   22968612.6664   22968615.0754   -9704783.86347  -7548720.39646
      2435.2734       1897.6224         44.1004         41.4004
  22899980.4094   22899980.7524   22899982.9894   -7151007.29847  -5349270.90546
       515.6614        401.8174         42.5004         39.9004
  24490914.7264                                   -1935805.55544  -1489106.55545
     -3340.4104      -2602.9134         29.5004         30.1004
  22321708.0424   22321708.1284   22321711.8194  -11745507.07747  -9114662.99447
     -2271.1314      -1769.7134         46.7004         43.5004
  21338773.4504   21338771.2884   21338775.2544  -19057990.11647 -14838005.92047
      2827.2974       2203.0874         47.7004         44.7004
  21547731.5444   21547730.7614   21547735.1674  -18068315.84648 -14059500.13747
      1587.8704       1237.3014         48.6004         45.8004
  20603996.2834   20603996.3374   20603999.7154  -19470660.73748 -15151255.83248
      -979.6774       -763.3874         51.5004         48.5004
 10  1  2  0 31  0.0000000  0  8G17G22G18G 8G28G 9G27G15
  22954746.8204   22954746.7704   22954750.9894   -9777648.41247  -7605497.93946
      2422.3544       1887.5544         44.4004         41.9004
                                  24516246.947     -200051.39544    -92924.008 2
      2169.1134       1702.051          26.4004         13.300
  22897092.9324   22897091.7974   22897094.0404   -7166190.66147  -5361102.11246
       496.5254        386.9144         42.9004         40.4004
  24509994.1734                                   -1835556.23744     69629.58244
     -3342.9764      -2604.8464         26.4004         26.0004
  22334705.1794   22334704.1024   22334708.1294  -11677212.77547  -9061446.66347
     -2281.8564      -1778.0744         46.7004         43.7004
  21322659.5284   21322659.3844   21322663.1224  -19142656.86647 -14903980.00647
      2817.1494       2195.1814         47.7004         44.7004
  21538688.3184   21538687.9384   21538692.6194  -18115835.07248 -14096528.10847
      1580.0754       1231.2304         48.8004         45.8004
  20609638.3474   20609639.0864   20609642.2124  -19441006.64048 -15128148.74448
      -997.2864       -777.1094         51.4004         48.5004
 10  1  2  0 31 30.0000000  0  7G17G18G 8G28G 9G27G15
  22940955.7504   22940955.3204   22940958.4864   -9850124.92547  -7661973.13446
      2409.3804       1877.4304         44.6004         41.6004
  22894313.1624   22894311.2074   22894314.4924   -7180799.45747  -5372485.59746
       477.3544        371.9734         43.0004         40.4004
  24529090.6774                                   -1735229.36454    147803.11155
     -3345.2734      -2606.5984         26.4004         30.1004
  22347760.4234   22347760.7044   22347764.4974  -11608597.52247  -9007980.24147
     -2292.5204      -1786.3714         46.5004         43.5004
  21306605.5984   21306605.9504   21306610.2244  -19227018.55147 -14969716.36947
      2806.9494       2187.2374         47.7004         44.7004
  21529690.3664   21529690.2744   21529694.2774  -18163119.80848 -14133373.35947
      1572.2424       1225.1244         48.6004         45.6004
  20615382.3744   20615382.6704   20615386.1884  -19410824.31048 -15104630.04148
     -1014.8924       -790.8244         51.4004         48.4004
 10  1  2  0 32  0.0000000  0  7G17G22G18G28G 9G27G15
  22927235.5644   22927237.1274   22927241.1424   -9922210.15447  -7718143.41846
      2396.3004       1867.2484         44.2004         41.1004
  24478454.3434                                     -29025.12144    -13831.24343
      2140.4354       1667.8714         26.4004         23.4004
  22891642.1514   22891641.7264   22891643.1764   -7194833.73747  -5383421.39846
       458.2204        357.0394         43.0004         40.2004
  22360879.5994   22360879.1454   22360882.0054  -11539663.47947  -8954265.40447
     -2303.0864      -1794.6134         46.5004         43.7004
  21290610.0464   21290610.4624   21290615.4604  -19311073.31747 -15035213.58147
      2796.6674       2179.2244         47.7004         44.9004
  21520737.5014   21520736.4364   21520741.2194  -18210169.45048 -14170035.41747
      1564.4014       1219.0174         48.6004         45.6004
  20621226.7394   20621226.5934   20621230.3694  -19380113.76148 -15080699.74348
     -1032.4784       -804.5284         51.4004         48.4004
 10  1  2  0 32 30.0000000  0  7G17G22G18G28G 9G27G15
  22913596.0524   22913594.9924   22913598.5214   -9993901.62347  -7774006.86646
      2383.1384       1857.0004         44.4004         41.6004
                                  24477148.064      -93020.05644    -19666.416
      2125.8974       1666.528          26.4004          1.500
  22889081.0714   22889081.0844   22889082.4334   -7208292.92447  -5393909.07446
       439.0324        342.1104         43.0004         40.4004
  22374058.0734   22374057.0354   22374060.3914  -11470412.96347  -8900303.96447
     -2313.6104      -1802.8144         46.7004         43.7004
  21274675.2744   21274674.3014   21274678.3244  -19394819.79247 -15100470.55447
      2786.3754       2171.1974         47.9004         44.9004
  21511828.6674   21511828.0894   21511832.2004  -18256983.78248 -14206514.12447
      1556.5524       1212.8984         48.6004         45.4004
  20627170.6074   20627170.7984   20627174.3834  -19348875.81948 -15056358.49148
     -1050.0404       -818.2194         51.2004         48.4004
 10  1  2  0 33  0.0000000  0  7G17G22G18G28G 9G27G15
  22900026.0094   22900027.0084   22900031.4664  -10065196.83347  -7829561.58346
      2369.8644       1846.6334         44.2004         41.4004
                                  24459998.919     -156579.90844    -89320.891 2
      2111.3404       1650.487          26.4004         14.700
  22886629.1354   22886628.9104   22886630.8554   -7221176.63147  -5403948.34046
       419.8404        327.1624         43.2004         40.6004
  22387296.3164   22387295.8204   22387297.4174  -11400847.77947  -8846097.33447
     -2324.0714      -1810.9674         46.5004         43.3004
  21258796.4704   21258796.9534   21258801.0044  -19478256.36047 -15165486.05347
      2776.0364       2163.1414         47.9004         45.1004
  21502964.7514   21502964.7214   21502968.9644  -18303562.44648 -14242809.18747
      1548.7034       1206.7764         48.6004         45.6004
  20633214.8014   20633215.4004   20633219.1114  -19317110.79848 -15031606.52948
     -1067.6114       -831.9064         51.2004         48.2004
 10  1  2  0 33 30.0000000  0  7G17G22G18G28G 9G27G15
  22886537.3464   22886537.0144   22886541.4614  -10136092.92647  -7884805.27046
      2356.5024       1836.2204         44.6004         41.8004
  24442170.6674                                    -219702.90944    -10276.46743
      2096.8234       1633.8854         26.4004         23.4004
  22884286.9864   22884285.6664   22884289.7324   -7233484.65347  -5413539.02446
       400.6714        312.2234         43.4004         40.7004
  22400593.6894   22400592.8924   22400594.9524  -11330969.63447  -8791646.82947
     -2334.4504      -1819.0584         46.3004         43.3004
  21242979.5964   21242979.3674   21242982.3384  -19561381.51547 -15230258.90047
      2765.6544       2155.0544         47.9004         44.9004
  21494146.6324   21494145.8764   21494150.3614  -18349904.69648 -14278920.03947
      1540.7914       1200.6184         48.6004         45.6004
  20639360.8114   20639360.7184   20639363.9734  -19284819.40848 -15006444.40848
     -1085.1564       -845.5804         51.2004         48.4004
 10  1  2  0 34  0.0000000  0  7G17G22G18G28G 9G27G15
  22873122.4064   22873122.1534   22873125.7174  -10206587.62247  -7939736.18546
      2343.0904       1825.7954         44.4004         41.6004
  24430240.3784                                    -282386.87444    -59121.25845
      2082.1124       1622.4284         26.4004         35.2004
  22882052.8374   22882053.0674   22882057.4734   -7245216.87847  -5422681.01546
       381.4644        297.2394         43.4004         40.6004
  22413950.2374   22413949.4134   22413951.9664  -11260780.72647  -8736954.16247
     -2344.8004      -1827.1184         46.3004         43.5004
  21227220.5664   21227220.6724   21227223.6404  -19644193.78547 -15294787.93747
      2755.1544       2146.8734         47.9004         45.1004
  21485371.9914   21485372.1744   21485376.8864  -18396009.87948 -14314846.14447
      1532.8794       1194.4464         48.6004         45.6004
  20645605.2114   20645605.6064   20645608.9184  -19252001.48848 -14980872.01248
     -1102.6774       -859.2274         51.2004         48.2004
 10  1  2  0 34 30.0000000  0  7G17G22G18G28G 9G27G15
  22859784.9764   22859784.2924   22859787.2734  -10276678.11447  -7994352.13546
      2329.5694       1815.2554         44.4004         41.6004
  24418394.3164                                    -344629.81344   -107622.29846
      2067.3794       1610.9444         26.4004         36.4004
  22879930.9614   22879930.8814   22879933.5494   -7256372.91247  -5431374.03346
       362.2364        282.2654         43.4004         40.6004
  22427364.5324   22427364.2394   22427367.7294  -11190282.83347  -8682020.75147
     -2355.0334      -1835.0944         46.5004         43.5004
  21211521.7744   21211521.6924   21211525.1064  -19726691.33548 -15359071.71847
      2744.6754       2138.7074         48.1004         45.1004
  21476644.8904   21476644.3324   21476648.4964  -18441877.93048 -14350587.47747
      1524.9654       1188.2794         48.8004         45.8004
  20651950.7484   20651950.5244   20651954.0214  -19218657.79848 -14954889.91548
     -1120.2274       -872.9024         51.0004         48.0004
 10  1  2  0 35  0.0000000  0  7G17G22G18G28G 9G27G15
  22846524.5394   22846523.9084   22846527.9984  -10346361.90047  -8048651.18046
      2315.9924       1804.6684         44.4004         41.6004
  24406635.5804                   24406636.4514    -406429.35446   -155777.76846
      2052.5654       1599.4034         37.5004         36.7004
  22877916.0324   22877916.7084   22877920.8804   -7266952.45447  -5439617.83546
       343.0354        267.3014         43.2004         40.4004
  22440838.5574   22440838.2834   22440840.9874  -11119478.04847  -8626848.19847
     -2365.2454      -1843.0394         46.3004         43.3004
  21195883.8074   21195883.5144   21195886.3264  -19808872.70748 -15423109.13947
      2734.0784       2130.4504         48.1004         45.2004
  21467960.7314   21467960.7944   21467965.4234  -18487508.25148 -14386143.57047
      1517.0334       1182.1034         48.8004         45.8004
  20658395.3884   20658395.6634   20658399.1984  -19184788.91748 -14928498.59148
     -1137.7104       -886.5284         51.0004         48.0004
 10  1  2  0 35 30.0000000  0  7G17G22G18G28G 9G27G15
  22833340.1384   22833340.4524   22833345.0984  -10415636.38047  -8102631.26446
      2302.2764       1793.9664         44.8004         41.9004
  24394959.6944   24394959.8584   24394960.6844    -467783.91646   -203586.50346
      2037.7014       1587.8174         38.7004         36.4004
  22876014.5274   22876013.0324   22876017.8874   -7276955.10147  -5447412.10146
       323.7894        252.3084         43.2004         40.6004
  22454369.8264   22454369.8564   22454372.1834  -11048368.31647  -8571438.02347
     -2375.3984      -1850.9594         46.2004         43.2004
  21180305.0674   21180305.1164   21180308.6434  -19890736.41848 -15486899.03347
      2723.4674       2122.1834         48.2004         45.2004
  21459324.3044   21459323.9394   21459327.3114  -18532900.34048 -14421514.03747
      1509.0874       1175.9134         48.8004         45.8004
  20664940.1174   20664940.2994   20664943.9124  -19150395.37948 -14901698.44748
     -1155.1904       -900.1454         50.8004         48.0004
 10  1  2  0 36  0.0000000  0  7G17G22G18G28G 9G27G15
  22820237.0054   22820236.5904   22820240.6754  -10484498.82547  -8156290.28146
      2288.5164       1783.2394         44.8004         41.9004
  24383368.6804   24383368.6684   24383370.8974    -528690.90346   -251046.43746
      2022.7574       1576.1764         38.5004         36.4004
  22874221.1634   22874219.8564   22874223.3284   -7286380.69847  -5454756.74146
       304.5364        237.2974         43.2004         40.2004
  22467959.7624   22467958.8494   22467962.1304  -10976955.27947  -8515791.49047
     -2385.4604      -1858.7984         46.2004         43.2004
  21164787.5414   21164787.3964   21164791.5494  -19972280.69848 -15550440.02647
      2712.7964       2113.8564         48.1004         45.2004
  21450731.2614   21450730.9014   21450734.8074  -18578053.53848 -14456698.34947
      1501.1184       1169.7024         48.6004         45.6004
  20671584.5684   20671585.4524   20671589.0234  -19115477.34848 -14874489.60948
     -1172.6824       -913.7794         50.8004         48.0004
 10  1  2  0 36 30.0000000  0  7G17G22G18G28G 9G27G15
  22807213.7284   22807212.3814   22807215.9314  -10552946.83047  -8209626.39047
      2274.6284       1772.4444         44.9004         42.3004
  24371865.4994   24371864.8004   24371866.6324    -589149.34446   -298156.93846
      2007.8464       1564.5554         39.2004         36.9004
  22872536.5074   22872536.1934   22872539.0434   -7295229.05847  -5461651.59046
       285.3154        222.3194         43.0004         40.0004
  22481606.3414   22481605.9244   22481609.0064  -10905241.28647  -8459910.45747
     -2395.4584      -1866.5954         46.0004         43.2004
  21149331.0564   21149330.9794   21149334.9614  -20053504.44448 -15613731.24247
      2702.0624       2105.5074         48.1004         45.1004
  21442184.2104   21442184.1274   21442188.3534  -18622967.29548 -14491696.08247
      1493.1174       1163.4654         48.6004         45.6004
  20678329.9854   20678329.6374   20678332.7874  -19080035.94648 -14846872.94148
     -1190.1064       -927.3534         51.0004         48.0004
 10  1  2  0 37  0.0000000  0  8G17G22G18G28G 9G27G12G15
  22794265.5434   22794265.9544   22794269.7084  -10620977.73247  -8262637.46446
      2260.7074       1761.5954         44.9004         41.9004
  24360443.1194   24360443.4074   24360448.2874    -649157.15146   -344916.27646
      1992.7914       1552.8234         39.0004         36.6004
  22870963.3234   22870963.0404   22870966.2214   -7303500.58047  -5468096.94846
       266.0634        207.3304         43.0004         40.2004
  22495308.8794   22495308.6784   22495312.7364  -10833228.34047  -8403796.47847
     -2405.4184      -1874.3534         45.8004         42.8004
  21133935.3254   21133935.7054   21133939.7764  -20134405.46648 -15676770.99347
      2691.3054       2097.1214         48.1004         45.1004
  21433683.0484   21433683.2374   21433686.8994  -18667641.36348 -14526507.04047
      1485.1294       1157.2424         48.6004         45.6004
  24787905.6234                                     -94290.16544    -59858.47143
      3787.6754       2950.5244         26.4004         23.4004
  20685173.0014   20685173.1334   20685176.8264  -19044071.23848 -14818848.49247
     -1207.5404       -940.9424         50.8004         47.8004
 10  1  2  0 37 30.0000000  0  8G17G22G18G28G 9G27G12G15
  22781399.2764   22781399.8864   22781404.0324  -10688588.85447  -8315321.44547
      2246.6714       1750.6564         44.9004         42.1004
  24349111.6694   24349112.6724   24349113.4114    -708712.05646   -391322.69846
      1977.6234       1541.0064         39.0004         36.9004
  22869497.9604   22869499.2044   22869502.1694   -7311194.43547  -5474092.17046
       246.8484        192.3304         42.7004         39.7004
  22509070.2664   22509069.6844   22509072.9174  -10760917.76847  -8347450.56947
     -2415.3014      -1882.0494         46.0004         43.2004
  21118603.2974   21118602.6334   21118606.7404  -20214982.25748 -15739558.08747
      2680.4874       2088.6914         48.2004         45.4004
  21425227.3614   21425227.3334   21425231.5234  -18712075.10148 -14561130.73347
      1477.1014       1150.9924         48.8004         45.8004
                                  24767013.695     -207876.05144   -145418.215 4
      3784.5894       2947.534          26.4004         25.100
  20692115.9374   20692116.7984   20692119.9654  -19007583.81548 -14790416.74147
     -1224.9594       -954.5144         50.8004         47.8004
 10  1  2  0 38  0.0000000  0  8G17G22G18G28G 9G27G12G15
  22768614.9664   22768614.6184   22768618.1364  -10755777.98747  -8367676.62547
      2232.5784       1739.6654         45.1004         42.1004
  24337867.2754   24337866.0734   24337868.3504    -767812.34846   -437374.90146
      1962.4694       1529.1984         39.2004         36.7004
  22868143.7274   22868143.3024   22868145.6904   -7318310.85847  -5479637.46546
       227.5774        177.3544         42.3004         39.3004
  22522886.5064   22522886.1634   22522888.8434  -10688312.11047  -8290874.72347
     -2425.0984      -1889.6824         46.0004         42.8004
  21103332.3334   21103331.8754   21103335.2634  -20295233.34948 -15802091.41147
      2669.5844       2080.1984         48.2004         45.4004
  21416818.4234   21416818.2144   21416822.0604  -18756268.05548 -14595566.80147
      1469.0654       1144.7224         48.8004         45.8004
  24744693.9414                   24744699.0164    -321367.31345   -236801.96545
      3781.4514       2946.5844         32.1004         35.3004
  20699159.4894   20699159.7814   20699162.9334  -18970574.30048 -14761578.17148
     -1242.3384       -968.0544         50.8004         48.0004
 10  1  2  0 38 30.0000000  0  8G17G22G18G28G 9G27G12G15
  22755908.9634   22755909.6324   22755912.6004  -10822542.40147  -8419700.85346
      2218.3634       1728.6004         44.8004         41.9004
  24326706.0444   24326704.6754   24326707.0364    -826456.19646   -483071.35445
      1947.2614       1517.3414         37.8004         35.2004
  22866900.2254   22866898.8674   22866902.3574   -7324849.85747  -5484732.77546
       208.3034        162.3024         42.2004         39.5004
  22536758.4314   22536757.7914   22536761.4474  -10615412.90947  -8234070.14447
     -2434.8434      -1897.2744         45.6004         42.6004
  21088122.5954   21088122.3744   21088126.4694  -20375157.12548 -15864369.66847
      2658.6314       2071.6554         48.4004         45.2004
  21408454.0424   21408453.9624   21408458.5124  -18800219.80548 -14629814.91047
      1461.0094       1138.4424         48.8004         45.8004
  24723119.2844   24723116.8554   24723120.4634    -434762.57946   -325161.91146
      3778.2234       2944.0684         37.5004         36.2004
  20706300.8254   20706301.0904   20706304.8234  -18933043.35248 -14732333.27448
     -1259.7304       -981.6074         50.8004         48.0004
 10  1  2  0 39  0.0000000  0  8G17G22G18G28G 9G27G12G15
  22743286.4034   22743286.0934   22743289.3064  -10888879.68847  -8471392.20346
      2204.0884       1717.4844         44.8004         41.8004
  24315632.7094   24315632.2114   24315634.4674    -884641.67946   -528410.66145
      1931.8284       1505.3174         37.0004         34.6004
  22865764.1194   22865765.2394   22865767.8214   -7330811.05347  -5489377.90246
       189.0674        147.3024         42.2004         39.5004
  22550687.1394   22550686.7244   22550689.3394  -10542222.38147  -8177038.56547
     -2444.4994      -1904.8014         45.8004         43.2004
  21072976.5744   21072975.9394   21072979.5464  -20454751.95048 -15926391.59347
      2647.6534       2063.1064         48.2004         45.2004
  21400136.3934   21400136.4184   21400140.8764  -18843929.71748 -14663874.57647
      1452.9484       1132.1644         48.8004         45.9004
  24701555.3854   24701556.4214   24701559.4474    -548059.86146   -413445.52546
      3774.9874       2941.5514         38.7004         36.6004
  20713541.7354   20713542.1944   20713545.8784  -18894991.83348 -14702682.75647
     -1277.0714       -995.1184         50.8004         47.8004
 10  1  2  0 39 30.0000000  0  8G17G22G18G28G 9G27G12G15
  22730743.3104   22730743.9104   22730747.2104  -10954787.26047  -8522748.74646
      2189.7464       1706.2964         44.6004         41.8004
  24304652.4884   24304652.2214   24304650.4204    -942366.78446   -573391.29845
      1916.4764       1493.3624         37.0004         35.2004
  22864741.9234   22864741.0514   22864743.9104   -7336194.47547  -5493572.76146
       169.8284        132.3264         42.5004         40.0004
  22564668.6894   22564668.7054   22564671.8334  -10468742.45247  -8119781.47247
     -2454.1384      -1912.3244         45.8004         42.8004
  21057893.6424   21057892.7754   21057896.1624  -20534016.61748 -15988156.26547
      2636.6314       2054.5214         48.2004         45.4004
  21391865.3554   21391864.7974   21391868.3974  -18887397.33848 -14697745.44747
      1444.8714       1125.8774         48.9004         45.9004
  24680014.5494   24680017.1824   24680020.6174    -661257.27046   -501651.31646
      3771.5764       2938.8904         39.0004         36.9004
  20720882.1624   20720882.2744   20720884.9664  -18856420.16048 -14672626.92447
     -1294.3944      -1008.6214         50.7004         47.8004
 10  1  2  0 40  0.0000000  0  8G17G22G18G28G 9G27G12G15
  22718283.7414   22718284.5964   22718287.8424  -11020262.81147  -8573768.64746
      2175.2974       1695.0394         44.8004         41.9004
  24293756.3764   24293753.5114   24293754.6704    -999630.28346   -618012.21446
      1901.0084       1481.3054         37.8004         36.0004
  22863827.3074   22863826.4974   22863829.1234   -7341000.45647  -5497317.68446
       150.5614        117.3364         42.7004         40.0004
  22578706.3004   22578706.0024   22578709.2114  -10394975.34447  -8062300.61847
     -2463.6694      -1919.7294         45.6004         42.6004
  21042872.2254   21042872.2294   21042875.9334  -20612949.25748 -16049662.21847
      2625.5324       2045.8764         48.4004         45.4004
  21383640.0304   21383639.7954   21383643.1394  -18930622.23348 -14731427.17747
      1436.7704       1119.5614         48.9004         45.9004
  24658494.9684   24658494.8704   24658498.8774    -774353.00446   -589777.85046
      3768.0594       2936.1514         39.4004         36.9004
  20728321.0584   20728321.1404   20728324.2594  -18817328.89548 -14642166.22747
     -1311.6954      -1022.0984         50.7004         47.8004
 10  1  2  0 40 30.0000000  0  8G17G22G18G28G 9G27G12G15
  22705908.0114   22705907.5414   22705911.6974  -11085303.77847  -8624449.90747
      2160.7884       1683.7164         45.1004         42.3004
  24282944.1784   24282945.0834   24282947.4474   -1056429.74946   -662271.50546
      1885.5694       1469.2754         38.9004         36.7004
  22863021.6924   22863021.4804   22863024.2674   -7345228.80447  -5500612.51346
       131.2934        102.3164         42.7004         39.9004
  22592798.4014   22592797.3694   22592800.7064  -10320922.67647  -8004597.24847
     -2473.1454      -1927.1264         45.6004         42.6004
  21027914.4814   21027915.1634   21027919.2534  -20691548.30248 -16110908.21647
      2614.3904       2037.1834         48.4004         45.4004
  21375461.5454   21375460.3744   21375464.2414  -18973603.95348 -14764919.42647
      1428.6674       1113.2404         48.9004         45.9004
  24636995.5864   24636993.4334   24636995.8654    -887345.39246   -677823.82846
      3764.6634       2933.5004         39.0004         36.6004
  20735858.5414   20735858.5924   20735862.3224  -18777718.75248 -14611301.18347
     -1328.9934      -1035.5824         50.8004         47.8004
 10  1  2  0 41  0.0000000  0  8G17G22G18G28G 9G27G12G15
  22693613.0014   22693614.0624   22693617.1944  -11149907.85147  -8674790.75347
      2146.1554       1672.3314         45.1004         42.3004
  24272227.4484   24272224.5394   24272226.2814   -1112763.51846   -706167.99245
      1870.0064       1457.1484         38.5004         35.9004
  22862327.2684   22862327.3624   22862330.7574   -7348879.43847  -5503457.17546
       112.0804         87.3254         42.3004         39.7004
  22606944.3484   22606943.8284   22606945.9914  -10246586.41647  -7946672.89247
     -2482.6084      -1934.5064         45.5004         42.5004
  21013022.2274   21013022.0134   21013025.7434  -20769812.15148 -16171893.03447
      2603.2064       2028.4684         48.6004         45.6004
  21367327.8804   21367327.7764   21367330.9384  -19016342.08048 -14798221.86647
      1420.5254       1106.9044         48.8004         45.8004
  24615513.2784   24615511.9014   24615513.4284   -1000232.42746   -765787.73046
      3761.1184       2930.7444         38.9004         36.4004
  20743494.2314   20743494.6344   20743498.3544  -18737590.60548 -14580032.51947
     -1346.2464      -1049.0274         50.8004         47.8004
 10  1  2  0 41 30.0000000  0  8G17G22G18G28G 9G27G12G15
  22681404.2024   22681404.3994   22681407.4814  -11214072.54747  -8724789.21047
      2131.4884       1660.8864         45.3004         42.6004
  24261592.0034   24261592.0224   24261594.1384   -1168629.63046   -749699.96245
      1854.4124       1444.9984         37.5004         35.3004
  22861742.3684   22861741.8684   22861743.4554   -7351952.50847  -5505851.76946
        92.7814         72.3034         42.3004         39.7004
  22621144.2904   22621143.3154   22621145.8434  -10171968.37947  -7888528.96547
     -2491.9484      -1941.7814         45.5004         42.6004
  20998192.7784   20998192.9954   20998196.9314  -20847739.51648 -16232615.64347
      2591.9564       2019.7084         48.8004         45.8004
  21359241.9374   21359241.3534   21359244.6344  -19058835.89648 -14831333.93447
      1412.3764       1100.5504         48.8004         45.8004
  24594050.8224   24594050.0934   24594052.9244   -1113012.47946   -853668.32146
      3757.5674       2927.9734         38.9004         36.6004
  20751229.2854   20751229.5964   20751232.8944  -18696945.25948 -14548360.83647
     -1363.4644      -1062.4374         50.8004         47.8004
 10  1  2  0 42  0.0000000  0  8G17G22G18G28G 9G27G12G15
  22669278.7804   22669277.2804   22669282.0334  -11277795.34547  -8774443.33347
      2116.7094       1649.3814         45.5004         42.6004
  24251052.8594   24251052.5474   24251052.3264   -1224026.26446   -792866.16945
      1838.7094       1432.7574         37.5004         35.5004
  22861267.7024   22861266.1944   22861270.1764   -7354448.11147  -5507796.37746
        73.5774         57.3544         42.7004         40.4004
  22635395.0784   22635395.8854   22635398.9344  -10097070.61847  -7830167.08747
     -2501.2314      -1949.0124         45.6004         42.6004
  20983428.6204   20983428.7474   20983432.3524  -20925328.64648 -16293074.70547
      2580.6474       2010.8984         48.8004         45.8004
  21351201.6494   21351201.1264   21351205.3304  -19101084.92648 -14864255.24547
      1404.2064       1094.1874         48.8004         45.9004
  24572608.9324   24572608.7094   24572614.6814   -1225683.69346   -941464.04646
      3753.8744       2925.0954         39.2004         36.9004
  20759061.9844   20759062.3014   20759065.4934  -18655783.04948 -14516286.40447
     -1380.6794      -1075.8514         50.7004         47.7004
 10  1  2  0 42 30.0000000  0  8G17G22G18G28G 9G27G12G15
  22657236.1974   22657236.5274   22657240.1344  -11341073.67347  -8823751.11947
      2101.8364       1637.7844         45.6004         43.0004
  24240596.0084   24240599.4314   24240601.8094   -1278951.80846   -835665.32145
      1823.0304       1420.5364         36.8004         34.5004
  22860903.4464   22860902.6904   22860905.6364   -7356366.34247  -5509291.10246
        54.3524         42.3534         43.0004         40.6004
  22649701.7214   22649701.0774   22649704.4734  -10021895.15047  -7771588.80547
     -2510.4554      -1956.2074         45.8004         43.0004
  20968728.7664   20968728.7374   20968732.4684  -21002577.74348 -16353268.79747
      2569.2824       2002.0424         48.8004         45.8004
  21343208.4024   21343208.0424   21343212.3644  -19143088.66848 -14896985.43047
      1396.0134       1087.8024         48.9004         45.9004
  24551189.4684   24551190.8384   24551193.9104   -1338244.24646  -1029173.56046
      3750.0994       2922.1544         39.4004         37.1004
  20766993.0444   20766993.6634   20766996.8554  -18614104.85648 -14483809.90347
     -1397.8514      -1089.2354         50.7004         47.7004
 10  1  2  0 43  0.0000000  0  8G17G22G18G28G 9G27G12G15
  22645279.3054   22645279.4774   22645284.8804  -11403905.23047  -8872710.76647
      2086.9054       1626.1604         45.8004         43.0004
  24230236.6604   24230236.2854   24230239.4874   -1333404.61546   -878095.97345
      1807.2074       1408.2114         36.4004         34.5004
  22860647.7714   22860647.1834   22860649.5934   -7357707.26947  -5510336.00146
        35.0684         27.3254         43.0004         40.4004
  22664059.6244   22664058.2974   22664061.6424   -9946443.87647  -7712795.61747
     -2519.6254      -1963.3524         45.6004         42.6004
  20954093.8054   20954093.4584   20954097.0084  -21079485.12448 -16413196.62747
      2557.8674       1993.1354         48.8004         45.6004
  21335261.8284   21335261.9664   21335265.9404  -19184846.61848 -14929524.07847
      1387.8314       1081.4294         48.9004         45.9004
  24529793.5304   24529793.6714   24529796.4034   -1450692.56846  -1116795.63246
      3746.3774       2919.2574         39.6004         37.1004
  20775022.8534   20775022.9334   20775026.1054  -18571911.53548 -14450932.00347
     -1415.0364      -1102.6294         50.7004         47.8004
 10  1  2  0 43 30.0000000  0  8G17G22G18G28G 9G27G12G15
  22633408.8724   22633409.7904   22633413.1404  -11466287.80947  -8921320.55347
      2071.8944       1614.4664         45.8004         42.8004
  24219962.2984   24219962.9274   24219967.7284   -1387382.79545   -920156.85745
      1791.3064       1395.8194         35.9004         34.1004
  22860501.8834   22860500.9714   22860504.4564   -7358471.13947  -5510931.22646
        15.8394         12.3364         42.9004         40.0004
  22678470.1544   22678469.5414   22678471.8584   -9870718.86547  -7653789.12347
     -2528.7174      -1970.4284         45.6004         42.8004
  20939523.7414   20939523.4974   20939527.1794  -21156049.51448 -16472857.19047
      2546.4104       1984.2174         48.6004         45.6004
  21327362.1994   21327362.4224   21327366.5094  -19226358.40948 -14961870.92547
      1379.6154       1075.0254         48.9004         45.9004
  24508417.1604   24508415.7384   24508419.3584   -1563026.63346  -1204328.67946
      3742.5374       2916.2694         39.6004         37.1004
  20783149.4764   20783149.6094   20783152.9394  -18529203.63748 -14417653.15047
     -1432.1694      -1115.9784         50.7004         47.7004
 10  1  2  0 44  0.0000000  0  8G17G22G18G28G 9G27G12G15
  22621624.0474   22621623.6864   22621627.3264  -11528218.92747  -8969578.56347
      2056.8214       1602.7124         45.5004         42.5004
  24209781.7624   24209784.7964   24209786.9054   -1440884.55045   -961846.61445
      1775.5124       1383.5094         35.4004         33.3004
  22860465.9244   22860466.2674   22860469.3614   -7358658.10547  -5511076.91446
        -3.3804         -2.6514         43.0004         39.9004
  22692931.1974   22692930.8594   22692933.4384   -9794721.92747  -7594570.72147
     -2537.7324      -1977.4624         45.6004         42.6004
  20925019.5364   20925019.0054   20925023.3174  -21232269.55848 -16532249.41547
      2534.9114       1975.2524         48.6004         45.6004
  21319510.0574   21319509.9754   21319514.3344  -19267623.38248 -14994025.45147
      1371.3684       1068.6004         48.9004         45.9004
  24487060.8224   24487061.5004   24487064.1784   -1675244.55246  -1291771.20246
      3738.6274       2913.2144         39.4004         36.9004
  20791374.6394   20791374.8084   20791377.6054  -18485981.94148 -14383973.92547
     -1449.3094      -1129.3324         50.5004         47.5004
 10  1  2  0 44 30.0000000  0  8G17G22G18G28G 9G27G12G15
  22609924.4744   22609925.7174   22609927.5364  -11589696.50947  -9017483.17147
      2041.6454       1590.8924         45.5004         42.6004
  24199694.2954   24199690.1154   24199694.3734   -1493908.38145  -1003163.89345
      1759.4684       1371.0074         33.8004         32.2004
  22860541.1744   22860540.9264   22860544.0454   -7358268.26347  -5510773.17746
       -22.6004        -17.6264         43.0004         40.4004
  22707444.4304   22707443.9924   22707447.2164   -9718454.99547  -7535141.95447
     -2546.7254      -1984.4584         45.5004         42.5004
  20910580.4154   20910580.6424   20910584.7084  -21308143.08548 -16591371.64447
      2523.3164       1966.2144         48.6004         45.6004
  21311704.8684   21311704.8244   21311708.9434  -19308640.88048 -15025987.13547
      1363.1144       1062.1644         48.9004         46.1004
  24465730.1394   24465729.3604   24465730.0904   -1787344.71346  -1379121.97546
      3734.6744       2910.1364         39.6004         37.1004
  20799696.7074   20799697.0644   20799700.1394  -18442247.60648 -14349895.23847
     -1466.3414      -1142.6014         50.5004         47.5004
 10  1  2  0 45  0.0000000  0  8G17G22G18G28G 9G27G12G15
  22598313.5204   22598313.1924   22598317.2734  -11650717.74447  -9065032.19147
      2026.3974       1579.0044         45.6004         42.8004
  24189691.7294   24189695.3084   24189694.4204   -1546452.61045  -1044107.34045
      1743.3344       1358.4314         34.9004         33.8004
  22860724.3414   22860724.2564   22860726.6334   -7357302.10947  -5510020.34046
       -41.8204        -32.5894         42.9004         40.0004
  22722008.0834   22722007.2154   22722011.1264   -9641920.10447  -7475504.39347
     -2555.6234      -1991.3844         45.5004         42.5004
  20896210.0874   20896209.0644   20896212.7034  -21383668.97448 -16650222.99247
      2511.7354       1957.2044         48.8004         45.8004
  21303947.4804   21303947.0524   21303950.6314  -19349410.72048 -15057755.84047
      1354.8534       1055.7284         49.1004         46.1004
  24444416.5604   24444418.7684   24444422.7564   -1899325.08446  -1466379.39946
      3730.6614       2907.0104         39.4004         36.9004
  20808116.9424   20808116.3864   20808120.0184  -18398001.23448 -14315417.55047
     -1483.4454      -1155.9314         50.5004         47.5004
 10  1  2  0 45 30.0000000  0  8G17G22G18G28G 9G27G12G15
  22586788.6194   22586789.5124   22586792.0004  -11711280.25847  -9112223.76947
      2011.0674       1567.0684         45.8004         43.0004
  24179790.0104   24179786.7294   24179790.6964   -1598515.34045  -1084675.65145
      1727.3034       1345.9464         35.9004         34.6004
  22861019.4134   22861018.0994   22861020.6364   -7355759.45247  -5508818.26846
       -61.0344        -47.5614         42.9004         40.2004
  22736622.2494   22736622.3954   22736625.8314   -9565118.91347  -7415659.31347
     -2564.4714      -1998.2794         45.3004         42.5004
  20881903.0024   20881903.2874   20881907.6124  -21458845.58448 -16708802.16247
      2500.0414       1948.0804         48.8004         45.8004
  21296235.3734   21296235.3194   21296239.6234  -19389932.26748 -15089331.07447
      1346.5534       1049.2624         49.1004         46.1004
  24423134.9544   24423133.6074   24423138.4214   -2011184.34646  -1553542.45146
      3726.5784       2903.8274         39.6004         37.3004
  20816632.9664   20816633.5694   20816636.9304  -18353244.17948 -14280541.92947
     -1500.4184      -1169.1584         50.5004         47.5004
 10  1  2  0 46  0.0000000  0  8G17G22G18G28G 9G27G12G15
  22575351.8284   22575351.5494   22575354.2404  -11771382.25947  -9159056.50347
      1995.7234       1555.1124         46.0004         43.0004
  24169978.4084   24169974.8194   24169975.9874   -1650095.16746  -1124867.72045
      1711.2934       1333.4784         37.0004         35.0004
  22861421.9704   22861422.1584   22861424.1474   -7353641.03847  -5507167.58646
       -80.2224        -62.5164         42.9004         40.2004
  22751287.0264   22751286.5214   22751291.3354   -9488053.89847  -7355608.64747
     -2573.2224      -2005.1124         45.3004         42.5004
  20867663.8934   20867664.3024   20867668.8554  -21533671.27548 -16767107.89047
      2488.3214       1938.9574         48.8004         45.8004
  21288572.5574   21288571.7934   21288576.3904  -19430205.01248 -15120712.43447
      1338.2694       1042.8064         49.1004         46.1004
  24401871.8734   24401871.0274   24401876.2604   -2122920.71146  -1640609.76146
      3722.5024       2900.6524         40.1004         37.9004
  20825247.5014   20825247.8224   20825250.8804  -18307976.79348 -14245268.64947
     -1517.4174      -1182.3994         50.3004         47.3004
 10  1  2  0 46 30.0000000  0  8G17G22G18G28G 9G27G12G15
  22564003.7334   22564003.2334   22564005.9794  -11831021.17547  -9205528.39147
      1980.2324       1543.0354         46.0004         43.0004
  24160250.4664   24160248.6684   24160249.7854   -1701189.89446  -1164681.73745
      1694.9864       1320.7704         36.4004         34.3004
  22861934.1714   22861933.7574   22861935.9234   -7350947.02947  -5505068.37846
       -99.4454        -77.4954         42.5004         40.0004
  22766001.9714   22766001.4794   22766005.7194   -9410726.71447  -7295353.72847
     -2581.9254      -2011.8934         45.1004         42.3004
  20853493.3254   20853492.5104   20853496.7824  -21608144.33348 -16825138.83447
      2476.5174       1929.7504         48.8004         45.8004
  21280956.2194   21280955.5684   21280960.0414  -19470228.32748 -15151899.42647
      1329.9444       1036.3204         49.1004         46.1004
  24380630.9274   24380632.3404   24380635.0494   -2234532.30346  -1727579.82646
      3718.2464       2897.3334         40.3004         37.8004
  20833958.7184   20833958.7544   20833962.0534  -18262199.92248 -14209598.36147
     -1534.3914      -1195.6324         50.3004         47.3004
 10  1  2  0 47  0.0000000  0  8G17G22G18G28G 9G27G12G15
  22552741.8604   22552742.2074   22552745.3444  -11890194.17547  -9251637.21547
      1964.6374       1530.8744         46.0004         43.2004
  24150625.6174   24150621.6354   24150621.5904   -1751797.84846  -1204116.55945
      1678.7394       1308.1104         36.1004         34.5004
  22862557.6934   22862556.4814   22862556.9844   -7347677.44047  -5502520.66546
      -118.5654        -92.3734         42.5004         39.9004
  22780766.8204   22780766.2244   22780769.6384   -9333139.08347  -7234895.82746
     -2590.5574      -2018.6224         44.9004         41.8004
  20839388.6944   20839388.5234   20839391.8334  -21682263.23648 -16882893.81547
      2464.7194       1920.5624         48.8004         45.8004
  21273387.5064   21273387.2524   21273390.9344  -19510001.89748 -15182891.81247
      1321.6054       1029.8184         49.1004         46.3004
  24359419.4684   24359417.5264   24359419.4964   -2346016.86446  -1814450.92246
      3714.0234       2894.0454         40.1004         37.6004
  20842765.8194   20842766.3884   20842770.3684  -18215914.10148 -14173531.48447
     -1551.3294      -1208.8344         50.3004         47.3004
 10  1  2  0 47 30.0000000  0  8G17G22G18G28G 9G27G12G15
  22541571.6244   22541571.4214   22541575.0654  -11948899.45047  -9297381.58247
      1949.0244       1518.7214         46.2004         43.2004
  24141078.0594   24141080.1444   24141084.1874   -1801918.23846  -1243171.38945
      1662.5444       1295.4844         36.3004         34.5004
  22863287.8944   22863287.2004   22863289.8604   -7343832.99447  -5499524.99446
      -137.7174       -107.3114         42.3004         39.3004
  22795579.7774   22795579.9964   22795583.3944   -9255293.08347  -7174236.61146
     -2599.1514      -2025.3104         44.8004         41.8004
  20825351.9604   20825351.7884   20825355.4894  -21756026.30948 -16940371.53447
      2452.8304       1911.2994         48.9004         45.9004
  21265866.5914   21265866.0704   21265869.9684  -19549525.06648 -15213689.08747
      1313.2624       1023.3194         49.3004         46.3004
  24338229.2804   24338227.8484   24338230.7414   -2457372.91346  -1901221.83546
      3709.7084       2890.6844         40.1004         37.6004
  20851670.8984   20851671.2894   20851674.4924  -18169121.02348 -14137069.34647
     -1568.2224      -1221.9934         50.3004         47.3004
 10  1  2  0 48  0.0000000  0  8G17G22G18G28G 9G27G12G15
  22530488.8254   22530488.9524   22530493.0524  -12007135.00747  -9342759.93947
      1933.3044       1506.4734         46.0004         43.2004
  24131637.4344   24131637.5854   24131639.8684   -1851549.04246  -1281844.70145
      1646.2184       1282.7684         36.6004         34.8004
  22864128.1624   22864127.5584   22864131.9244   -7339413.44347  -5496081.18246
      -156.8674       -122.2284         42.2004         39.7004
  22810442.9844   22810442.0314   22810446.0524   -9177190.82647  -7113377.71246
     -2607.6444      -2031.9284         44.4004         41.6004
  20811384.0144   20811383.3594   20811386.5254  -21829432.10148 -16997570.83547
      2440.8894       1901.9884         48.9004         45.9004
  21258393.5624   21258392.9524   21258396.7564  -19588797.33148 -15244290.84847
      1304.8854       1016.7874         49.3004         46.3004
  24317065.5184   24317063.2544   24317064.7064   -2568598.87246  -1987891.39446
      3705.3434       2887.2834         40.1004         37.6004
  20860671.8714   20860671.9404   20860674.8084  -18121821.27548 -14100212.40747
     -1585.0974      -1235.1474         50.2004         47.2004
 10  1  2  0 48 30.0000000  0  8G17G22G18G28G 9G27G12G15
  22519497.4464   22519497.4054   22519500.7764  -12064898.41147  -9387770.39047
      1917.5324       1494.1884         46.0004         43.3004
  24122288.9314   24122288.1474   24122286.8634   -1900688.62546  -1320135.26145
      1629.7664       1269.9404         37.6004         35.9004
  22865078.7864   22865078.3964   22865082.5384   -7334419.84447  -5492190.08546
      -176.0094       -137.1494         42.3004         39.5004
  22825354.0984   22825353.8414   22825357.3074   -9098833.85047  -7052320.34646
     -2616.1044      -2038.5144         44.6004         41.9004
  20797482.7794   20797482.7214   20797486.4214  -21902479.15048 -17054490.61847
      2428.9034       1892.6484         48.9004         45.9004
  21250967.5194   21250967.5824   21250971.4594  -19627818.17048 -15274696.69847
      1296.5094       1010.2654         49.3004         46.3004
  24295919.7924   24295920.6404   24295924.8494   -2679692.78346  -2074458.09346
      3700.9324       2883.8434         40.4004         37.9004
  20869768.6464   20869768.7854   20869772.4174  -18074015.50448 -14062961.15347
     -1601.9344      -1248.2624         50.0004         47.0004
 10  1  2  0 49  0.0000000  0  8G17G22G18G28G 9G27G12G15
  22508596.2634   22508596.4424   22508599.5994  -12122187.57847  -9432411.28547
      1901.7004       1481.8394         46.3004         43.5004
  24113029.1064   24113029.9294   24113031.8334   -1949335.57146  -1358041.94645
      1613.3394       1257.1454         38.2004         35.9004
  22866138.7234   22866138.9624   22866140.2594   -7328852.65347  -5487852.04846
      -195.1544       -152.0794         42.0004         39.3004
  22840313.3324   22840313.1494   22840316.1214   -9020224.32947  -6991066.18247
     -2624.4964      -2045.0634         44.9004         42.1004
  20783651.3474   20783651.1594   20783654.5424  -21975165.83048 -17111129.58547
      2416.8624       1883.2634         48.9004         45.9004
  21243590.6684   21243590.2824   21243593.9484  -19666587.15448 -15304906.30047
      1288.1014       1003.7114         49.3004         46.3004
  24274806.3304   24274805.0654   24274809.1004   -2790652.75946  -2160920.42046
      3696.4734       2880.3714         40.1004         37.4004
  20878962.3914   20878962.3194   20878965.7124  -18025705.13448 -14025316.72447
     -1618.7714      -1261.3794         50.2004         47.2004
 10  1  2  0 49 30.0000000  0  8G17G22G18G28G 9G27G12G15
  22497783.4274   22497784.1894   22497788.2724  -12178999.94747  -9476680.66047
      1885.7744       1469.4294         46.3004         43.3004
  24103868.8034   24103866.3234   24103867.5164   -1997488.13146  -1395563.40745
      1596.8314       1244.2834         37.8004         35.3004
  22867307.1484   22867306.2634   22867309.1744   -7322711.91446  -5483067.07646
      -214.2784       -166.9624         41.8004         39.2004
  22855318.9234   22855318.3764   22855322.6064   -8941364.23747  -6929616.75246
     -2632.8404      -2051.5754         44.8004         41.8004
  20769887.7624   20769887.9754   20769891.9414  -22047490.09148 -17167486.15347
      2404.7634       1873.8434         48.9004         45.9004
  21236260.0414   21236260.2574   21236264.5384  -19705103.64548 -15334919.14847
      1279.6734        997.1514         49.3004         46.3004
  24253719.5784   24253716.3804   24253719.9994   -2901477.37246  -2247277.22646
      3691.8634       2876.7804         40.3004         37.8004
  20888250.2984   20888250.8424   20888254.6604  -17976891.01148 -13987279.74947
     -1635.5474      -1274.4584         50.2004         47.2004
 10  1  2  0 50  0.0000000  0  8G17G22G18G28G 9G27G12G15
  22487064.4474   22487065.0874   22487068.2104  -12235333.41847  -9520576.87147
      1869.7494       1456.9584         46.5004         43.7004
  24094797.7674   24094796.9884   24094798.0504   -2045144.63146  -1432698.36645
      1580.2594       1231.3704         37.1004         35.0004
  22868585.0784   22868584.3514   22868586.9964   -7315998.41747  -5477835.80346
      -233.3494       -181.8214         42.0004         39.5004
  22870371.1224   22870370.7594   22870375.0214   -8862255.46147  -6867973.56546
     -2641.0954      -2057.9924         44.2004         40.9004
  20756194.1234   20756193.7394   20756198.6034  -22119450.83548 -17223559.45447
      2392.6094       1864.3734         48.9004         45.9004
  21228979.4464   21228979.1974   21228983.3934  -19743367.18948 -15364734.89747
      1271.2314        990.5674         49.3004         46.3004
  24232655.1124   24232653.3364   24232658.2784   -3012164.66946  -2333527.03746
      3687.2524       2873.1874         40.3004         37.6004
  20897635.9554   20897635.9254   20897639.1504  -17927573.98148 -13948850.89747
     -1652.2914      -1287.5024         50.2004         47.2004
 10  1  2  0 50 30.0000000  0  8G17G22G18G28G 9G27G12G15
  22476438.0154   22476436.7104   22476439.8354  -12291185.93247  -9564098.32347
      1853.7064       1444.4454         46.7004         43.7004
  24085825.4444   24085824.3784   24085826.5514   -2092303.64946  -1469445.68345
      1563.6654       1218.4444         37.5004         35.5004
  22869969.5784   22869970.1474   22869973.2374   -7308712.48846  -5472158.46546
      -252.4364       -196.7084         41.6004         38.6004
  22885472.5594   22885472.8554   22885476.8244   -8782899.96747  -6806138.12946
     -2649.3084      -2064.3934         43.9004         41.2004
  20742570.4424   20742570.2734   20742574.2284  -22191046.50748 -17279348.27847
      2380.4044       1854.8624         49.1004         45.9004
  21221746.5194   21221745.8824   21221750.2304  -19781377.17048 -15394353.06547
      1262.7704        983.9744         49.3004         46.1004
  24211617.5944   24211617.3164   24211621.2004   -3122712.88946  -2419668.47846
      3682.6204       2869.5844         40.6004         38.3004
  20907116.5054   20907116.6274   20907119.0714  -17877755.24548 -13910031.10747
     -1668.9814      -1300.5024         50.2004         47.2004
 10  1  2  0 51  0.0000000  0  8G17G22G18G28G 9G27G12G15
  22465899.8334   22465900.3864   22465903.4404  -12346555.07947  -9607243.08247
      1837.5514       1431.8564         46.7004         43.7004
  24076944.0304   24076943.9894   24076945.2424   -2138963.75546  -1505804.18545
      1547.0094       1205.4594         37.8004         35.7004
  22871466.9614   22871466.5314   22871468.4304   -7300854.61146  -5466035.44646
      -271.4554       -211.5104         41.6004         39.2004
  22900622.2994   22900621.7214   22900624.7024   -8703299.58147  -6744111.84646
     -2657.4084      -2070.6984         44.2004         41.4004
  20729015.6294   20729015.5814   20729019.0514  -22262275.56248 -17334851.43047
      2368.1834       1845.3404         48.9004         45.9004
  21214561.6114   21214561.3644   21214565.6914  -19819133.06748 -15423773.24547
      1254.2704        977.3514         49.3004         46.3004
  24190607.2384   24190606.3244   24190610.9804   -3233120.22446  -2505700.14346
      3677.8824       2865.8864         40.4004         37.8004
  20916691.5554   20916691.9154   20916695.1484  -17827435.46748 -13870820.89947
     -1685.6654      -1313.5034         50.2004         47.2004
 10  1  2  0 51 30.0000000  0  8G17G22G18G28G 9G27G12G15
  22455457.2994   22455456.1974   22455460.0874  -12401438.90147  -9650009.67747
      1821.3444       1419.2324         46.9004         44.0004
  24068161.0714   24068160.5714   24068161.4934   -2185123.85446  -1541773.10246
      1530.3684       1192.4834         38.2004         36.2004
  22873068.8924   22873069.0304   22873073.6954   -7292425.39746  -5459467.22946
      -290.4814       -226.3424         41.8004         39.3004
  22915816.2234   22915815.3914   22915819.1414   -8623456.39947  -6681896.36246
     -2665.4974      -2077.0204         44.4004         41.6004
  20715531.0984   20715531.0194   20715534.9944  -22333136.25848 -17390067.55147
      2355.8584       1835.7304         48.9004         46.1004
  21207425.1384   21207424.9054   21207429.5124  -19856634.48848 -15452995.13047
      1245.8104        970.7554         49.3004         46.3004
  24169622.2004   24169623.8714   24169628.5794   -3343384.95146  -2591620.68746
      3673.0884       2862.1404         40.4004         37.8004
  20926361.8914   20926362.2134   20926365.6184  -17776616.14048 -13831221.41647
     -1702.2834      -1326.4554         50.2004         47.2004
 10  1  2  0 52  0.0000000  0  8G17G22G18G28G 9G27G12G15
  22445104.5874   22445105.0734   22445108.4024  -12455835.31047  -9692396.47947
      1805.0614       1406.5444         46.9004         44.0004
  24059473.1184   24059472.7394   24059473.9754   -2230781.84846  -1577350.77146
      1513.5464       1179.3834         38.7004         36.4004
  22874783.2224   22874782.4724   22874786.3534   -7283425.42347  -5452454.27446
      -309.5454       -241.2104         42.0004         39.2004
  22931054.6554   22931053.8444   22931057.8604   -8543372.18547  -6619493.10246
     -2673.4784      -2083.2194         44.2004         41.4004
  20702118.0194   20702117.5344   20702121.2304  -22403626.96348 -17444995.37847
      2343.4964       1826.0974         49.3004         46.3004
  21200336.9764   21200337.1804   21200341.6184  -19893880.96448 -15482018.35147
      1237.2864        964.1144         49.3004         46.3004
  24148671.1864   24148671.3074   24148673.8354   -3453505.34946  -2677428.75646
      3668.2444       2858.3744         40.8004         38.5004
  20936127.7344   20936128.1154   20936130.8844  -17725298.05448 -13791233.30147
     -1718.9004      -1339.4044         50.0004         47.0004
 10  1  2  0 52 30.0000000  0  8G17G22G18G28G 9G27G12G15
  22434845.5294   22434846.1834   22434850.3764  -12509742.02747  -9734401.69347
      1788.6884       1393.7944         46.9004         43.9004
  24050877.5594   24050879.0104   24050881.3254   -2275936.59346  -1612536.28746
      1496.7574       1166.3044         39.0004         36.9004
  22876603.5224   22876604.3754   22876605.8344   -7273855.06146  -5444996.85246
      -328.5504       -256.0184         41.8004         39.0004
  22946340.1664   22946340.2044   22946343.5634   -8463048.84247  -6556903.48046
     -2681.4364      -2089.4414         44.4004         41.8004
  20688774.2284   20688774.3084   20688778.0924  -22473746.43648 -17499633.93447
      2331.0994       1816.4434         49.5004         46.5004
  21193298.5394   21193298.0794   21193302.0314  -19930871.80348 -15510842.38047
      1228.7424        957.4614         49.1004         46.1004
  24127743.8494   24127743.2654   24127745.6074   -3563479.75446  -2763123.05646
      3663.3784       2854.5794         41.1004         38.8004
  20945987.6064   20945987.7674   20945991.4364  -17673482.14948 -13750857.27547
     -1735.4744      -1352.3124         50.0004         47.0004
 10  1  2  0 53  0.0000000  0  8G17G22G18G28G 9G27G12G15
  22424682.7064   22424681.9364   22424684.7594  -12563157.18847  -9776023.86747
      1772.2914       1381.0054         46.9004         43.9004
  24042384.1514   24042383.0684   24042384.5614   -2320586.55346  -1647328.48046
      1479.8974       1153.1664         39.6004         37.3004
  22878534.8674   22878533.0924   22878537.4014   -7263715.03447  -5437095.55846
      -347.5114       -270.7924         42.3004         40.0004
  22961670.7754   22961670.2554   22961672.8804   -8382488.38947  -6494129.12246
     -2689.2484      -2095.5174         44.4004         41.6004
  20675501.6284   20675502.2184   20675506.1384  -22543492.80648 -17553981.75647
      2318.6274       1806.7284         49.5004         46.6004
  21186307.5484   21186307.5914   21186311.5654  -19967606.51848 -15539466.83247
      1220.1994        950.8024         49.1004         46.1004
  24106842.5464   24106842.1524   24106846.3194   -3673306.32646  -2848702.20846
      3658.3414       2850.6574         41.1004         38.6004
  20955942.2624   20955942.7444   20955946.0094  -17621169.91548 -13710094.48247
     -1752.0194      -1365.2064         50.0004         47.0004
 10  1  2  0 53 30.0000000  0  8G17G22G18G28G 9G27G12G15
  22414610.5584   22414610.7074   22414615.2384  -12616078.62547  -9817261.35847
      1755.7804       1368.1414         46.9004         43.9004
  24033981.7514   24033982.2224   24033985.2554   -2364730.21946  -1681726.11746
      1463.0304       1140.0244         39.7004         37.3004
  22880572.8904   22880571.5984   22880574.5844   -7253005.96147  -5428750.84146
      -366.4554       -285.5434         43.0004         40.6004
  22977044.9184   22977044.9074   22977048.0434   -8301692.77347  -6431171.51146
     -2697.0974      -2101.6234         44.2004         41.4004
  20662300.8264   20662300.4164   20662305.2654  -22612864.66548 -17608037.74247
      2306.1244       1796.9784         49.5004         46.5004
  21179365.8154   21179365.8704   21179370.3394  -20004084.29048 -15567891.07047
      1211.6304        944.1304         49.1004         46.1004
  24085970.4334   24085969.2574   24085974.2974   -3782983.36446  -2934164.80646
      3653.4054       2846.8014         40.8004         37.6004
  20965992.0904   20965992.3284   20965994.9764  -17568362.46148 -13668945.82747
     -1768.5094      -1378.0614         50.0004         47.0004
 10  1  2  0 54  0.0000000  0  8G17G22G18G28G 9G27G12G15
  22404635.5024   22404634.8694   22404638.7114  -12668504.08747  -9858112.37347
      1739.2394       1355.2484         46.7004         43.9004
  24025676.9824   24025677.9534   24025679.4714   -2408366.35546  -1715728.29946
      1446.0634       1126.8024         39.4004         36.7004
  22882717.3784   22882717.5514   22882721.7774   -7241728.60547  -5419963.30746
      -385.4034       -300.3264         43.2004         40.4004
  22992466.0724   22992464.3484   22992466.0844   -8220663.58947  -6368031.88146
     -2704.8514      -2107.6794         44.1004         41.1004
  20649171.3174   20649170.8904   20649175.2154  -22681860.71548 -17661800.89247
      2293.5914       1787.2074         49.5004         46.3004
  21172474.0094   21172473.5564   21172477.6124  -20040304.75648 -15596114.81347
      1203.0774        937.4644         48.9004         46.1004
  24065127.9754   24065129.6854   24065133.0944   -3892509.05746  -3019509.49746
      3648.2954       2842.8354         40.1004         37.4004
  20976134.5364   20976134.8624   20976137.8194  -17515060.43948 -13627411.78347
     -1784.9804      -1390.8924         50.0004         47.0004
 10  1  2  0 54 30.0000000  0  8G17G22G18G28G 9G27G12G15
  22394752.8134   22394753.5664   22394755.7134  -12720431.66247  -9898575.38647
      1722.5734       1342.2564         46.5004         43.3004
  24017473.1554   24017471.3824   24017473.8214   -2451493.60846  -1749333.92446
      1429.0664       1113.5694         38.9004         36.4004
  22884971.7694   22884971.6934   22884974.4954   -7229883.61247  -5410733.46546
      -404.3044       -315.0364         43.2004         40.0004
  23007926.9544   23007926.6084   23007930.1654   -8139402.92047  -6304711.88646
     -2712.5444      -2113.6764         43.9004         40.9004
  20636112.6054   20636112.9274   20636117.7114  -22750478.94148 -17715269.64247
      2280.9784       1777.3904         49.5004         46.5004
  21165630.8034   21165630.2414   21165634.2784  -20076267.49748 -15624137.73547
      1194.4394        930.7344         49.1004         46.1004
  24044317.4474   24044316.6644   24044320.0614   -4001881.50746  -3104734.75846
      3643.1894       2838.8484         40.6004         38.5004
  20986371.8724   20986371.7714   20986374.9874  -17461265.00748 -13585493.25847
     -1801.3914      -1403.6844         50.0004         47.0004
 10  1  2  0 55  0.0000000  0  8G17G22G18G28G 9G27G12G15
  22384967.2384   22384966.9534   22384971.4044  -12771859.20647  -9938648.76747
      1705.8804       1329.2564         46.5004         44.0004
  24009364.0014   24009362.3234   24009364.5564   -2494110.44946  -1782541.88046
      1411.9954       1100.2584         38.5004         36.6004
  22887331.5434   22887333.3304   22887336.1114   -7217471.54647  -5401061.73346
      -423.2074       -329.7684         42.9004         39.9004
  23023435.2124   23023434.6234   23023436.5374   -8057912.60847  -6241212.95446
     -2720.1544      -2119.6024         43.7004         40.7004
  20623127.7124   20623128.1324   20623132.1414  -22818718.01048 -17768442.93947
      2268.2804       1767.4884         49.5004         46.5004
  21158836.4954   21158835.9234   21158839.3884  -20111971.90548 -15651959.35247
      1185.8044        924.0064         49.1004         46.1004
  24023532.7314   24023534.1804   24023537.2904   -4111099.16846  -3189839.39146
      3638.0084       2834.8144         41.3004         39.0004
  20996702.0494   20996702.2024   20996705.6154  -17406977.54948 -13543191.35147
     -1817.7744      -1416.4504         50.0004         47.0004
 10  1  2  0 55 30.0000000  0  8G17G22G18G28G 9G27G12G15
  22375275.9914   22375276.5084   22375279.4134  -12822784.90947  -9978331.13047
      1689.1414       1316.2204         46.7004         43.9004
  24001349.2584   24001349.5164   24001351.4014   -2536215.20546  -1815350.81246
      1394.9534       1086.9794         39.2004         36.9004
  22889803.3314   22889802.9454   22889806.3194   -7204493.22147  -5390948.75246
      -442.0404       -344.4484         42.7004         39.9004
  23038985.8024   23038984.2694   23038987.4804   -7976194.69347  -6177536.67046
     -2727.7014      -2125.4834         43.7004         40.9004
  20610215.6744   20610215.3034   20610218.7894  -22886576.24348 -17821319.48447
      2255.5894       1757.6044         49.6004         46.6004
  21152090.4374   21152090.4064   21152095.0174  -20147417.49948 -15679579.29047
      1177.1734        917.2744         49.1004         46.1004
  24002780.4044   24002779.8104   24002783.6254   -4220160.55846  -3274822.28246
      3632.8104       2830.7714         41.1004         38.1004
  21007126.0454   21007126.5384   21007129.6124  -17352199.29648 -13500506.99247
     -1834.0974      -1429.1714         50.0004         47.0004
 10  1  2  0 56  0.0000000  0  8G17G22G18G28G 9G27G12G15
  22365680.6514   22365681.2984   22365684.4174  -12873206.68747 -10017620.82047
      1672.3054       1303.0984         46.9004         44.0004
  23993435.7184   23993435.7704   23993437.6154   -2577807.02446  -1847760.02546
      1377.8254       1073.6254         39.9004         37.9004
  22892380.7144   22892379.5944   22892384.0204   -7190949.64347  -5380395.33346
      -460.8984       -359.1464         42.5004         39.9004
  23054578.3814   23054578.1114   23054580.6304   -7894251.12047  -6113684.54146
     -2735.1864      -2131.3144         43.7004         40.9004
  20597375.2274   20597374.5584   20597379.1364  -22954052.53948 -17873898.40647
      2242.8224       1747.6554         49.6004         46.8004
  21145394.8364   21145394.8324   21145399.1264  -20182603.64348 -15706997.06347
      1168.5304        910.5434         49.1004         46.1004
  23982053.9484   23982053.8894   23982059.9974   -4329063.53646  -3359681.74446
      3627.4654       2826.5934         40.6004         37.6004
  21017643.6314   21017643.3114   21017646.3214  -17296931.54448 -13457441.22047
     -1850.4314      -1441.8924         49.8004         46.8004
 10  1  2  0 56 30.0000000  0  8G17G22G18G28G 9G27G12G15
  22356183.1234   22356182.6324   22356185.9324  -12923122.37847 -10056516.16247
      1655.4024       1289.9284         46.9004         44.0004
  23985620.0834   23985618.8964   23985620.2104   -2618884.81046  -1879768.72246
      1360.6464       1060.2444         40.6004         38.1004
  22895064.6734   22895063.6714   22895067.5454   -7176841.36547  -5369401.88346
      -479.6604       -373.7744         42.5004         39.7004
  23070215.5494   23070214.9824   23070217.4194   -7812083.71247  -6049658.00146
     -2742.6184      -2137.1014         43.7004         41.2004
  20584607.7954   20584607.6224   20584611.9334  -23021144.63748 -17926177.96247
      2229.9844       1737.6434         49.8004         46.6004
  21138749.1074   21138748.7964   21138753.1224  -20217529.95548 -15734212.37347
      1159.8844        903.8064         49.1004         46.1004
  23961360.1834   23961362.0294   23961366.5414   -4437806.42746  -3444416.44546
      3622.1294       2822.4414         40.1004         37.6004
  21028253.4114   21028253.7304   21028257.0584  -17241175.12948 -13413994.67447
     -1866.6894      -1454.5634         49.8004         46.8004
 10  1  2  0 57  0.0000000  0  8G17G22G18G28G 9G27G12G15
  22346779.1064   22346780.1494   22346783.4084  -12972530.37147 -10095015.88847
      1638.4434       1276.7154         46.7004         43.7004
  23977897.5794   23977899.6874   23977901.8054   -2659446.81746  -1911375.46246
      1343.4604       1046.8464         40.4004         37.6004
  22897857.1514   22897857.2604   22897860.8794   -7162169.11147  -5357968.96546
      -498.4534       -388.4084         42.5004         40.2004
  23085891.8184   23085891.3364   23085895.0944   -7729694.30547  -5985458.47146
     -2749.9204      -2142.8044         43.9004         41.2004
  20571914.3554   20571914.1034   20571918.1694  -23087851.09848 -17978157.01947
      2217.0864       1727.5974         49.8004         46.8004
  21132152.5134   21132151.9004   21132156.6604  -20252195.67048 -15761224.62147
      1151.1944        897.0354         49.1004         46.1004
  23940700.8464   23940701.4434   23940703.7614   -4546387.75946  -3529025.29846
      3616.7004       2818.2084         40.4004         38.1004
  21038955.7014   21038956.1784   21038959.3314  -17184931.31648 -13370168.32347
     -1882.8934      -1467.1884         49.6004         46.6004
 10  1  2  0 57 30.0000000  0  8G17G22G18G28G 9G27G12G15
  22337475.0094   22337474.4604   22337478.4794  -13021428.61147 -10133118.40947
      1621.4004       1263.4254         46.7004         43.7004
  23970280.9384   23970279.1204   23970279.4294   -2699491.77746  -1942579.33646
      1326.1894       1033.3914         39.6004         36.7004
  22900755.6204   22900755.9714   22900760.2744   -7146933.59847  -5346097.11846
      -517.2384       -403.0504         42.5004         39.9004
  23101611.9734   23101612.5514   23101615.4154   -7647084.63547  -5921087.33446
     -2757.3224      -2148.5544         43.7004         40.7004
  20559293.2204   20559293.4674   20559297.7134  -23154170.48048 -18029834.45647
      2204.1744       1717.5404         49.8004         46.8004
  21125604.4554   21125604.8634   21125609.4274  -20286600.45948 -15788033.54347
      1142.4804        890.2444         49.1004         46.3004
  23920069.6364   23920069.3344   23920073.8324   -4654805.29346  -3613506.49946
      3611.1484       2813.8834         41.1004         38.6004
  21049750.7444   21049751.4844   21049754.7594  -17128201.32048 -13325963.13647
     -1899.0824      -1479.8034         49.6004         46.6004
 10  1  2  0 58  0.0000000  0  8G17G22G18G28G 9G27G12G15
  22328267.0064   22328267.9654   22328271.9804  -13069814.68847 -10170821.83347
      1604.3214       1250.1204         46.9004         44.0004
  23962758.6744   23962758.2554   23962759.7604   -2739018.61346  -1973379.44546
      1308.9804       1019.9884         39.7004         37.4004
  22903764.5504   22903762.9434   22903764.6654   -7131135.74047  -5333787.11846
      -535.9564       -417.6174         42.3004         39.3004
  23117374.2964   23117373.6654   23117377.4284   -7564256.86747  -5856546.24046
     -2764.5294      -2154.1874         43.4004         40.6004
  20546747.7644   20546747.4404   20546751.5424  -23220101.33048 -18081209.13647
      2191.1884       1707.4164         49.6004         46.6004
  21119108.0464   21119108.2584   21119112.3194  -20320743.69048 -15814638.66047
      1133.7304        883.4284         49.3004         46.5004
  23899470.8074   23899470.5404   23899473.8784   -4763057.94046  -3697859.17746
      3605.6874       2809.6314         41.6004         39.2004
  21060639.0304   21060639.0314   21060642.5414  -17070986.86948 -13281380.45947
     -1915.2254      -1492.3804         49.6004         46.6004
 10  1  2  0 58 30.0000000  0  8G17G22G18G28G 9G27G12G15
  22319158.0804   22319158.0564   22319161.1034  -13117687.16647 -10208125.06147
      1587.1464       1236.7304         46.9004         43.9004
  23955333.8634   23955334.1134   23955335.3884   -2778025.92246  -2003774.72446
      1291.5834       1006.4254         39.6004         36.9004
  22906875.4094   22906875.2614   22906878.5914   -7114776.44247  -5321039.62746
      -554.6714       -432.2294         42.3004         39.5004
  23133177.2064   23133176.6724   23133179.6894   -7481212.71047  -5791836.49846
     -2771.7224      -2159.7694         43.2004         40.4004
  20534275.3564   20534275.2954   20534279.8904  -23285642.11748 -18132279.87847
      2178.1774       1697.2784         49.6004         46.6004
  21112660.2064   21112660.2944   21112664.7224  -20354624.71248 -15841039.44047
      1124.9874        876.6124         49.5004         46.5004
  23878903.9194   23878902.5494   23878904.8864   -4871143.78346  -3782081.88246
      3600.0544       2805.2374         41.5004         38.5004
  21071618.8064   21071618.8114   21071622.0864  -17013288.60148 -13236420.78247
     -1931.3174      -1504.9274         49.6004         46.6004
 10  1  2  0 59  0.0000000  0  8G17G22G18G28G 9G27G12G15
  22310146.1824   22310146.4994   22310149.5074  -13165043.96747 -10245026.44147
      1569.9434       1223.3244         47.0004         44.2004
  23948013.5504   23948012.4374   23948013.0204   -2816512.51846  -2033764.28646
      1274.1924        992.8834         39.7004         37.6004
  22910095.7924   22910095.0644   22910100.1024   -7097856.63747  -5307855.37946
      -573.3544       -446.7704         42.3004         39.7004
  23149020.5144   23149020.0574   23149024.6634   -7397954.21547  -5726959.74346
     -2778.8164      -2165.3044         43.2004         40.6004
  20521878.6644   20521877.7964   20521881.7494  -23350791.75048 -18183045.82347
      2165.1034       1687.0934         49.6004         46.6004
  21106263.1124   21106263.1554   21106267.5884  -20388243.02448 -15867235.52947
      1116.2254        869.7904         49.3004         46.5004
  23858362.7274   23858364.5144   23858366.7534   -4979060.75846  -3866173.03946
      3594.3734       2800.8124         40.8004         38.1004
  21082690.1574   21082690.2414   21082693.6714  -16955108.25648 -13191085.45847
     -1947.3554      -1517.4184         49.5004         46.6004
 10  1  2  0 59 30.0000000  0  8G17G22G18G28G 9G27G12G15
  22301233.3874   22301233.3814   22301236.4654  -13211883.19947 -10281524.52647
      1552.6584       1209.8704         47.0004         44.2004
  23940785.3294   23940785.7954   23940788.5014   -2854477.37446  -2063347.24146
      1256.7854        979.3094         39.9004         37.6004
  22913422.8774   22913421.2954   22913425.8614   -7080377.25147  -5294235.05546
      -591.9814       -461.3004         42.9004         40.4004
  23164904.9134   23164903.8404   23164908.8474   -7314483.02447  -5661917.28646
     -2785.8864      -2170.8044         43.6004         40.7004
  20509554.7874   20509554.6734   20509558.4304  -23415548.20048 -18233505.39547
      2151.9874       1676.8734         49.5004         46.5004
  21099915.6714   21099915.7044   21099920.2304  -20421598.11348 -15893226.51247
      1107.4304        862.9314         49.3004         46.3004
  23837861.9334   23837861.7244   23837864.7764   -5086807.25846  -3950131.38346
      3588.7154       2796.4024         40.9004         38.5004
  21093853.5154   21093853.3344   21093856.3144  -16896446.90148 -13145375.31847
     -1963.3704      -1529.8994         49.5004         46.5004
                            4  7
RINEX FILE SPLICE                                           COMMENT
teqc  2009Mar23     root                20100102 02:00:00UTCCOMMENT
BIT 2 OF LLI FLAGS DATA COLLECTED UNDER A/S CONDITION       COMMENT
Forced Modulo Decimation to 30 seconds                      COMMENT
 SNR is mapped to RINEX snr flag value [0-9]                COMMENT
  L1 & L2: min(max(int(snr_dBHz/6), 0), 9)                  COMMENT
pseudorange smoothing corrections not applied               COMMENT
 10  1  2  1  0  0.0000000  0  7G22G18G28G 9G27G12G15
  23933662.3894   23933662.3084   23933664.6044   -2891919.22546  -2092522.73146
      1239.3494        965.7264         40.4004         38.1004
  22916856.2894   22916854.3344   22916857.5074   -7062339.17847  -5280179.41346
      -610.5684       -475.7854         43.2004         40.6004
  23180830.0834   23180829.4094   23180832.3524   -7230801.17447  -5596710.64546
     -2792.8814      -2176.2794         43.9004         41.4004
  20497307.3264   20497307.3554   20497311.3754  -23479909.92748 -18283657.39347
      2138.7734       1666.5774         49.5004         46.5004
  21093618.8254   21093618.8154   21093622.9714  -20454689.50848 -15919012.01747
      1098.6504        856.0884         49.3004         46.3004
  23817393.0264   23817392.1764   23817394.4494   -5194381.76446  -4033955.63546
      3582.9624       2791.9114         41.3004         38.8004
  21105106.8904   21105107.3824   21105110.7654  -16837305.74648 -13099291.31447
     -1979.3244      -1542.3284         49.5004         46.6004
 10  1  2  1  0 30.0000000  0  8G17G22G18G28G 9G27G12G15
  22283702.6444   22283703.2724   22283706.9444  -13304002.12947 -10353305.48147
      1517.9184       1182.8004         47.0004         44.0004
  23926638.7864   23926637.4854   23926637.0824   -2928836.70746  -2121289.59646
      1221.8504        952.0904         40.8004         38.3004
  22920393.5784   22920393.0844   22920396.4114   -7043743.45047  -5265689.24846
      -629.1694       -490.2584         43.2004         40.4004
  23196793.1454   23196793.6464   23196796.0704   -7146910.86447  -5531341.57546
     -2799.8154      -2181.6614         43.9004         40.9004
  20485135.0954   20485135.2764   20485139.4434  -23543874.96148 -18333500.28447
      2125.5484       1656.2744         49.6004         46.6004
  21087371.8394   21087371.9974   21087376.4404  -20487516.52348 -15944591.51247
      1089.8064        849.2014         49.3004         46.5004
  23796952.0524   23796953.8414   23796957.3094   -5301782.64846  -4117644.62346
      3577.0574       2787.3134         41.5004         38.8004
  21116452.0524   21116452.3014   21116455.4574  -16777686.58548 -13052834.83947
     -1995.2704      -1554.7574         49.5004         46.5004
 10  1  2  1  1  0.0000000  0  8G17G22G18G28G 9G27G12G15
  22275086.2934   22275087.2664   22275091.8284  -13349278.03747 -10388585.41247
      1500.4464       1169.1794         47.0004         44.2004
  23919712.8414   23919712.3274   23919714.6534   -2965228.88646  -2149647.10846
      1204.2554        938.3744         40.9004         38.5004
  22924038.3134   22924038.4584   22924039.9984   -7024590.97947  -5250765.26046
      -647.6614       -504.6914         42.9004         40.0004
  23212795.8884   23212795.1514   23212798.8394   -7062813.23847  -5465810.98146
     -2806.6954      -2187.0324         43.6004         40.6004
  20473039.0254   20473038.6154   20473042.4764  -23607442.37948 -18383033.32947
      2112.2504       1645.9074         49.6004         46.6004
  21081176.3564   21081175.7554   21081180.0114  -20520078.77448 -15969964.69847
      1080.9894        842.3304         49.5004         46.5004
  23776548.7914   23776549.2674   23776552.4374   -5409007.99546  -4201196.84046
      3571.2344       2782.7834         41.5004         38.8004
  21127888.3564   21127888.2674   21127891.5664  -16717589.81548 -13006006.19147
     -2011.1874      -1567.1624         49.5004         46.5004
 10  1  2  1  1 30.0000000  0  8G17G22G18G28G 9G27G12G15
  22266573.0544   22266573.0514   22266575.9714  -13394028.85947 -10423456.17147
      1482.9304       1155.5334         47.4004         44.7004
  23912887.5394   23912886.4514   23912888.7884   -3001094.56346  -2177594.42146
      1186.7944        924.7774         41.1004         38.5004
  22927788.7804   22927788.2944   22927790.1344   -7004882.76047  -5235408.24146
      -666.1974       -519.1114         42.7004         39.9004
  23228839.7054   23228839.0374   23228840.5324   -6978510.16447  -5400120.29246
     -2813.5044      -2192.3214         43.6004         40.7004
  20461018.4644   20461017.8994   20461022.2914  -23670610.29648 -18432255.07147
      2098.9504       1635.5484         49.6004         46.6004
  21075029.2164   21075029.2764   21075034.1494  -20552375.78448 -15995131.19847
      1072.1094        835.4064         49.5004         46.5004
  23756177.7664   23756178.2954   23756182.1684   -5516056.10646  -4284610.95646
      3565.2924       2778.1484         41.5004         38.8004
  21139414.6204   21139415.3054   21139418.9654  -16657017.23248 -12958806.79047
     -2027.0014      -1579.4874         49.5004         46.5004
 10  1  2  1  2  0.0000000  0  8G17G22G18G28G 9G27G12G15
  22258155.7084   22258155.9874   22258159.6444  -13438253.20347 -10457916.67947
      1465.3254       1141.8134         47.4004         44.4004
  23906161.0914   23906160.5374   23906162.3784   -3036432.56146  -2205130.49046
      1169.1154        911.0054         40.6004         37.6004
  22931643.3704   22931644.7654   22931647.6904   -6984619.96247  -5219619.04446
      -684.6774       -533.5144         42.7004         39.9004
  23244920.4944   23244919.6244   23244922.0404   -6894003.98547  -5334271.33146
     -2820.2404      -2197.5824         43.2004         40.4004
  20449074.9674   20449074.4664   20449077.8114  -23733377.49648 -18481164.59047
      2085.5544       1625.1104         49.8004         46.6004
  21068934.5594   21068934.4794   21068938.9824  -20584406.80348 -16020090.43047
      1063.2614        828.5094         49.5004         46.5004
  23735840.1064   23735841.8104   23735845.2084   -5622925.42246  -4367885.75446
      3559.2754       2773.4644         41.5004         38.8004
  21151032.0174   21151031.8344   21151035.5144  -16595970.39248 -12911237.82947
     -2042.8014      -1591.7874         49.5004         46.5004
 10  1  2  1  2 30.0000000  0  8G17G22G18G28G 9G27G12G15
  22249840.8764   22249841.2934   22249844.5314  -13481949.22047 -10491965.50247
      1447.6924       1128.0694         47.4004         44.5004
  23899538.3794   23899537.8524   23899538.6524   -3071241.93346  -2232254.65846
      1151.4974        897.2544         40.3004         37.6004
  22935606.6154   22935606.3324   22935606.2974   -6963803.11447  -5203398.11346
      -703.1274       -547.8824         42.5004         39.9004
  23261040.1624   23261039.2774   23261041.1524   -6809296.42247  -5268265.45546
     -2826.9374      -2202.7984         43.2004         40.4004
  20437206.6964   20437206.2474   20437210.4874  -23795742.38948 -18529760.60847
      2072.0954       1614.6214         49.8004         46.8004
  21062890.1704   21062889.6094   21062894.4004  -20616171.09848 -16044841.82747
      1054.3624        821.5844         49.5004         46.5004
  23715540.9644   23715539.4654   23715544.2994   -5729614.15947  -4451019.81046
      3553.2344       2768.7624         42.0004         39.5004
  21162738.5614   21162738.5914   21162742.0124  -16534450.50948 -12863300.26347
     -2058.5244      -1604.0424         49.5004         46.5004
 10  1  2  1  3  0.0000000  0  8G17G22G18G28G 9G27G12G15
  22241626.9384   22241626.6404   22241630.1384  -13525115.06147 -10525601.20447
      1430.0104       1114.2904         47.5004         44.4004
  23893015.5144   23893013.2784   23893015.0504   -3105521.39846  -2258965.90146
      1133.8624        883.5194         39.4004         36.2004
  22939671.6624   22939672.6024   22939674.5494   -6942433.75447  -5186746.67846
      -721.4974       -562.1904         42.3004         39.5004
  23277195.5284   23277195.6114   23277199.3304   -6724389.24947  -5202104.03946
     -2833.5534      -2207.9714         43.2004         40.4004
  20425416.3514   20425415.6204   20425419.8464  -23857703.44848 -18578041.95647
      2058.6154       1604.1114         49.8004         46.8004
  21056895.4994   21056895.8874   21056900.0644  -20647668.29148 -16069385.10047
      1045.4404        814.6224         49.3004         46.3004
  23695272.4404   23695272.4374   23695276.6514   -5836120.74647  -4534011.93046
      3547.1824       2764.0414         42.0004         39.3004
  21174534.9844   21174535.1994   21174539.1414  -16472459.05748 -12814995.27147
     -2074.2364      -1616.2884         49.5004         46.6004
 10  1  2  1  3 30.0000000  0  8G17G22G18G28G 9G27G12G15
  22233514.0064   22233514.3144   22233517.9914  -13567749.14047 -10558822.54147
      1412.2634       1100.4644         47.5004         44.5004
  23886591.8364   23886592.9684   23886592.5074   -3139270.33746  -2285263.76245
      1116.1014        869.6774         38.0004         35.3004
  22943844.8764   22943843.2424   22943846.0854   -6920513.14847  -5169665.67346
      -739.8694       -576.5284         42.2004         39.3004
  23293390.8364   23293390.9124   23293393.4514   -6639284.49247  -5135788.65546
     -2840.0854      -2213.0444         43.2004         40.4004
  20413701.8874   20413701.9924   20413706.5454  -23919259.31448 -18626007.56047
      2045.0824       1593.5704         50.0004         47.2004
  21050954.1144   21050953.4524   21050958.0144  -20678897.75448 -16093719.74947
      1036.5124        807.6704         49.3004         46.5004
  23675038.3484   23675038.7954   23675043.3604   -5942443.35947  -4616860.74246
      3540.9954       2759.2064         42.3004         39.5004
  21186420.7784   21186421.1984   21186424.2684  -16409997.58948 -12766324.02047
     -2089.8694      -1628.4764         49.3004         46.3004
 10  1  2  1  4  0.0000000  0  8G17G22G18G28G 9G27G12G15
  22225502.2844   22225502.2974   22225506.7594  -13609849.68547 -10591628.15147
      1394.4304       1086.5684         47.5004         44.5004
  23880273.7084   23880271.5504   23880273.8974   -3172487.21046  -2311147.04245
      1098.3004        855.8164         38.0004         35.7004
  22948118.2824   22948119.4214   22948122.1044   -6898042.22347  -5152155.87546
      -758.1574       -590.7564         42.0004         39.3004
  23309622.6214   23309624.2114   23309624.3164   -6553983.78747  -5069320.56546
     -2846.6094      -2218.1474         42.9004         39.9004
  20402067.0014   20402065.8324   20402070.0154  -23980408.20748 -18673656.04547
      2031.5014       1582.9854         50.2004         47.2004
  21045062.3294   21045061.7224   21045066.0794  -20709859.00348 -16117845.39947
      1027.5444        800.6894         49.5004         46.5004
  23654843.2704   23654842.5564   23654845.5124   -6048580.36146  -4699564.93146
      3534.7584       2754.3614         41.8004         39.0004
  21198396.3404   21198396.6844   21198400.1074  -16347067.58348 -12717287.69247
     -2105.4774      -1640.6324         49.5004         46.5004
 10  1  2  1  4 30.0000000  0  8G17G22G18G28G 9G27G12G15
  22217591.4424   22217592.6964   22217596.4154  -13651414.96347 -10624016.67347
      1376.5694       1072.6524         47.5004         44.4004
  23874051.6444   23874050.4954   23874051.4024   -3205170.79246  -2336614.75445
      1080.5114        841.9724         37.5004         35.2004
  22952500.5084   22952499.3544   22952503.0414   -6875021.76047  -5134217.86746
      -776.5444       -605.1004         42.0004         39.5004
  23325893.2284   23325891.1274   23325894.8824   -6468489.12447  -5002701.33646
     -2853.0454      -2223.1574         42.7004         39.7004
  20390507.8114   20390507.8364   20390511.3124  -24041148.71048 -18720986.30047
      2017.8574       1572.3594         50.2004         47.0004
  21039221.1684   21039221.1124   21039225.1394  -20740551.53348 -16141761.65547
      1018.5954        793.7104         49.5004         46.6004
  23634682.1524   23634681.5484   23634684.9984   -6154529.93347  -4782123.03946
      3528.4804       2749.4714         42.3004         39.9004
  21210460.0764   21210460.4424   21210464.8224  -16283669.86648 -12667886.88347
     -2121.0194      -1652.7394         49.5004         46.5004
 10  1  2  1  5  0.0000000  0  8G17G22G18G28G 9G27G12G15
  22209785.6564   22209785.5754   22209788.6574  -13692443.42447 -10655986.87847
      1358.6474       1058.6904         47.4004         44.4004
  23867935.9024   23867934.1854   23867937.0274   -3237320.61946  -2361666.55445
      1062.6884        828.0834         37.1004         35.2004
  22956984.1284   22956984.1494   22956987.0804   -6851452.85647  -5115852.48146
      -794.7514       -619.2874         42.0004         39.0004
  23342196.8654   23342196.0744   23342199.6624   -6382802.19447  -4935932.32146
     -2859.3764      -2228.0964         42.3004         39.5004
  20379026.9774   20379026.6754   20379030.5984  -24101479.32048 -18767997.16447
      2004.1874       1561.7044         50.0004         47.0004
  21033432.0944   21033431.7044   21033435.9674  -20770974.73048 -16165468.04247
      1009.5874        786.6874         49.5004         46.5004
  23614556.9354   23614555.6184   23614558.4364   -6260290.44847  -4864533.81646
      3522.1954       2744.5674         42.3004         39.5004
  21222613.1304   21222613.6944   21222617.2244  -16219806.20048 -12618123.00947
     -2136.5574      -1664.8554         49.5004         46.5004
 10  1  2  1  5 30.0000000  0  8G17G22G18G28G 9G27G12G15
  22202080.4784   22202080.4054   22202083.3944  -13732933.47047 -10687537.55247
      1340.6724       1044.6864         47.4004         44.4004
  23861916.6424   23861916.7214   23861919.0054   -3268936.18046  -2386302.03546
      1044.8954        814.2084         37.8004         36.2004
  22961574.4654   22961573.5004   22961576.8464   -6827337.47046  -5097061.28846
      -812.9224       -633.4454         41.8004         39.2004
  23358538.8494   23358538.5134   23358544.0314   -6296924.89847  -4869014.98446
     -2865.7404      -2233.0454         42.5004         39.9004
  20367625.1464   20367624.3854   20367628.7704  -24161398.45048 -18814687.40047
      1990.4154       1550.9724         50.0004         47.0004
  21027693.6084   21027693.7734   21027697.8754  -20801128.21448 -16188964.26547
      1000.6154        779.7014         49.3004         46.5004
  23594465.9214   23594466.2254   23594469.7374   -6365860.43047  -4946796.13446
      3515.8134       2739.5944         42.3004         39.5004
  21234854.2114   21234854.7284   21234857.9164  -16155478.13348 -12567997.22147
     -2151.9834      -1676.8734         49.5004         46.5004
 10  1  2  1  6  0.0000000  0  8G17G22G18G28G 9G27G12G15
  22194478.8414   22194478.8864   22194481.1554  -13772883.22047 -10718667.20347
      1322.6244       1030.6164         47.5004         44.5004
  23855999.9064   23856001.3964   23856001.7364   -3300015.83946  -2410519.93046
      1027.0204        800.2704         38.5004         36.4004
  22966267.5834   22966266.5954   22966268.9294   -6802676.17546  -5077844.69946
      -831.1414       -647.6644         41.8004         39.2004
  23374916.2324   23374917.0754   23374921.3484   -6210859.05547  -4801950.68546
     -2871.9894      -2237.9094         42.7004         40.0004
  20356300.8044   20356300.8114   20356304.9484  -24220904.40248 -18861055.67347
      1976.6274       1540.2294         50.0004         47.0004
  21022007.7724   21022007.2954   21022011.5004  -20831011.26748 -16212249.76147
       991.5794        772.6594         49.5004         46.6004
  23574413.8434   23574413.8454   23574416.4734   -6471238.11747  -5028908.62346
      3509.3634       2734.5804         42.2004         39.3004
  21247183.8784   21247184.1894   21247187.5024  -16090687.19448 -12517510.80347
     -2167.4024      -1688.8794         49.3004         46.3004
 10  1  2  1  6 30.0000000  0  8G17G22G18G28G 9G27G12G15
  22186978.3824   22186978.9414   22186982.8134  -13812291.29247 -10749374.78647
      1304.5554       1016.5364         47.5004         44.7004
  23850193.6784   23850191.3704   23850193.8244   -3330558.63446  -2434319.49746
      1009.1314        786.3374         39.2004         37.1004
  22971062.4944   22971061.8944   22971066.8004   -6777470.15247  -5058203.67146
      -849.2364       -661.7364         42.0004         39.3004
  23391331.2284   23391330.2194   23391333.9714   -6124606.35747  -4734740.79046
     -2878.1754      -2242.7394         42.9004         40.2004
  20345056.8784   20345056.1534   20345060.2714  -24279995.99748 -18907101.07947
      1962.7844       1529.4424         50.0004         47.0004
  21016372.4014   21016372.4134   21016376.6304  -20860623.15348 -16235323.95947
       982.5344        765.6144         49.6004         46.6004
  23554399.9874   23554398.3654   23554401.0134   -6576421.73247  -5110869.90546
      3502.8254       2729.4614         42.3004         39.9004
  21259601.6804   21259601.4314   21259605.3494  -16025434.71148 -12466664.73047
     -2182.7704      -1700.8564         49.3004         46.3004
 10  1  2  1  7  0.0000000  0  8G17G22G18G28G 9G27G12G15
  22179583.2554   22179584.0294   22179587.0854  -13851156.08147 -10779659.03747
      1286.4174       1002.3984         47.9004         44.9004
  23844480.1504   23844479.9894   23844482.4884   -3360563.70446  -2457700.05846
       991.1684        772.3454         39.4004         36.9004
  22975963.3804   22975962.3624   22975966.0334   -6751721.11047  -5038139.50946
      -867.3414       -675.8674         42.2004         39.5004
  23407779.5254   23407779.3154   23407782.0794   -6038168.57747  -4667386.70446
     -2884.3314      -2247.5284         42.9004         40.0004
  20333891.0124   20333890.7314   20333894.5734  -24338671.69248 -18952822.39847
      1948.8774       1518.5994         50.0004         47.0004
  21010789.5344   21010789.1294   21010793.1484  -20889963.37948 -16258186.47147
       973.4854        758.5594         49.6004         46.6004
  23534418.1744   23534419.1334   23534422.2874   -6681409.82547  -5192678.79246
      3496.3314       2724.4234         42.3004         39.7004
  21272105.8384   21272106.1984   21272109.4854  -15959722.33748 -12415460.28447
     -2198.0684      -1712.7784         49.3004         46.1004
 10  1  2  1  7 30.0000000  0  8G17G22G18G28G 9G27G12G15
  22172291.4844   22172291.4514   22172294.5974  -13889475.82247 -10809518.56347
      1268.2094        988.2204         47.7004         44.5004
  23838876.6244   23838875.3354   23838875.9834   -3390030.21446  -2480661.01146
       973.2504        758.3804         39.4004         36.7004
  22980966.5084   22980965.6784   22980967.8734   -6725430.16647  -5017653.07646
      -885.3794       -689.9134         42.3004         39.5004
  23424262.3154   23424262.8934   23424265.0024   -5951547.86247  -4599890.08346
     -2890.4034      -2252.2634         43.0004         40.2004
  20322804.5634   20322804.3144   20322808.4504  -24396929.92148 -18998218.42547
      1934.9644       1507.7684         50.0004         47.0004
  21005257.1974   21005257.4134   21005261.9854  -20919031.34948 -16280836.84247
       964.3844        751.4694         49.5004         46.6004
  23514479.3614   23514478.8024   23514482.1554   -6786200.45347  -5274333.82546
      3489.7094       2719.2544         42.9004         40.2004
  21284697.8214   21284697.9194   21284700.9204  -15893551.33648 -12363898.49447
     -2213.3334      -1724.6764         49.1004         45.9004
 10  1  2  1  8  0.0000000  0  8G17G22G18G28G 9G27G12G15
  22165101.9694   22165103.1274   22165106.3794  -13927249.08947 -10838952.26747
      1250.0004        974.0184         47.5004         44.5004
  23833362.6724   23833367.6224   23833370.5224   -3418957.51046  -2503201.71445
       955.3244        744.4134         38.2004         35.3004
  22986072.2934   22986072.5934   22986074.4884   -6698598.57847  -4996745.36046
      -903.3984       -703.9494         42.3004         40.0004
  23440781.9894   23440781.7404   23440782.8364   -5864746.07247  -4532252.33446
     -2896.4084      -2256.9414         42.9004         39.9004
  20311798.8754   20311798.0824   20311801.7584  -24454769.27948 -19043288.05147
      1920.9954       1496.8814         50.0004         47.0004
  20999778.4704   20999778.1224   20999782.5634  -20947826.62848 -16303274.71747
       955.2784        744.3734         49.6004         46.6004
  23494575.1894   23494575.4854   23494578.6474   -6890792.08747  -5355833.78046
      3483.0434       2714.0604         42.9004         40.0004
  21297375.7054   21297376.8484   21297380.6044  -15826923.35148 -12311980.57947
     -2228.5484      -1736.5304         48.9004         45.9004
 10  1  2  1  8 30.0000000  0  8G17G22G18G28G 9G27G12G15
  22158020.2604   22158019.6954   22158023.0574  -13964474.30947 -10867958.91347
      1231.6774        959.7564         47.5004         44.7004
  23827968.2414   23827966.5414   23827968.1374   -3447344.49646  -2525321.46645
       937.1524        730.2374         38.0004         35.9004
  22991281.4594   22991281.0744   22991283.9004   -6671227.65947  -4975417.41446
      -921.3454       -717.9184         42.7004         39.9004
  23457332.8844   23457332.5984   23457335.9984   -5777764.73047  -4464474.64646
     -2902.3294      -2261.5454         42.5004         39.7004
  20300871.1424   20300871.2614   20300875.2864  -24512188.31548 -19088030.16147
      1906.9524       1485.9434         50.0004         47.0004
  20994350.3454   20994350.5384   20994354.5084  -20976348.71748 -16325499.71747
       946.1624        737.2704         49.6004         46.6004
  23474709.6024   23474708.7424   23474713.9974   -6995183.13047  -5437177.46146
      3476.3384       2708.8254         42.7004         39.9004
  21310141.8724   21310142.4424   21310146.4694  -15759839.93148 -12259707.80947
     -2243.6764      -1748.3154         48.9004         45.9004
 10  1  2  1  9  0.0000000  0  8G17G22G18G28G 9G27G12G15
  22151040.1894   22151039.8944   22151043.3144  -14001150.01247 -10896537.39847
      1213.3274        945.4524         47.5004         44.5004
  23822669.1484   23822669.6634   23822670.8074   -3475190.51146  -2547019.67246
       919.1024        716.1824         38.7004         36.7004
  22996591.7854   22996590.4264   22996594.1784   -6643318.59847  -4953670.09846
      -939.2944       -731.9064         42.5004         39.7004
  23473919.1074   23473917.6804   23473921.3494   -5690605.65447  -4396558.49146
     -2908.3164      -2266.2424         42.3004         39.2004
  20290025.4264   20290025.3384   20290029.2044  -24569185.58848 -19132443.62347
      1892.8684       1474.9664         50.0004         47.2004
  20988975.2854   20988975.0834   20988979.0934  -21004596.80648 -16347511.22247
       937.0184        730.1474         49.6004         46.6004
  23454882.4474   23454883.1194   23454886.2624   -7099372.05747  -5518363.62046
      3469.5764       2703.5614         42.7004         40.0004
  21322995.1844   21322994.6684   21322997.4874  -15692302.65848 -12207081.36747
     -2258.8174      -1760.1154         48.9004         45.8004
 10  1  2  1  9 30.0000000  0  8G17G22G18G28G 9G27G12G15
  22144166.5074   22144166.2304   22144169.4314  -14037274.79247 -10924686.55047
      1194.9454        931.1204         47.7004         44.9004
  23817472.1024   23817471.4574   23817473.9184   -3502494.15346  -2568295.24646
       901.0994        702.1554         38.9004         36.6004
  23002006.2264   23002004.4674   23002007.3894   -6614872.72747  -4931504.51746
      -957.0994       -745.7704         42.3004         39.7004
  23490537.5724   23490537.7244   23490539.5844   -5603270.51347  -4328505.17646
     -2914.0924      -2270.6914         42.0004         39.3004
  20279260.3524   20279259.5794   20279263.5374  -24625759.36848 -19176527.08547
      1878.7144       1463.9294         50.2004         47.2004
  20983652.2164   20983651.5714   20983655.6774  -21032570.50048 -16369308.90647
       927.8754        723.0154         49.5004         46.6004
  23435097.2164   23435096.9444   23435098.7664   -7203356.91247  -5599390.77846
      3462.7394       2698.2424         43.0004         40.6004
  21335931.0694   21335932.1354   21335935.4584  -15624313.20348 -12154102.57747
     -2273.8224      -1771.8104         48.8004         45.6004
 10  1  2  1 10  0.0000000  0  8G17G22G18G28G 9G27G12G15
  22137397.0274   22137397.0194   22137399.8884  -14072846.87847 -10952405.04047
      1176.5104        916.7644         47.7004         44.5004
  23812380.3044   23812381.0984   23812382.2774   -3529255.06246  -2589147.92446
       882.9754        688.0314         39.4004         37.1004
  23007520.1264   23007518.8154   23007522.4984   -6585891.57547  -4908921.81046
      -974.9694       -759.7204         42.2004         39.3004
  23507191.4114   23507189.9544   23507192.4804   -5515761.39946  -4260316.24646
     -2919.8464      -2275.2054         41.8004         39.0004
  20268575.1894   20268575.0864   20268579.1444  -24681908.17548 -19220279.39647
      1864.5264       1452.8754         50.3004         47.3004
  20978381.4244   20978381.0604   20978385.3544  -21060269.12948 -16390892.25547
       918.6964        715.8714         49.5004         46.6004
  23415347.9854   23415347.4734   23415350.1204   -7307136.02947  -5680257.60446
      3455.8314       2692.8534         43.4004         40.6004
  21348955.4474   21348956.1154   21348959.6794  -15555872.92948 -12100772.51547
     -2288.8304      -1783.5024         48.8004         45.8004
 10  1  2  1 10 30.0000000  0  9G17G22G18G28G 9G27G26G12G15
  22130733.0394   22130733.2674   22130736.0104  -14107865.07647 -10979691.92147
      1158.0144        902.3394         47.7004         44.9004
  23807391.2274   23807391.4834   23807392.2604   -3555473.01446  -2609577.45146
       864.9154        673.9574         38.7004         36.2004
  23013135.9314   23013134.4124   23013138.9654   -6556376.41146  -4885922.97646
      -992.7314       -773.5504         41.8004         38.8004
  23523873.8064   23523874.7384   23523878.8154   -5428079.82546  -4191992.92446
     -2925.5464      -2279.6334         41.6004         38.6004
  20257970.8744   20257970.7084   20257975.3644  -24737630.62948 -19263699.48847
      1850.2914       1441.7844         50.3004         47.3004
  20973162.7244   20973162.6324   20973166.8824  -21087692.16248 -16412260.84947
       909.4874        708.6914         49.6004         46.8004
  23377433.6374                   23377437.6204    -327446.67445   -241684.43746
      3583.1244       2792.0424         35.2004         36.0004
  23395637.8474   23395638.7674   23395641.9824   -7410708.03847  -5760963.05646
      3448.9274       2687.4724         43.2004         40.4004
  21362065.4294   21362065.1554   21362069.0284  -15486983.81648 -12047092.68947
     -2303.7604      -1795.1374         48.8004         45.8004
 10  1  2  1 11  0.0000000  0  9G17G22G18G28G 9G27G26G12G15
  22124175.7854   22124175.4494   22124178.7844  -14142328.08847 -11006546.16847
      1139.4944        887.9114         47.9004         45.1004
  23802504.3974   23802504.4304   23802508.0834   -3581146.53846  -2629582.78045
       846.6874        659.7574         38.0004         35.5004
  23018855.4194   23018854.3864   23018856.9174   -6526328.87947  -4862509.35146
     -1010.4704       -787.3784         42.2004         39.7004
  23540591.4124   23540591.2184   23540595.0444   -5340227.78446  -4123536.78546
     -2931.2404      -2284.1034         41.5004         39.0004
  20247448.4764   20247448.8954   20247452.8724  -24792925.28248 -19306786.23447
      1836.0054       1430.6564         50.3004         47.2004
  20967997.0044   20967996.8824   20968000.7514  -21114839.08248 -16433414.29847
       900.2814        701.5274         49.6004         46.8004
  23357006.9834   23357002.5164   23357006.6744    -434808.15346   -325342.67646
      3574.3854       2785.2324         37.8004         36.2004
  23375968.6844   23375969.6474   23375972.8274   -7514071.32047  -5841505.85846
      3441.9124       2681.9984         43.2004         40.6004
  21375259.5364   21375259.3004   21375262.7834  -15417647.23048 -11993064.19547
     -2318.6614      -1806.7444         48.6004         45.6004
 10  1  2  1 11 30.0000000  0  9G17G22G18G28G 9G27G26G12G15
  22117722.8674   22117722.9054   22117726.5894  -14176234.53948 -11032966.74847
      1120.9064        873.4364         48.1004         45.1004
  23797724.8204   23797723.0964   23797724.8104   -3606275.26546  -2649163.60545
       828.5054        645.5884         37.5004         35.2004
  23024673.9904   23024673.3484   23024676.2134   -6495750.13747  -4838681.78646
     -1028.1664       -801.1784         42.3004         39.3004
  23557341.3304   23557341.3524   23557346.2614   -5252207.13146  -4054949.29346
     -2936.8504      -2288.4484         41.6004         39.0004
  20237008.7154   20237008.2544   20237012.3154  -24847790.74648 -19349538.54047
      1821.6774       1419.4894         50.3004         47.3004
  20962883.6304   20962883.4444   20962887.2934  -21141709.19648 -16454352.04547
       891.0494        694.3254         49.6004         46.6004
  23336623.5044   23336622.5544   23336627.3844    -541905.75046   -408795.32046
      3565.5174       2778.3264         38.5004         36.6004
  23356338.2644   23356338.8304   23356343.5984   -7617223.82147  -5921884.42346
      3434.8584       2676.5164         43.2004         40.2004
  21388537.9124   21388538.3704   21388542.5184  -15347864.51948 -11938688.10647
     -2333.5224      -1818.3284         48.6004         45.8004
 10  1  2  1 12  0.0000000  0  9G17G22G18G28G 9G27G26G12G15
  22111375.8884   22111376.6084   22111379.2794  -14209582.69747 -11058952.29347
      1102.2864        858.9194         47.7004         44.5004
  23793046.9394   23793046.8364   23793048.8384   -3630858.67746  -2668319.52646
       810.2794        631.3854         37.6004         36.0004
  23030592.0384   23030591.6834   23030595.2974   -6464641.68646  -4814441.47346
     -1045.7224       -814.8334         41.8004         39.0004
  23574123.8864   23574124.6194   23574127.0504   -5164019.34246  -3986231.54546
     -2942.3654      -2292.7594         41.6004         39.0004
  20226650.2544   20226650.2174   20226654.0414  -24902225.57548 -19391955.28947
      1807.3084       1408.2934         50.5004         47.5004
  20957822.8974   20957822.6374   20957826.9114  -21168302.11948 -16475073.80647
       881.8064        687.1204         49.6004         46.6004
  23316291.8984   23316292.7264   23316297.0544    -648736.66146   -492040.17246
      3556.5524       2771.3404         38.9004         36.4004
  23336750.6964   23336750.4484   23336754.6534   -7720164.35147  -6002097.82546
      3427.7784       2670.9924         43.0004         40.2004
  21401901.9494   21401902.3904   21401905.5804  -15277637.46748 -11883965.72947
     -2348.2934      -1829.8394         48.6004         45.6004
 10  1  2  1 12 30.0000000  0  9G17G22G18G28G 9G27G26G12G15
  22105137.5914   22105137.1994   22105139.9164  -14242371.40447 -11084501.91847
      1083.6264        844.3814         47.5004         44.4004
  23788471.9844   23788472.2734   23788472.6254   -3654895.53246  -2687049.56746
       792.0784        617.2034         38.3004         36.6004
  23036613.6224   23036612.0294   23036616.5184   -6433005.33146  -4789789.75446
     -1063.3474       -828.5764         41.6004         39.0004
  23590939.3014   23590937.1174   23590941.2694   -5075666.43246  -3917385.14546
     -2947.8394      -2297.0204         41.8004         39.2004
  20216374.0584   20216373.6994   20216377.6914  -24956228.23648 -19434035.28347
      1792.8634       1397.0364         50.7004         47.7004
  20952815.0214   20952815.1034   20952819.3424  -21194617.07648 -16495578.97247
       872.5194        679.8904         49.6004         46.6004
  23296016.1694   23296015.8524   23296018.2084    -755298.11646   -575075.06046
      3547.4894       2764.2764         38.7004         36.4004
  23317201.1554   23317201.7694   23317206.2124   -7822891.08747  -6082144.59846
      3420.6244       2665.4174         43.0004         40.2004
  21415349.6784   21415350.4874   21415354.1764  -15206968.10048 -11828898.69947
     -2363.0024      -1841.3004         48.6004         45.6004
 10  1  2  1 13  0.0000000  0  9G17G22G18G28G 9G27G26G12G15
  22099003.6364   22099004.3604   22099008.0984  -14274599.24747 -11109614.49947
      1064.8914        829.7794         47.5004         44.7004
  23784002.5314   23784002.3094   23784003.3654   -3678385.39646  -2705353.34746
       773.8464        602.9994         39.2004         37.1004
  23042734.4524   23042733.0934   23042736.2804   -6400842.44546  -4764727.79146
     -1080.8514       -842.2224         41.8004         39.2004
  23607780.8764   23607781.3684   23607785.5304   -4987149.92246  -3848411.25446
     -2953.2504      -2301.2394         41.8004         39.2004
  20206179.8484   20206179.9174   20206183.7854  -25009797.48548 -19475777.55347
      1778.3934       1385.7574         50.7004         47.5004
  20947860.4774   20947860.2914   20947865.0314  -21220653.64048 -16515867.20247
       863.2324        672.6464         49.6004         46.6004
  23275788.7474   23275790.0454   23275793.5254    -861587.14646   -657897.69246
      3538.4184       2757.2144         39.0004         36.7004
  23297694.9614   23297695.3734   23297698.5274   -7925402.63647  -6162023.69446
      3413.4544       2659.8224         43.2004         40.6004
  21428882.2914   21428881.9244   21428885.9724  -15135857.87548 -11773488.18347
     -2377.6774      -1852.7324         48.6004         45.6004
 10  1  2  1 13 30.0000000  0  9G17G22G18G28G 9G27G26G12G15
  22092978.4804   22092978.4064   22092982.2254  -14306264.93847 -11134289.04147
      1046.1214        815.1604         47.7004         44.9004
  23779635.1154   23779636.7104   23779638.3494   -3701327.67646  -2723230.43546
       755.6304        588.7984         39.4004         36.9004
  23048954.2524   23048953.2284   23048955.4864   -6368154.46246  -4739256.64546
     -1098.3274       -855.8304         41.6004         39.0004
  23624656.0124   23624656.7654   23624659.5634   -4898471.82646  -3779311.46846
     -2958.6414      -2305.4194         41.6004         38.6004
  20196068.7014   20196068.6594   20196072.4484  -25062931.74448 -19517180.87147
      1763.8664       1374.4424         50.5004         47.3004
  20942959.5424   20942959.1264   20942963.4674  -21246411.07948 -16535937.93747
       853.9114        665.3864         49.6004         46.6004
  23255615.2874   23255614.7814   23255619.1974    -967600.91746   -740505.81946
      3529.1024       2749.9504         38.9004         36.4004
  23278228.2674   23278228.4134   23278231.9794   -8027697.08647  -6241733.63746
      3406.1794       2654.1594         43.2004         40.2004
  21442497.4714   21442497.5074   21442501.6254  -15064308.30048 -11717735.27247
     -2392.2934      -1864.1254         48.6004         45.8004
 10  1  2  1 14  0.0000000  0  9G17G22G18G28G 9G27G26G12G15
  22087061.5554   22087061.0814   22087063.3934  -14337367.37347 -11158524.69447
      1027.3464        800.5314         47.9004         45.1004
  23775375.9834   23775374.3194   23775373.4814   -3723721.51946  -2740680.17046
       737.2714        574.4934         38.7004         36.2004
  23055273.9254   23055273.5404   23055275.8634   -6334942.76046  -4713377.41346
     -1115.7874       -869.4434         41.6004         38.8004
  23641562.2054   23641561.1824   23641564.9824   -4809633.75146  -3710086.98846
     -2963.9614      -2309.5804         41.5004         38.8004
  20186040.3614   20186040.3214   20186044.7664  -25115629.41548 -19558243.98247
      1749.2914       1363.0864         50.5004         47.5004
  20938111.2614   20938110.9684   20938114.9534  -21271888.71748 -16555790.63947
       844.5854        658.1174         49.6004         46.6004
  23235494.7794   23235494.4654   23235499.1154   -1073336.45546   -822897.12646
      3519.8424       2742.7314         38.9004         36.7004
  23258802.6074   23258805.0974   23258807.7584   -8129772.82347  -6321273.19146
      3398.8784       2648.4744         43.4004         40.7004
  21456195.8314   21456196.4424   21456199.8344  -14992321.07348 -11661641.32747
     -2406.8594      -1875.4714         48.8004         45.8004
 10  1  2  1 14 30.0000000  0  9G17G22G18G28G 9G27G26G12G15
  22081248.7444   22081249.0494   22081251.8804  -14367905.23447 -11182320.40747
      1008.5094        785.8534         47.9004         44.9004
  23771218.2294   23771216.2234   23771219.6914   -3745566.56246  -2757702.22545
       719.0474        560.3014         38.0004         35.3004
  23061693.9064   23061693.8584   23061695.4014   -6301209.14546  -4687091.54146
     -1133.1504       -882.9934         41.6004         39.2004
  23658498.3134   23658497.7964   23658499.7774   -4720637.38546  -3640739.17946
     -2969.1634      -2313.6264         41.5004         38.6004
  20176095.6564   20176095.6624   20176099.8254  -25167889.07748 -19598965.79147
      1734.6724       1351.6894         50.5004         47.3004
  20933315.6614   20933315.9394   20933320.3124  -21297086.27648 -16575425.09747
       835.2364        650.8344         49.6004         46.6004
  23215430.5134   23215428.5264   23215431.6074   -1178791.15146   -905069.58846
      3510.4844       2735.4474         39.0004         36.7004
  23239423.4574   23239423.2064   23239425.4504   -8231628.61347  -6400641.30246
      3391.4994       2642.7354         43.7004         41.2004
  21469978.0254   21469978.1954   21469981.3074  -14919897.84248 -11605207.64347
     -2421.3594      -1886.7714         48.8004         45.6004
 10  1  2  1 15  0.0000000  0  9G17G22G18G28G 9G27G26G12G15
  22075545.4514   22075545.1594   22075548.6374  -14397877.03647 -11205675.02847
       989.6054        771.1274         47.7004         44.7004
  23767165.5544   23767164.2394   23767167.5824   -3766862.63046  -2774296.51545
       700.7274        546.0304         36.4004         34.0004
  23068210.0364   23068210.8494   23068214.8904   -6266955.03646  -4660400.05046
     -1150.4284       -896.4484         41.8004         39.0004
  23675461.9974   23675461.5354   23675465.1284   -4631484.86746  -3571269.69946
     -2974.2844      -2317.6444         41.1004         38.3004
  20166235.1134   20166234.6804   20166238.5234  -25219709.45648 -19639345.30947
      1720.0024       1340.2604         50.3004         47.3004
  20928575.1874   20928574.8124   20928578.7964  -21322003.11948 -16594840.81247
       825.8754        643.5444         49.6004         46.8004
  23195414.2984   23195414.0894   23195417.6954   -1283961.95946   -987020.88846
      3500.9124       2727.9854         39.4004         37.1004
  23220080.5374   23220081.4054   23220083.8394   -8333262.59347  -6479836.58946
      3384.1244       2636.9844         43.7004         40.7004
  21483841.0024   21483841.8304   21483845.9814  -14847040.58748 -11548435.75647
     -2435.8024      -1898.0304         48.6004         45.6004
 10  1  2  1 15 30.0000000  0  9G17G22G18G28G 9G27G26G12G15
  22069948.7124   22069949.5884   22069953.3334  -14427281.62447 -11228587.67247
       970.6804        756.3714         47.5004         44.7004
  23763214.5264   23763216.3064   23763218.4884   -3787608.70345  -2790462.28045
       682.3404        531.6934         35.2004         33.6004
  23074827.4034   23074827.9134   23074830.5194   -6232182.08046  -4633304.26646
     -1167.7484       -909.9374         41.5004         38.8004
  23692455.5094   23692455.6924   23692460.5104   -4542177.55546  -3501679.60146
     -2979.4704      -2321.6654         40.9004         38.3004
  20156457.0444   20156457.2864   20156461.2714  -25271089.09248 -19679381.38847
      1705.2764       1328.7894         50.3004         47.3004
  20923887.2194   20923886.8874   20923890.6534  -21346638.69248 -16614037.36847
       816.4644        636.2074         49.8004         46.8004
  23175455.3074   23175453.9684   23175459.3414   -1388846.14746  -1068748.81146
      3491.2914       2720.4844         39.4004         36.9004
  23200784.4284   23200784.8464   23200787.9484   -8434673.17047  -6558857.80946
      3376.5854       2631.1064         44.1004         41.4004
  21497788.7174   21497788.8324   21497792.2654  -14773750.80848 -11491326.87147
     -2450.1764      -1909.2194         48.6004         45.6004
 10  1  2  1 16  0.0000000  0  9G17G22G18G28G 9G27G26G12G15
  22064461.7854   22064462.4934   22064465.2554  -14456118.06147 -11251057.59547
       951.7394        741.6164         47.7004         44.7004
  23759376.1424   23759370.4744   23759376.6394   -3807804.22645  -2806199.04245
       663.9934        517.3974         35.2004         33.4004
  23081543.7914   23081543.9174   23081546.5704   -6196892.02046  -4605805.53546
     -1184.9174       -923.3234         41.3004         38.5004
  23709481.0314   23709480.7894   23709485.0854   -4452717.04746  -3431970.13246
     -2984.5634      -2325.6344         41.1004         38.8004
  20146765.1504   20146764.5514   20146768.7224  -25322026.23448 -19719072.65947
      1690.5204       1317.2894         50.5004         47.5004
  20919252.1694   20919252.1644   20919256.2154  -21370992.33948 -16633014.23547
       807.0734        628.8924         49.6004         46.6004
  23155551.8384   23155551.8164   23155555.2954   -1493440.59146  -1150250.97846
      3481.5764       2712.9214         39.7004         37.3004
  23181527.4714   23181529.6744   23181532.0234   -8535858.67047  -6637703.64346
      3369.0694       2625.2554         44.2004         41.4004
  21511817.5594   21511817.4344   21511820.5704  -14700030.49648 -11433882.47147
     -2464.5114      -1920.4024         48.6004         45.6004
 10  1  2  1 16 30.0000000  0  9G17G22G18G28G 9G27G26G12G15
  22059083.8944   22059083.7544   22059086.0604  -14484384.88847 -11273083.67747
       932.7024        726.7794         47.9004         44.9004
  23755634.5064   23755638.6614   23755638.7784   -3827448.79845  -2821506.46645
       645.5884        503.0574         34.9004         33.6004
  23088357.7464   23088357.0244   23088360.1654   -6161086.46746  -4577905.12046
     -1202.1034       -936.7094         41.3004         38.8004
  23726534.4744   23726533.7964   23726536.8014   -4363105.44446  -3362142.90746
     -2989.5414      -2329.5134         41.5004         39.0004
  20137155.9814   20137156.0194   20137159.6414  -25372520.02948 -19758418.47347
      1675.7154       1305.7504         50.5004         47.5004
  20914671.9704   20914671.8114   20914675.4954  -21395063.48448 -16651770.97247
       797.6504        621.5484         49.6004         46.8004
  23135702.5304   23135703.4234   23135706.6444   -1597742.69746  -1231525.37446
      3471.8474       2705.3364         39.4004         36.7004
  23162317.5434   23162317.4524   23162320.8894   -8636817.80347  -6716373.08346
      3361.4654       2619.3264         44.1004         41.1004
  21525927.6614   21525927.9244   21525931.3214  -14625881.26048 -11376103.86547
     -2478.7934      -1931.5264         48.6004         45.8004
 10  1  2  1 17  0.0000000  0  9G17G22G18G28G 9G27G26G12G15
  22053814.0254   22053813.4064   22053816.6184  -14512080.94548 -11294664.99547
       913.6604        711.9374         48.1004         45.1004
  23752005.2644   23752004.8324   23752005.1524   -3846541.75145  -2836384.11845
       627.2754        488.7824         35.4004         34.1004
  23095270.0754   23095269.0754   23095271.0324   -6124766.88846  -4549604.17946
     -1219.1934       -950.0174         41.5004         38.8004
  23743614.9134   23743614.7654   23743618.2964   -4273344.31546  -3292199.16946
     -2994.5344      -2333.3844         41.5004         38.6004
  20127632.0134   20127632.3594   20127635.9044  -25422569.02748 -19797417.69647
      1660.8494       1294.1674         50.5004         47.5004
  20910145.0124   20910144.8184   20910149.2574  -21418851.51648 -16670307.10047
       788.2014        614.1824         49.6004         46.8004
  23115910.5574   23115909.7004   23115915.3754   -1701749.29546  -1312569.44746
      3461.9384       2697.6154         39.0004         36.7004
  23143148.0754   23143148.3964   23143152.8724   -8737548.67947  -6794864.66646
      3353.8634       2613.3804         43.7004         40.9004
  21540118.8424   21540119.4074   21540122.9174  -14551304.69148 -11317992.26547
     -2493.0064      -1942.5974         48.8004         45.6004
 10  1  2  1 17 30.0000000  0  9G17G22G18G28G 9G27G26G12G15
  22048650.8514   22048651.2164   22048655.2914  -14539205.29848 -11315800.85047
       894.5924        697.0814         48.1004         45.1004
  23748474.4324   23748473.2634   23748476.3274   -3865082.93345  -2850831.74445
       608.8844        474.4614         35.7004         34.1004
  23102276.9904   23102277.5894   23102280.3384   -6087935.09646  -4520904.10646
     -1236.2314       -963.2884         41.6004         39.0004
  23760723.7954   23760722.8834   23760727.5644   -4183435.46246  -3222140.33746
     -2999.3854      -2337.1804         41.3004         38.3004
  20118192.9794   20118192.5514   20118196.5674  -25472171.64048 -19836069.07247
      1645.9634       1282.5634         50.5004         47.5004
  20905672.4854   20905672.2694   20905676.6244  -21442355.84948 -16688622.16947
       778.7334        606.8044         49.8004         47.0004
  23096175.7074   23096176.3714   23096181.0684   -1805457.76546  -1393381.26046
      3451.9424       2689.8264         39.4004         37.3004
  23124024.8454   23124024.2114   23124026.3244   -8838049.91847  -6873177.30746
      3346.1864       2607.4204         43.7004         40.7004
  21554390.6144   21554391.4574   21554395.0854  -14476302.63748 -11259549.11547
     -2507.1314      -1953.6164         48.6004         45.6004
 10  1  2  1 18  0.0000000  0  9G17G22G18G28G 9G27G26G12G15
  22043599.6944   22043599.4924   22043602.2634  -14565756.66248 -11336490.19947
       875.4474        682.1754         48.2004         45.2004
  23745054.6204   23745053.4154   23745054.9424   -3883071.75245  -2864849.02845
       590.4604        460.1074         35.6004         34.1004
  23109383.5784   23109382.9604   23109388.1684   -6050593.03446  -4491806.39246
     -1253.2074       -976.5164         41.6004         38.8004
  23777860.1214   23777859.7444   23777862.9114   -4093380.41046  -3151967.60846
     -3004.2404      -2340.9584         40.6004         37.8004
  20108839.2384   20108839.0564   20108842.9454  -25521326.40148 -19874371.48247
      1631.0074       1270.9184         50.5004         47.5004
  20901253.5674   20901253.5434   20901257.9424  -21465575.94848 -16706715.74847
       769.2584        599.4224         49.8004         47.0004
  23076500.2594   23076499.9304   23076503.1444   -1908865.07046  -1473958.40046
      3441.8134       2681.9334         39.9004         37.6004
  23104942.9584   23104944.4344   23104946.4304   -8938319.93947  -6951309.77346
      3338.4614       2601.3984         43.7004         41.1004
  21568745.1644   21568744.5564   21568748.0754  -14400877.01548 -11200775.92047
     -2521.2454      -1964.6024         48.4004         45.4004
 10  1  2  1 18 30.0000000  0  9G17G22G18G28G 9G27G26G12G15
  22038656.0544   22038656.0074   22038658.9744  -14591734.09248 -11356732.32147
       856.3394        667.2874         48.2004         45.2004
  23741731.3654   23741730.4054   23741734.5314   -3900507.73845  -2878435.49345
       571.8974        445.6244         35.6004         34.0004
  23116586.7954   23116587.0624   23116588.8724   -6012742.18546  -4462312.22646
     -1270.1374       -989.7054         41.3004         38.6004
  23795024.4544   23795024.6154   23795028.8414   -4003181.04446  -3081682.40446
     -3009.0694      -2344.7244         40.4004         37.9004
  20099570.8694   20099570.8104   20099574.5214  -25570031.88448 -19912323.80947
      1615.9994       1259.2234         50.5004         47.5004
  20896889.2704   20896889.1684   20896893.4274  -21488511.06848 -16724587.26947
       759.7504        592.0184         49.8004         46.8004
  23056879.0644   23056878.3664   23056882.3364   -2011968.30246  -1554298.59046
      3431.6764       2674.0324         40.1004         37.8004
  23085907.0834   23085905.7784   23085909.9634   -9038357.04347  -7029260.74746
      3330.6644       2595.3244         43.7004         41.1004
  21583177.2214   21583177.7984   21583181.7744  -14325029.52448 -11141673.96647
     -2535.2544      -1975.5224         48.4004         45.4004
 10  1  2  1 19  0.0000000  0  9G17G22G18G28G 9G27G26G12G15
  22033821.4074   22033821.7284   22033825.0364  -14617136.18848 -11376526.14647
       837.1344        652.3144         48.1004         45.1004
  23738524.4974   23738522.6824   23738522.0934   -3917390.13146  -2891590.62045
       553.5874        431.3744         36.6004         35.0004
  23123886.4814   23123886.0664   23123888.0754   -5974384.24946  -4432422.93446
     -1287.0154      -1002.8724         41.5004         38.8004
  23812216.0824   23812213.9104   23812220.6764   -3912838.92346  -3011285.96546
     -3013.7434      -2348.3704         40.6004         37.9004
  20090388.0804   20090387.8484   20090391.8204  -25618286.91148 -19949925.12947
      1600.9764       1247.5144         50.5004         47.7004
  20892578.9704   20892578.8824   20892583.3584  -21511160.76548 -16742236.38247
       750.2234        584.5884         49.8004         46.8004
  23037317.7804   23037317.3834   23037320.9684   -2114764.48946  -1634399.53346
      3421.4194       2666.0434         40.4004         37.9004
  23066913.3354   23066914.5244   23066919.0804   -9138159.63147  -7107028.97446
      3322.8014       2589.1964         44.1004         41.6004
  21597690.4594   21597690.8464   21597694.6524  -14248762.02948 -11082244.73947
     -2549.2294      -1986.4174         48.4004         45.2004
 10  1  2  1 19 30.0000000  0  9G17G22G18G28G 9G27G26G12G15
  22029097.5954   22029097.7704   22029100.4654  -14641962.15748 -11395871.03047
       817.9144        637.3354         48.1004         45.1004
  23735410.1104   23735412.7054   23735414.8374   -3933718.98046  -2904314.48845
       535.1344        416.9834         36.1004         34.5004
  23131282.5974   23131281.3944   23131283.7584   -5935521.18846  -4402140.03946
     -1303.8364      -1015.9834         41.8004         39.3004
  23829433.7344   23829434.2044   23829438.2154   -3822355.95546  -2940779.76746
     -3018.3994      -2352.0064         40.3004         37.4004
  20081291.9284   20081291.7694   20081295.3114  -25666090.06948 -19987174.33947
      1585.8934       1235.7604         50.7004         47.7004
  20888323.6234   20888323.5274   20888327.6314  -21533524.32548 -16759662.53847
       740.6854        577.1564         49.8004         47.0004
  23017815.1674   23017814.5024   23017818.2244   -2217250.91946  -1714259.07646
      3411.0254       2657.9434         40.4004         37.8004
  23047968.1974   23047968.2864   23047971.3694   -9237726.28247  -7184613.36646
      3314.9214       2583.0474         44.1004         41.4004
  21612284.5414   21612283.9054   21612287.0424  -14172076.16048 -11022489.52247
     -2563.1364      -1997.2524         48.2004         45.1004
 10  1  2  1 20  0.0000000  0  9G17G22G18G28G 9G27G26G12G15
  22024481.9404   22024482.7174   22024486.2084  -14666211.01448 -11414766.23047
       798.6524        622.3304         48.1004         44.9004
  23732415.3744   23732413.4864   23732414.0894   -3949494.25646  -2916606.92546
       516.5994        402.5514         37.6004         36.0004
  23138772.6634   23138771.5104   23138775.9664   -5896155.12647  -4371465.16746
     -1320.5894      -1029.0174         42.2004         39.7004
  23846680.0214   23846678.5674   23846682.4944   -3731733.89346  -2870165.14846
     -3023.0334      -2355.6234         39.9004         37.1004
  20072281.6144   20072281.0884   20072285.1464  -25713439.94648 -20024070.33647
      1570.7504       1223.9634         50.7004         47.7004
  20884122.3794   20884122.1684   20884126.6224  -21555601.48448 -16776865.51747
       731.1174        569.7014         50.0004         47.0004
  22998372.5244   22998372.3664   22998374.9434   -2319424.59446  -1793874.94746
      3400.6094       2649.8274         40.6004         37.9004
  23029067.7864   23029066.5254   23029070.2274   -9337055.34447  -7262012.63746
      3306.9984       2576.8834         44.2004         41.6004
  21626954.7024   21626955.0994   21626959.5444  -14094973.83248 -10962409.78147
     -2577.0104      -2008.0574         48.1004         45.1004
 10  1  2  1 20 30.0000000  0  9G17G22G18G28G 9G27G26G12G15
  22019978.6994   22019978.9824   22019982.3724  -14689881.63348 -11433210.85347
       779.3594        607.2964         48.1004         45.1004
  23729515.0654   23729516.1844   23729514.7414   -3964715.33646  -2928467.54846
       498.1084        388.1314         38.2004         36.2004
  23146359.0164   23146357.9224   23146360.6744   -5856287.28347  -4340399.35346
     -1337.2624      -1042.0144         42.0004         39.0004
  23863952.3014   23863951.5264   23863953.6614   -3640974.17346  -2799443.31346
     -3027.5884      -2359.1464         39.6004         37.1004
  20063357.3234   20063357.2014   20063361.0504  -25760335.07048 -20060611.99547
      1555.5794       1212.1404         50.7004         47.7004
  20879976.3194   20879975.6864   20879980.0304  -21577391.42548 -16793844.69447
       721.5244        562.2224         50.0004         47.0004
  22978988.3634   22978988.3914   22978992.0004   -2421282.67246  -1873244.89846
      3389.9384       2641.5114         40.4004         37.8004
  23010209.0444   23010210.8434   23010212.8794   -9436145.42847  -7339225.69446
      3298.9534       2570.6064         44.2004         41.4004
  21641706.1434   21641706.7774   21641710.3964  -14017456.90948 -10902006.98147
     -2590.7974      -2018.8034         48.1004         45.1004
 10  1  2  1 21  0.0000000  0  9G17G22G18G28G 9G27G26G12G15
  22015584.9234   22015584.4474   22015588.3964  -14712972.98048 -11451204.09447
       760.0344        592.2324         48.1004         45.1004
  23726724.3554   23726724.1464   23726727.0004   -3979381.51946  -2939895.74546
       479.6334        373.7404         39.0004         36.9004
  23154040.0164   23154040.6144   23154043.0634   -5815919.23446  -4308943.75846
     -1353.9134      -1055.0004         41.5004         38.8004
  23881248.7614   23881247.3564   23881249.4584   -3550078.47446  -2728615.52046
     -3032.1304      -2362.7054         39.4004         37.1004
  20054520.0134   20054519.9404   20054523.7454  -25806774.17048 -20096798.30447
      1540.3674       1200.2904         50.7004         47.5004
  20875884.0104   20875883.8104   20875888.4534  -21598893.46048 -16810599.51947
       711.9214        554.7444         49.8004         47.0004
  22959663.4164   22959664.8564   22959670.6824   -2522822.18046  -1952366.55946
      3379.2854       2633.2054         40.4004         37.9004
  22991400.4004   22991400.1374   22991401.7074   -9534994.73147  -7416251.11346
      3290.9604       2564.3914         44.2004         41.4004
  21656537.0174   21656536.8494   21656539.4984  -13939527.25148 -10841282.56147
     -2604.5034      -2029.4864         48.1004         45.1004
 10  1  2  1 21 30.0000000  0  9G17G22G18G28G 9G27G26G12G15
  22011300.6464   22011300.7304   22011303.9884  -14735484.28148 -11468745.34847
       740.6994        577.1734         48.1004         45.2004
  23724037.7084   23724039.0794   23724038.7184   -3993493.06946  -2950891.82046
       461.1184        359.3164         39.0004         36.6004
  23161816.4334   23161816.6484   23161819.5654   -5775052.93146  -4277099.90346
     -1370.4674      -1067.8954         41.3004         38.8004
  23898571.0124   23898568.4474   23898572.9264   -3459048.53046  -2657683.07746
     -3036.5384      -2366.1414         39.4004         37.1004
  20045769.8614   20045769.8624   20045773.8784  -25852755.84548 -20132628.18147
      1525.0794       1188.3714         50.5004         47.5004
  20871847.4534   20871847.1524   20871851.5904  -21620107.23048 -16827129.73447
       702.3154        547.2644         49.8004         47.0004
  22940404.6834   22940403.6564   22940409.3444   -2624040.24346  -2031237.77746
      3368.4894       2624.7984         40.6004         38.1004
  22972634.5694   22972635.0624   22972638.6674   -9633601.95547  -7493087.88446
      3282.8484       2558.0784         44.2004         41.6004
  21671443.6744   21671443.9274   21671447.8534  -13861186.71948 -10780238.00347
     -2618.1704      -2040.1264         48.1004         45.1004
 10  1  2  1 22  0.0000000  0  9G17G22G18G28G 9G27G26G12G15
  22007126.5444   22007127.4764   22007130.8164  -14757414.18448 -11485833.55847
       721.3184        562.0654         48.2004         45.2004
  23721458.9644   23721459.2924   23721460.5294   -4007049.40746  -2961455.19546
       442.6134        344.8914         38.9004         36.6004
  23169689.5424   23169689.7224   23169691.1174   -5733690.48246  -4244869.47246
     -1387.0114      -1080.8014         41.3004         39.0004
  23915918.3554   23915918.0404   23915920.2714   -3367886.05946  -2586647.41246
     -3040.9354      -2369.5454         39.7004         37.4004
  20037107.7264   20037107.4114   20037111.1904  -25898278.81148 -20168100.61947
      1509.7704       1176.4424         50.7004         47.7004
  20867865.8414   20867865.3964   20867869.4544  -21641032.05848 -16843434.79747
       692.6684        539.7454         50.0004         47.0004
  22921205.4214   22921205.4604   22921209.2724   -2724933.90846  -2109856.20146
      3357.6844       2616.3764         40.4004         37.9004
  22953918.0044   22953917.5394   22953920.6044   -9731965.39447  -7569734.70846
      3274.6864       2551.7014         44.4004         41.6004
  21686428.3384   21686429.3124   21686433.4144  -13782437.22047 -10718874.75047
     -2631.7754      -2050.7294         47.9004         44.9004
 10  1  2  1 22 30.0000000  0  9G17G22G18G28G 9G27G26G12G15
  22003064.7584   22003065.0344   22003068.8664  -14778762.15948 -11502468.32047
       701.8614        546.9114         48.2004         45.2004
  23718983.2944   23718984.7074   23718986.3744   -4020050.36746  -2971585.79846
       424.1294        330.4914         38.7004         36.4004
  23177653.9644   23177652.9894   23177656.3014   -5691833.75446  -4212253.86846
     -1403.4644      -1093.6154         41.3004         38.5004
  23933289.3274   23933288.7094   23933293.9294   -3276592.69746  -2515509.74346
     -3045.3174      -2372.9704         39.7004         37.4004
  20028532.4444   20028532.0974   20028535.9734  -25943341.82648 -20203214.66147
      1494.4124       1164.4754         50.7004         47.7004
  20863937.8534   20863938.4844   20863942.5324  -21661667.31748 -16859514.21847
       682.9924        532.2014         49.8004         47.0004
  22902068.8864   22902069.6084   22902072.2224   -2825500.26246  -2188219.60346
      3346.7174       2607.8344         40.9004         38.6004
  22935246.1774   22935246.5104   22935249.1274   -9830083.64847  -7646190.49046
      3266.4864       2545.3154         44.8004         41.9004
  21701493.2624   21701492.9274   21701496.1564  -13703280.66747 -10657194.32647
     -2645.3224      -2061.2894         47.9004         44.9004
 10  1  2  1 23  0.0000000  0  9G17G22G18G28G 9G27G26G12G15
  21999113.3324   21999113.4524   21999116.4244  -14799527.51748 -11518649.08647
       682.4554        531.7864         48.1004         45.1004
  23716620.2404   23716617.9644   23716620.1394   -4032495.68146  -2981283.41546
       405.5884        316.0404         39.4004         37.1004
  23185711.3264   23185711.0544   23185715.6914   -5649484.76146  -4179254.62946
     -1419.8414      -1106.3664         41.3004         38.8004
  23950686.1264   23950686.4754   23950691.3284   -3185170.08246  -2444271.36246
     -3049.5124      -2376.2424         39.7004         37.3004
  20020044.7954   20020044.6844   20020048.8014  -25987943.00748 -20237968.82247
      1478.9974       1152.4674         50.7004         47.7004
  20860067.3704   20860066.7494   20860071.2084  -21682012.50148 -16875367.60947
       673.3274        524.6744         49.8004         47.0004
  22882995.2174   22882995.2414   22882997.5614   -2925736.50646  -2266325.77046
      3335.6554       2599.2154         40.9004         38.3004
  22916620.7454   22916621.4254   22916624.9574   -9927954.92047  -7722453.81846
      3258.2314       2538.8864         44.8004         41.9004
  21716631.8234   21716632.1464   21716636.8544  -13623718.83147 -10595198.09347
     -2658.7924      -2071.7854         47.9004         44.9004
 10  1  2  1 23 30.0000000  0  9G17G22G18G28G 9G27G26G12G15
  21995272.3194   21995272.6604   21995276.1554  -14819709.27148 -11534375.09747
       662.9894        516.6064         48.1004         45.2004
  23714355.5404   23714355.9654   23714356.1074   -4044385.16546  -2990547.95646
       387.0154        301.5694         39.4004         36.9004
  23193864.5724   23193864.7114   23193867.4044   -5606645.31946  -4145873.26446
     -1436.1004      -1119.0414         41.6004         39.0004
  23968107.9474   23968109.2854   23968111.7084   -3093620.16746  -2372933.77646
     -3053.8094      -2379.5874         39.6004         36.9004
  20011645.6724   20011645.6004   20011649.2184  -26032081.27748 -20272362.27647
      1463.5394       1140.4164         50.7004         47.8004
  20856251.2374   20856250.8324   20856255.0994  -21702066.95248 -16890994.45747
       663.6174        517.1024         49.8004         47.0004
  22863984.1084   22863983.7454   22863986.4394   -3025639.47646  -2344172.23446
      3324.6064       2590.5994         40.9004         38.5004
  22898045.5544   22898045.1364   22898047.9534  -10025578.03247  -7798523.77746
      3249.9274       2532.4114         44.8004         41.9004
  21731848.5384   21731849.0694   21731852.9214  -13543753.97747 -10532887.81847
     -2672.2074      -2082.2504         47.9004         44.9004
 10  1  2  1 24  0.0000000  0  9G17G22G18G28G 9G27G26G12G15
  21991544.4134   21991544.3344   21991547.4854  -14839306.21948 -11549645.42447
       643.4714        501.3974         48.2004         45.4004
  23712196.4644   23712197.2424   23712198.3854   -4055718.21746  -2999378.90346
       368.5444        287.1784         38.7004         36.0004
  23202109.2324   23202108.5884   23202113.1054   -5563317.13046  -4112111.06746
     -1452.4254      -1131.7624         41.5004         38.8004
  23985554.0474   23985554.5744   23985556.1824   -3001943.79646  -2301497.65246
     -3057.9384      -2382.8214         39.4004         36.7004
  20003335.2674   20003334.9984   20003338.5424  -26075755.64648 -20306394.26347
      1448.0574       1128.3544         50.8004         47.8004
  20852490.4344   20852489.8914   20852494.1654  -21721830.20448 -16906394.39347
       653.8934        509.5264         50.0004         47.0004
  22845037.3244   22845036.4244   22845039.1794   -3125206.44346  -2421756.87246
      3313.2254       2581.7314         40.9004         38.3004
  22879516.5634   22879516.7504   22879518.1004  -10122951.26447  -7874399.02646
      3241.5784       2525.9014         44.8004         41.9004
  21747142.7154   21747143.1434   21747145.2424  -13463387.37947 -10470264.49647
     -2685.5694      -2092.6594         47.7004         44.7004
 10  1  2  1 24 30.0000000  0  9G17G22G18G28G 9G27G26G12G15
  21987926.5544   21987926.5454   21987929.3164  -14858317.78348 -11564459.61047
       623.9394        486.1884         48.2004         45.2004
  23710150.0344   23710148.9864   23710147.7334   -4066495.52946  -3007776.85246
       350.0184        272.7394         38.2004         36.0004
  23210447.0894   23210446.1544   23210449.0374   -5519502.26346  -4077969.60646
     -1468.5974      -1144.3514         41.1004         38.3004
  24003023.8314   24003022.0774   24003025.2534   -2910143.24846  -2229964.76446
     -3062.0734      -2386.0354         39.2004         36.9004
  19995112.7394   19995112.0094   19995115.9554  -26118964.60048 -20340063.57647
      1432.5234       1116.2504         50.8004         47.8004
  20848785.4124   20848784.5264   20848789.2914  -21741301.43748 -16921566.78347
       644.1584        501.9404         50.0004         47.0004
  22826152.2624   22826153.7364   22826157.0054   -3224434.46546  -2499077.39246
      3301.9454       2572.9504         41.1004         38.5004
  22861033.0544   22861033.3704   22861036.8444  -10220073.07847  -7950078.33747
      3233.1664       2519.3634         44.9004         42.1004
  21762512.7824   21762512.3744   21762516.2384  -13382621.05448 -10407329.70047
     -2698.8484      -2102.9994         48.1004         45.2004
 10  1  2  1 25  0.0000000  0  9G17G22G18G28G 9G27G26G12G15
  21984420.1194   21984420.2844   21984423.4864  -14876743.21248 -11578817.07547
       604.4034        470.9604         48.4004         45.4004
  23708197.7314   23708199.3584   23708200.4944   -4076716.76246  -3015741.43145
       331.4114        258.2384         36.8004         34.1004
  23218875.2614   23218875.1764   23218878.9974   -5475203.03846  -4043450.76846
     -1484.7054      -1156.9214         41.1004         38.5004
  24020516.3194   24020513.9944   24020517.8674   -2818220.45346  -2158336.64146
     -3066.1114      -2389.1804         39.0004         36.4004
  19986978.0064   19986978.2814   19986982.4704  -26161706.87648 -20373369.24847
      1416.9434       1104.1124         50.8004         47.7004
  20845134.8714   20845134.9154   20845139.1974  -21760480.29948 -16936511.35347
       634.4134        494.3474         49.8004         47.0004
  22807335.7394   22807336.2724   22807340.4654   -3323320.65546  -2576131.57146
      3290.4794       2564.0074         41.1004         38.5004
  22842599.9114   22842599.5944   22842602.9884  -10316942.09847  -8025560.67347
      3224.7344       2512.7914         45.1004         42.3004
  21777955.3254   21777956.7804   21777961.8664  -13301457.32948 -10344085.26647
     -2712.0854      -2113.3084         48.2004         45.2004
 10  1  2  1 25 30.0000000  0  9G17G22G18G28G 9G27G26G12G15
  21981026.3374   21981025.7204   21981028.3184  -14894581.82048 -11592717.25847
       584.8134        455.6934         48.4004         45.4004
  23706361.8774   23706363.7634   23706362.4354   -4086381.63945  -3023272.51045
       312.8054        243.7364         35.7004         33.8004
  23227399.7424   23227398.1544   23227401.5724   -5430421.06746  -4008555.75846
     -1500.7634      -1169.4214         41.3004         38.5004
  24038031.7734   24038028.9404   24038034.2174   -2726176.59546  -2086614.18045
     -3070.1524      -2392.3134         38.3004         35.7004
  19978934.4274   19978934.2224   19978937.7944  -26203981.20348 -20406310.29247
      1401.3314       1091.9484         50.7004         47.7004
  20841541.1614   20841540.9484   20841545.1494  -21779366.24148 -16951227.67547
       624.6494        486.7364         49.8004         47.0004
  22788584.4534   22788584.0374   22788588.6384   -3421862.04146  -2652917.03846
      3278.9534       2555.0234         41.3004         39.0004
  22824215.3324   22824215.9024   22824218.3004  -10413556.61847  -8100844.69247
      3216.2004       2506.1284         45.3004         42.5004
  21793476.6144   21793477.2454   21793480.0824  -13219898.16248 -10280532.66047
     -2725.2254      -2123.5544         48.1004         44.9004
 10  1  2  1 26  0.0000000  0  9G17G22G18G28G 9G27G26G12G15
  21977742.3544   21977743.4394   21977746.3704  -14911832.56348 -11606159.38747
       565.2114        440.4194         48.4004         45.8004
  23704630.0284   23704629.0324   23704629.9754   -4095489.94146  -3030369.86945
       294.3254        229.3524         36.1004         34.6004
  23236012.4454   23236011.1554   23236015.7314   -5385158.41146  -3973286.19546
     -1516.7694      -1181.8984         41.3004         38.6004
  24055569.9254   24055568.8664   24055572.8154   -2634013.22446  -2014798.62046
     -3074.0554      -2395.3784         38.2004         36.0004
  19970979.4354   19970978.8724   19970982.7644  -26245786.18148 -20438885.59947
      1385.6584       1079.7344         50.7004         47.8004
  20838002.9864   20838003.0924   20838007.3524  -21797958.60048 -16965715.23147
       614.8444        479.0984         49.8004         47.0004
  22769897.7374   22769898.5494   22769903.4694   -3520055.60946  -2729431.48146
      3267.2634       2545.9134         41.6004         39.2004
  22805879.4834   22805879.4314   22805882.3334  -10509915.39047  -8175929.43847
      3207.6764       2499.4894         45.5004         42.6004
  21809072.5714   21809072.6164   21809075.8884  -13137945.27747 -10216673.27747
     -2738.2964      -2133.7344         47.9004         44.9004
 10  1  2  1 26 30.0000000  0  9G17G22G18G28G 9G27G26G12G15
  21974571.0084   21974571.0944   21974574.9264  -14928494.75448 -11619142.88947
       545.6034        425.1424         48.6004         45.4004
  23703005.1344   23703004.2554   23703003.6854   -4104041.87246  -3037033.64045
       275.8114        214.9154         37.1004         35.7004
  23244715.6304   23244716.0704   23244719.4534   -5339417.10546  -3937643.60546
     -1532.6584      -1194.2814         41.3004         38.6004
  24073129.9044   24073128.7384   24073133.3974   -2541732.12446  -1942891.29946
     -3077.9684      -2398.4144         39.0004         36.9004
  19963113.3854   19963113.3434   19963117.2554  -26287120.58248 -20471094.22448
      1369.9784       1067.5144         50.8004         48.0004
  20834521.7784   20834521.3044   20834525.2494  -21816256.65248 -16979973.45547
       605.0134        471.4374         50.0004         47.2004
  22751280.5194   22751280.6164   22751284.4104   -3617898.54946  -2805672.72746
      3255.5894       2536.8254         41.8004         39.5004
  22787592.1124   22787591.9924   22787594.2024  -10606016.85647  -8250813.69447
      3199.0784       2492.7854         45.6004         42.8004
  21824740.7514   21824742.0044   21824746.6724  -13055600.53848 -10152508.56647
     -2751.3274      -2143.9004         48.1004         45.1004
 10  1  2  1 27  0.0000000  0  9G17G22G18G28G 9G27G26G12G15
  21971512.6584   21971513.3434   21971516.1974  -14944568.11448 -11631667.56647
       525.9374        409.8254         48.4004         45.6004
  23701482.5954   23701481.6684   23701482.3414   -4112036.92246  -3043263.56045
       257.3204        200.5124         37.8004         35.9004
  23253510.5754   23253511.0514   23253514.0994   -5293199.32046  -3901629.79746
     -1548.5044      -1206.6334         41.5004         39.0004
  24090710.9704   24090710.5354   24090716.2414   -2449334.87646  -1870893.48846
     -3081.8424      -2401.4354         39.4004         36.9004
  19955337.6174   19955337.2884   19955341.1304  -26327983.01148 -20502935.07647
      1354.1964       1055.2154         50.8004         47.7004
  20831095.0964   20831095.1994   20831099.1424  -21834259.89048 -16994001.95747
       595.1924        463.7834         50.0004         47.0004
  22732728.1564   22732727.6974   22732733.4514   -3715387.87547  -2881638.42446
      3243.7094       2527.5634         42.3004         39.9004
  22769351.5644   22769352.9474   22769356.0324  -10701859.58247  -8325496.31947
      3190.3954       2486.0234         45.5004         42.5004
  21840486.8204   21840486.3724   21840488.7814  -12972866.02247 -10088040.12147
     -2764.2914      -2153.9954         47.9004         44.7004
 10  1  2  1 27 30.0000000  0  9G17G22G18G28G 9G27G26G12G15
  21968567.1554   21968567.1424   21968570.2524  -14960051.34248 -11643732.39547
       506.2454        394.4724         48.6004         45.8004
  23700063.7144   23700065.5754   23700068.5684   -4119475.29946  -3049059.65946
       238.6634        185.9734         38.2004         36.0004
  23262396.1154   23262395.3334   23262399.1154   -5246506.86646  -3865246.09746
     -1564.3094      -1218.9324         41.3004         38.6004
  24108318.8814   24108317.6154   24108320.3144   -2356823.12046  -1798806.44746
     -3085.6024      -2404.3484         39.2004         36.7004
  19947651.3204   19947651.1624   19947655.2044  -26368372.31348 -20534407.25647
      1338.4074       1042.9144         50.7004         47.7004
  20827725.5884   20827725.6434   20827729.9894  -21851967.70848 -17007800.26147
       585.3234        456.0964         50.0004         47.2004
  22714245.6204   22714244.4624   22714249.6654   -3812520.67547  -2957326.29446
      3231.8224       2518.3044         42.5004         39.7004
  22751163.8614   22751164.0194   22751166.4344  -10797441.76947  -8399975.94447
      3181.7064       2479.2544         45.5004         42.3004
  21856303.3614   21856304.0444   21856307.5714  -12889743.83247 -10023269.57847
     -2777.1724      -2164.0274         47.7004         44.9004
 10  1  2  1 28  0.0000000  0  9G17G22G18G28G 9G27G26G12G15
  21965731.7894   21965732.5284   21965736.2344  -14974944.32348 -11655337.29547
       486.5984        379.1634         48.6004         45.4004
  23698756.8874   23698756.2914   23698756.0754   -4126357.01946  -3054422.04745
       220.1454        171.5424         38.0004         35.9004
  23271371.8044   23271371.2044   23271374.7284   -5199341.94546  -3828494.21046
     -1580.0264      -1231.1874         41.3004         38.3004
  24125942.3214   24125942.4364   24125945.6644   -2264198.51346  -1726631.42745
     -3089.4054      -2407.3384         38.5004         35.9004
  19940056.4784   19940056.1964   19940059.7804  -26408287.26048 -20565509.82047
      1322.5604       1030.5704         50.8004         47.8004
  20824412.5604   20824412.0104   20824416.6724  -21869379.58848 -17021367.95347
       575.4514        448.4054         50.0004         47.2004
  22695828.4544   22695828.8484   22695833.5124   -3909294.20147  -3032734.25246
      3219.7354       2508.8764         42.3004         39.5004
  22733025.1304   22733025.1904   22733028.8564  -10892762.32447  -8474251.67047
      3172.9324       2472.4264         45.5004         42.8004
  21872194.9304   21872195.2334   21872199.4254  -12806236.10848  -9958198.63347
     -2790.0014      -2174.0284         48.1004         45.4004
 10  1  2  1 28 30.0000000  0  9G17G22G18G28G 9G27G26G12G15
  21963011.9514   21963011.5084   21963015.0784  -14989246.10048 -11666481.52947
       466.8654        363.7944         48.6004         45.6004
  23697554.0784   23697552.6234   23697555.7544   -4132682.43746  -3059350.94746
       201.7114        157.1824         38.0004         36.0004
  23280436.0514   23280435.8874   23280439.3624   -5151706.64746  -3791375.84446
     -1595.6244      -1243.3624         40.8004         38.3004
  24143590.0314   24143589.5014   24143591.9714   -2171462.50746  -1654369.62245
     -3093.0354      -2410.1494         38.0004         35.7004
  19932551.6384   19932551.0664   19932554.7404  -26447726.34248 -20596241.57447
      1306.6994       1018.2054         50.8004         47.8004
  20821154.9894   20821155.3284   20821159.7674  -21886494.95948 -17034704.61047
       565.5554        440.6924         50.2004         47.2004
  22677483.4144   22677483.0644   22677487.3844   -4005705.48247  -3107859.91446
      3207.6124       2499.4284         42.5004         40.0004
  22714935.6984   22714936.4234   22714939.8284  -10987819.50947  -8548322.21447
      3164.1494       2465.5734         45.6004         42.6004
  21888158.7304   21888158.3124   21888162.5264  -12722344.64447  -9892828.66847
     -2802.7654      -2183.9754         47.9004         44.5004
 10  1  2  1 29  0.0000000  0  9G17G22G18G28G 9G27G26G12G15
  21960403.2624   21960402.5564   21960405.6064  -15002956.33348 -11677164.80747
       447.1314        348.4144         48.6004         45.6004
  23696453.3474   23696453.2774   23696455.2874   -4138451.32146  -3063846.17345
       183.0474        142.6384         37.6004         35.7004
  23289589.7954   23289589.2344   23289592.9544   -5103602.90246  -3753892.45946
     -1611.2904      -1255.5554         40.6004         37.8004
  24161257.7074   24161255.7684   24161260.6254   -2078616.99646  -1582022.47445
     -3096.6564      -2412.9794         38.0004         35.7004
  19925136.3734   19925136.5734   19925140.1504  -26486688.38348 -20626601.60747
      1290.7664       1005.7904         50.8004         47.8004
  20817954.9814   20817954.8374   20817959.2394  -21903313.03048 -17047809.60447
       555.6314        432.9584         50.2004         47.2004
  22659207.4584   22659206.5914   22659209.9604   -4101751.45747  -3182700.92346
      3195.4244       2489.9454         42.5004         39.7004
  22696897.0454   22696897.8194   22696901.9434  -11082611.64847  -8622186.20347
      3155.2904       2458.6554         45.8004         43.0004
  21904194.9854   21904195.5734   21904198.0084  -12638071.30247  -9827161.11647
     -2815.4644      -2193.8704         47.4004         44.4004
 10  1  2  1 29 30.0000000  0  9G17G22G18G28G 9G27G26G12G15
  21957906.3594   21957906.4904   21957908.7374  -15016074.22048 -11687386.52347
       427.3764        333.0114         48.8004         45.8004
  23695464.2474   23695463.3824   23695464.9204   -4143663.72846  -3067907.84746
       164.5244        128.2064         38.5004         36.6004
  23298831.7274   23298831.4244   23298836.3234   -5055033.13246  -3716045.91046
     -1626.7124      -1267.5764         40.6004         38.1004
  24178945.6444   24178944.9754   24178949.3694   -1985663.40946  -1509591.13845
     -3100.2064      -2415.7444         38.2004         35.7004
  19917813.3534   19917813.4994   19917817.2164  -26525172.39648 -20656589.15247
      1274.8094        993.3604         50.8004         47.8004
  20814811.6594   20814811.4024   20814815.3114  -21919833.43748 -17060682.64547
       545.7074        425.2304         50.0004         47.2004
  22640998.8814   22640999.2764   22641003.4044   -4197429.07947  -3257254.91246
      3183.0824       2480.3154         42.5004         39.9004
  22678910.5424   22678910.5654   22678913.6764  -11177137.76747  -8695842.92247
      3146.4094       2451.7514         45.8004         43.0004
  21920303.6144   21920304.4904   21920308.2454  -12553418.31147  -9761197.75147
     -2828.0714      -2203.6834         47.5004         44.5004
 10  1  2  1 30  0.0000000  0  9G17G22G18G28G 9G27G26G12G15
  21955522.4434   21955522.5264   21955526.0244  -15028599.30748 -11697146.31447
       407.6074        317.6144         48.8004         45.8004
  23694576.9874   23694575.9904   23694578.5784   -4148319.95946  -3071536.07646
       145.9664        113.7444         38.5004         36.2004
  23308164.4734   23308164.0744   23308167.4704   -5005999.40746  -3677837.81546
     -1642.2064      -1279.6424         41.1004         39.0004
  24196655.1214   24196655.0184   24196656.9414   -1892603.04246  -1437076.59245
     -3103.7184      -2418.4854         38.0004         35.5004
  19910581.7874   19910581.4404   19910585.3914  -26563176.83348 -20686202.99448
      1258.8074        980.8884         51.0004         48.0004
  20811724.1854   20811724.1504   20811728.6094  -21936055.43048 -17073323.16047
       535.7464        417.4624         50.0004         47.2004
  22622862.7414   22622862.3614   22622866.1754   -4292735.70247  -3331519.79146
      3170.7074       2470.6794         42.3004         39.3004
  22660972.4254   22660973.2854   22660976.9504  -11271396.24547  -8769291.08247
      3137.4674       2444.7804         45.8004         42.8004
  21936484.0064   21936484.9364   21936488.1094  -12468387.45247  -9694939.95747
     -2840.6404      -2213.4914         47.4004         44.4004
 10  1  2  1 30 30.0000000  0  9G17G22G18G28G 9G27G26G12G15
  21953251.8054   21953252.1414   21953255.3024  -15040531.00948 -11706443.73547
       387.8084        302.1904         48.8004         45.8004
  23693795.1004   23693794.1384   23693797.3564   -4152419.95646  -3074730.92846
       127.4784         99.3284         38.2004         36.0004
  23317581.2264   23317581.7714   23317585.6344   -4956503.66046  -3639269.71946
     -1657.5244      -1291.5844         41.3004         38.6004
  24214383.3244   24214382.9114   24214388.4434   -1799437.92546  -1364480.41745
     -3107.1484      -2421.1604         37.5004         35.2004
  19903441.0024   19903441.0324   19903444.7714  -26600700.41748 -20715442.14748
      1242.7584        968.3844         51.0004         48.0004
  20808694.2364   20808694.0434   20808698.7524  -21951978.37048 -17085730.64547
       525.7674        409.6894         50.0004         47.2004
  22604796.3934   22604797.1814   22604801.8114   -4387668.30647  -3405493.24946
      3158.1634       2460.9044         42.3004         39.7004
  22643087.8544   22643087.0534   22643090.9404  -11365385.68747  -8842529.60847
      3128.4704       2437.7784         45.8004         42.8004
  21952737.8124   21952737.8094   21952740.2784  -12382981.37147  -9628389.74247
     -2853.1094      -2223.2024         47.2004         44.0004
 10  1  2  1 31  0.0000000  0  9G17G22G18G28G 9G27G26G12G15
  21951094.5994   21951094.2794   21951097.7134  -15051868.81948 -11715278.36847
       368.0084        286.7614         48.8004         45.6004
  23693124.4034   23693123.4094   23693123.8454   -4155963.66946  -3077492.27846
       108.8374         84.8054         38.9004         36.9004
  23327089.2924   23327089.3014   23327091.3334   -4906548.16446  -3600343.40446
     -1672.8484      -1303.5034         41.1004         38.3004
  24232133.6074   24232132.5544   24232135.3234   -1706169.34346  -1291803.61045
     -3110.6344      -2423.8734         37.3004         35.2004
  19896392.4884   19896392.2354   19896395.9444  -26637741.89048 -20744305.63448
      1226.6584        955.8364         51.0004         48.0004
  20805721.4624   20805721.0984   20805725.6114  -21967601.87548 -17097904.80247
       515.7634        401.8914         50.2004         47.2004
  22586803.2674   22586803.4214   22586807.6384   -4482224.08647  -3479173.07346
      3145.5414       2451.0634         42.3004         39.7004
  22625252.7644   22625253.3404   22625257.2054  -11459104.57047  -8915557.32147
      3119.4034       2430.7134         45.8004         43.0004
  21969061.0214   21969060.3544   21969065.1314  -12297201.57747  -9561548.34547
     -2865.5084      -2232.8584         47.4004         44.4004
 10  1  2  1 31 30.0000000  0  9G17G22G18G28G 9G27G26G12G15
  21949050.0114   21949050.0384   21949052.9864  -15062612.34748 -11723649.92747
       348.2074        271.3304         48.6004         45.6004
  23692553.4324   23692553.6574   23692554.8454   -4158951.53946  -3079820.48146
        90.2904         70.3564         39.0004         36.9004
  23336684.6104   23336680.5704   23336685.2394   -4856134.98546  -3561060.40246
     -1688.0834      -1315.4004         40.9004         38.1004
  24249900.7854   24249900.4204   24249903.3794   -1612798.99546  -1219047.48645
     -3114.0704      -2426.5434         37.1004         35.0004
  19889434.7584   19889435.0364   19889438.8884  -26674300.53348 -20772792.89048
      1210.5644        943.2924         51.0004         48.0004
  20802805.3984   20802805.2974   20802809.1784  -21982925.19648 -17109845.05147
       505.7764        394.1144         50.2004         47.2004
  22568883.0634   22568882.9004   22568887.3804   -4576399.97047  -3552556.86846
      3132.8654       2441.1924         42.5004         39.9004
  22607470.6994   22607470.5484   22607474.2264  -11552551.50247  -8988373.07547
      3110.3484       2423.6444         45.8004         42.8004
  21985454.2954   21985454.7024   21985457.9624  -12211050.10447  -9494417.34847
     -2877.8894      -2242.5154         47.4004         44.2004
 10  1  2  1 32  0.0000000  0  9G17G22G18G28G 9G27G26G12G15
  21947119.2534   21947119.2394   21947121.9584  -15072761.03048 -11731557.98447
       328.3544        255.8604         48.6004         45.8004
  23692089.8574   23692089.7514   23692092.6444   -4161383.67546  -3081715.65446
        71.7894         55.9384         39.6004         37.6004
  23346361.9044   23346362.8674   23346363.7474   -4805266.62846  -3521422.76846
     -1703.2174      -1327.1724         40.8004         37.9004
  24267686.2674   24267684.9084   24267691.6944   -1519328.73446  -1146213.51345
     -3117.3354      -2429.0834         37.3004         35.5004
  19882571.3704   19882570.8434   19882574.3764  -26710374.83548 -20800902.73448
      1194.3894        930.6944         51.0004         48.0004
  20799946.6384   20799946.4424   20799950.4974  -21997947.81948 -17121550.98647
       495.7304        386.2834         50.0004         47.0004
  22551031.9834   22551033.4054   22551039.7934   -4670192.99847  -3625642.34346
      3120.0694       2431.2284         42.5004         39.7004
  22589741.5864   22589741.2264   22589744.6084  -11645725.29047  -9060976.03347
      3101.2094       2416.5234         46.0004         43.5004
  22001918.8784   22001918.9134   22001922.1774  -12124529.24047  -9426998.48347
     -2890.1694      -2252.0814         46.9004         43.9004
 10  1  2  1 32 30.0000000  0  9G17G22G18G28G 9G27G26G12G15
  21945301.3834   21945301.3654   21945303.9444  -15082314.45948 -11739002.19647
       308.5114        240.4024         48.8004         45.8004
  23691735.4384   23691733.6784   23691736.0024   -4163259.83846  -3083177.57746
        53.2324         41.4804         40.3004         38.3004
  23356129.1614   23356128.2434   23356129.5204   -4753944.98846  -3481431.91546
     -1718.2564      -1338.8804         40.4004         37.6004
  24285493.7804   24285491.9734   24285494.2844   -1425759.50546  -1073302.44345
     -3120.5974      -2431.6364         37.6004         35.3004
  19875797.5934   19875797.8784   19875802.2674  -26745963.51548 -20828634.16848
      1178.1914        918.0694         51.0004         48.0004
  20797145.3594   20797144.8714   20797149.5234  -22012669.19948 -17133022.19547
       485.6814        378.4554         50.0004         47.2004
  22533260.5074   22533260.3054   22533263.9744   -4763600.30047  -3698427.24146
      3107.1144       2421.1294         42.7004         40.0004
  22572062.8454   22572062.4644   22572066.6914  -11738623.98547  -9133364.62447
      3092.0294       2409.3764         46.2004         43.3004
  22018453.4494   22018453.4234   22018457.6544  -12037640.86547  -9359293.27547
     -2902.3704      -2261.5814         47.0004         44.4004
 10  1  2  1 33  0.0000000  0  9G17G22G18G28G 9G27G26G12G15
  21943596.8764   21943596.6334   21943599.2404  -15091271.83048 -11745981.93447
       288.6374        224.9124         48.6004         45.6004
  23691481.3614   23691481.7904   23691483.8194   -4164580.78246  -3084206.88046
        34.7664         27.0864         40.9004         38.6004
  23365980.9014   23365979.4814   23365982.3174   -4702172.53046  -3441089.76446
     -1733.2834      -1350.6104         40.4004         37.4004
  24303316.4524   24303317.0784   24303317.3494   -1332093.01746  -1000315.62345
     -3123.8064      -2434.1244         37.6004         35.5004
  19869117.9524   19869118.1194   19869122.3934  -26781065.53748 -20855986.39148
      1161.9384        905.4054         51.0004         48.0004
  20794401.1624   20794400.9604   20794405.3534  -22027088.69048 -17144258.16447
       475.6014        370.5974         50.0004         47.2004
  22515559.7674   22515559.2394   22515562.6184   -4856618.87447  -3770909.24546
      3094.0304       2410.9264         42.7004         40.0004
  22554437.1454   22554437.9834   22554441.1464  -11831246.25347  -9205537.80747
      3082.7844       2402.1674         46.3004         43.5004
  22035056.2534   22035057.1794   22035061.4704  -11950387.54747  -9291303.69547
     -2914.5014      -2271.0314         47.4004         44.4004
 10  1  2  1 33 30.0000000  0  9G17G22G18G28G 9G27G26G12G15
  21942004.5324   21942005.2524   21942007.8494  -15099633.51648 -11752497.51647
       268.7794        209.4334         48.6004         45.4004
  23691336.0224   23691336.3014   23691338.2724   -4165346.58246  -3084803.59746
        16.2654         12.6754         41.1004         38.6004
  23375917.6264   23375917.6074   23375920.3544   -4649951.42846  -3400398.02846
     -1748.1964      -1362.2254         39.9004         37.3004
  24321160.3074   24321157.5454   24321162.3654   -1238330.80946   -927254.15745
     -3126.9454      -2436.5784         37.3004         34.8004
  19862532.0394   19862531.9474   19862535.5664  -26815679.64748 -20882958.42548
      1145.6454        892.7084         51.0004         48.0004
  20791714.7834   20791714.7324   20791718.8374  -22041205.59048 -17155258.34547
       465.5214        362.7434         50.0004         47.2004
  22497934.2184   22497933.2934   22497937.2634   -4949246.10147  -3843086.31046
      3081.0354       2400.8004         42.9004         40.0004
  22536864.9994   22536864.8114   22536868.3634  -11923590.88747  -9277494.64947
      3073.5204       2394.9524         46.2004         43.3004
  22051730.6114   22051730.6674   22051733.9844  -11862770.83447  -9223030.94347
     -2926.5904      -2280.4634         47.2004         44.2004
 10  1  2  1 34  0.0000000  0  9G17G22G18G28G 9G27G26G12G15
  21940528.7984   21940528.2324   21940530.0994  -15107398.76148 -11758548.33147
       248.8874        193.9364         48.6004         45.6004
  23691295.6344   23691295.1714   23691298.3684   -4165557.94846  -3084968.30746
        -2.2174         -1.7334         41.3004         38.5004
  23385939.3914   23385939.5064   23385943.7064   -4597283.99746  -3359358.48046
     -1762.9734      -1373.7394         39.9004         37.6004
  24339016.8294   24339017.3544   24339023.3364   -1144474.69646   -854119.57645
     -3130.1824      -2439.1044         36.8004         34.6004
  19856037.9564   19856037.7094   19856041.7614  -26849804.75748 -20909549.42248
      1129.3294        879.9974         51.0004         48.0004
  20789085.8724   20789086.0114   20789090.5374  -22055019.41848 -17166022.37447
       455.4104        354.8654         50.0004         47.2004
  22480381.2104   22480381.7254   22480386.2804   -5041478.83447  -3914955.98546
      3067.8234       2390.5244         42.9004         40.0004
  22519344.7844   22519345.2174   22519348.3624  -12015656.40347  -9349234.00047
      3064.2244       2387.7014         46.2004         43.3004
  22068472.2084   22068472.5354   22068474.7054  -11774792.85347  -9154476.67447
     -2938.6014      -2289.8174         47.4004         44.4004
 10  1  2  1 34 30.0000000  0  9G17G22G18G28G 9G27G26G12G15
  21939162.3204   21939163.0464   21939166.4514  -15114567.18948 -11764134.10447
       229.0054        178.4484         48.6004         45.4004
  23691360.7734   23691360.3074   23691363.5194   -4165214.53446  -3084700.69146
       -20.7044        -16.1344         41.5004         38.6004
  23396047.2354   23396046.6234   23396047.3974   -4544172.12646  -3317972.65946
     -1777.7724      -1385.2794         39.9004         37.4004
  24356896.3384   24356895.6254   24356900.6394   -1050526.02146   -780912.85645
     -3133.0924      -2441.3694         36.8004         35.0004
  19849637.7224   19849637.0514   19849641.2284  -26883439.65348 -20935758.43248
      1112.9844        867.2594         51.0004         48.0004
  20786515.0594   20786515.0464   20786519.3274  -22068529.64148 -17176549.82147
       445.2764        346.9674         50.0004         47.2004
  22462906.4394   22462906.8734   22462909.7774   -5133314.14447  -3986515.95946
      3054.4764       2380.1074         42.7004         39.7004
  22501878.7544   22501878.5544   22501882.8864  -12107441.25647  -9420754.67647
      3054.8074       2380.3694         46.2004         43.3004
  22085282.5834   22085282.2044   22085285.8734  -11686455.98347  -9085642.76447
     -2950.5104      -2299.1054         47.4004         44.4004
 10  1  2  1 35  0.0000000  0  9G17G22G18G28G 9G27G26G12G15
  21937911.7944   21937912.2204   21937916.2304  -15121138.53048 -11769254.60947
       209.1004        162.9324         48.6004         45.6004
  23691534.6504   23691533.2364   23691534.0504   -4164316.95946  -3084001.28246
       -39.1684        -30.5174         41.5004         39.0004
  23406237.5114   23406237.6584   23406240.1544   -4490618.40446  -3276242.50746
     -1792.5334      -1396.7774         40.4004         38.1004
  24374791.9734   24374793.4764   24374796.9214    -956486.34946   -707635.26445
     -3136.1394      -2443.7414         37.5004         35.3004
  19843330.3234   19843330.2914   19843334.3344  -26916583.10148 -20961584.48948
      1096.5844        854.4794         51.0004         48.0004
  20784002.1914   20784002.1014   20784006.2734  -22081735.69348 -17186840.25047
       435.1234        339.0524         50.0004         47.2004
  22445506.8114   22445506.5724   22445510.2674   -5224749.27747  -4057764.14446
      3041.1654       2369.7174         42.9004         40.0004
  22484466.9324   22484467.7884   22484470.3954  -12198944.43647  -9492055.83647
      3045.3974       2373.0454         46.3004         43.5004
  22102158.4744   22102159.4054   22102162.1814  -11597762.42547  -9016530.89747
     -2962.4084      -2308.3764         47.2004         44.0004
 10  1  2  1 35 30.0000000  0  9G17G22G18G28G 9G27G26G12G15
  21936775.7154   21936775.8444   21936778.7644  -15127112.60648 -11773909.72047
       189.1804        147.4124         48.6004         45.6004
  23691808.5024   23691807.4394   23691810.3674   -4162865.61146  -3082870.35246
       -57.6104        -44.8934         41.1004         38.5004
  23416513.4654   23416512.9844   23416515.0044   -4436625.36346  -3234170.04546
     -1807.0584      -1408.0914         40.4004         37.9004
  24392706.0884   24392704.4864   24392708.5954    -862357.30746   -634287.92445
     -3139.1114      -2446.0634         38.0004         35.9004
  19837117.0444   19837116.9454   19837120.8824  -26949234.05648 -20987026.79648
      1080.1314        841.6614         51.0004         48.0004
  20781547.4434   20781547.0714   20781551.4064  -22094637.21648 -17196893.38547
       424.9624        331.1384         50.2004         47.2004
  22428184.4294   22428184.2184   22428186.7074   -5315781.14147  -4128698.04746
      3027.7174       2359.2594         42.9004         40.0004
  22467108.5444   22467108.5454   22467111.2644  -12290164.30947  -9563136.23647
      3035.9084       2365.6404         46.5004         43.7004
  22119105.3964   22119105.0804   22119108.5314  -11508714.31647  -8947142.76847
     -2974.1864      -2317.5494         47.2004         44.4004
 10  1  2  1 36  0.0000000  0  9G17G22G18G28G 9G27G26G12G15
  21935753.5854   21935753.1194   21935755.2084  -15132489.01548 -11778099.09347
       169.2534        131.8834         48.6004         45.6004
  23692192.4724   23692190.6924   23692192.1454   -4160860.79646  -3081308.19046
       -76.0304        -59.2434         41.1004         38.6004
  23426869.1814   23426868.1364   23426874.3194   -4382195.13446  -3191756.87946
     -1821.6284      -1419.4554         40.3004         37.6004
  24410632.9304   24410633.5484   24410635.3434    -768139.99246   -560871.82145
     -3142.0224      -2448.3264         37.6004         35.3004
  19830997.8894   19830997.5254   19831001.5334  -26981391.38948 -21012084.45248
      1063.6374        828.8074         51.0004         48.0004
  20779149.9654   20779150.0304   20779154.1974  -22107233.38548 -17206708.58747
       414.7794        323.2054         50.2004         47.2004
  22410939.1384   22410938.6054   22410941.5994   -5406406.90447  -4199315.56146
      3014.0294       2348.5994         42.7004         40.2004
  22449803.8974   22449804.2434   22449807.2724  -12381099.13647  -9633994.53647
      3026.4044       2358.2314         46.7004         43.9004
  22136117.5384   22136118.0134   22136121.4304  -11419313.34147  -8877479.69847
     -2985.8984      -2326.6754         47.4004         44.4004
 10  1  2  1 36 30.0000000  0  9G17G22G18G28G 9G27G26G12G15
  21934843.4154   21934843.5744   21934846.7644  -15137267.33548 -11781822.44347
       149.3124        116.3404         48.6004         45.8004
  23692676.9954   23692676.9274   23692679.4264   -4158303.14146  -3079315.22646
       -94.4284        -73.5804         40.8004         37.9004
  23437311.1304   23437309.9704   23437312.9714   -4327329.94346  -3149004.81746
     -1836.0914      -1430.7134         40.3004         37.8004
  24428580.9764   24428579.4364   24428580.8064    -673836.16046   -487388.32545
     -3144.8804      -2450.5614         37.8004         35.9004
  19824972.5544   19824972.5124   19824976.7234  -27013053.74348 -21036756.42048
      1047.1464        815.9584         51.0004         48.0004
  20776811.8274   20776811.6214   20776815.8374  -22119523.57048 -17216285.35147
       404.5654        315.2464         50.2004         47.3004
  22393769.3234   22393770.1584   22393773.8154   -5496623.80647  -4269614.43446
      3000.3514       2337.9494         42.9004         40.2004
  22432554.4134   22432553.7184   22432558.5894  -12471747.82947  -9704629.86847
      3016.8044       2350.7674         46.9004         44.0004
  22153195.8284   22153196.3164   22153200.6574  -11329561.65547  -8807543.32547
     -2997.5344      -2335.7324         47.4004         44.2004
 10  1  2  1 37  0.0000000  0  9G17G22G18G28G 9G27G26G12G15
  21934049.1304   21934049.0544   21934051.7244  -15141447.64748 -11785079.83247
       129.3764        100.8084         48.9004         46.1004
  23693269.6624   23693268.3774   23693270.0524   -4155192.69046  -3076891.56946
      -112.9094        -87.9874         40.3004         37.4004
  23447832.4904   23447832.2474   23447836.9164   -4272032.20246  -3105915.66346
     -1850.4404      -1441.9084         40.3004         37.9004
  24446540.7604   24446541.4954   24446544.9194    -579447.46346   -413838.69145
     -3147.6584      -2452.7204         38.2004         35.7004
  19819042.4534   19819041.7024   19819045.8594  -27044220.19048 -21061041.96348
      1030.6034        803.0684         51.0004         48.0004
  20774531.5424   20774531.1714   20774535.4444  -22131507.23948 -17225623.27847
       394.3334        307.2794         50.3004         47.3004
  22376681.4104   22376681.1044   22376685.1834   -5586428.77047  -4339592.30946
      2986.6624       2327.2774         43.0004         40.2004
  22415358.1094   22415357.9874   22415362.4854  -12562109.12747  -9775041.25647
      3007.2194       2343.2814         46.7004         43.5004
  22170341.1934   22170341.8364   22170346.1614  -11239461.76447  -8737335.62347
     -3009.1254      -2344.7734         47.4004         44.5004
 10  1  2  1 37 30.0000000  0  9G17G22G18G28G 9G27G26G12G15
  21933366.2994   21933366.2554   21933369.3974  -15145029.72148 -11787871.03947
       109.4154         85.2604         48.8004         45.6004
  23693968.1834   23693966.3884   23693966.5684   -4151529.91746  -3074037.46546
      -131.3334       -102.3384         39.6004         37.1004
  23458436.4334   23458438.3914   23458441.1474   -4216304.29646  -3062491.36446
     -1864.7334      -1453.0304         40.4004         37.9004
  24464519.3884   24464517.5054   24464520.5504    -484975.60946   -340224.30845
     -3150.4164      -2454.8674         38.0004         35.5004
  19813206.1504   19813205.5694   19813209.5754  -27074889.80748 -21084940.36648
      1014.0174        790.1404         51.0004         48.2004
  20772309.3724   20772309.2744   20772313.2644  -22143183.94648 -17234722.01347
       384.1004        299.2984         50.2004         47.3004
  22359670.5394   22359670.4404   22359674.6264   -5675819.19047  -4409247.19646
      2972.7664       2316.4294         42.9004         40.2004
  22398218.4584   22398217.7244   22398221.4304  -12652181.96947  -9845227.88947
      2997.6154       2335.8064         46.3004         43.3004
  22187554.6554   22187553.9454   22187557.3064  -11149015.84847  -8666858.29547
     -3020.6224      -2353.7314         47.5004         44.5004
 10  1  2  1 38  0.0000000  0  9G17G22G18G28G 9G27G26G12G15
  21932798.2464   21932799.0984   21932801.7454  -15148013.16748 -11790195.79747
        89.4694         69.7134         48.8004         45.9004
  23694765.9854   23694766.4934   23694770.2884   -4147315.44646  -3070753.43746
      -149.6774       -116.6274         39.7004         37.4004
  23469124.9574   23469123.5254   23469127.8054   -4160148.64546  -3018733.74546
     -1878.9454      -1464.1134         40.3004         37.8004
  24482510.4424   24482510.1344   24482512.8264    -390421.71946   -266546.02145
     -3153.1634      -2457.0054         37.6004         35.2004
  19807465.7054   19807464.8644   19807468.2254  -27105061.05248 -21108450.43348
       997.3884        777.1834         51.2004         48.4004
  20770146.0144   20770145.8994   20770149.7024  -22154552.95848 -17243580.98347
       373.8194        291.2864         50.3004         47.3004
  22342739.3284   22342739.3994   22342743.8944   -5764791.85247  -4478576.54046
      2958.7134       2305.4804         43.2004         40.6004
  22381133.2294   22381133.2134   22381135.6424  -12741964.60647  -9915188.37447
      2987.8534       2328.2004         46.3004         43.5004
  22204830.0004   22204830.4584   22204833.5824  -11058225.98547  -8596112.95447
     -3032.0164      -2362.6244         47.2004         44.2004
 10  1  2  1 38 30.0000000  0  9G17G22G18G28G 9G27G26G12G15
  21932345.4414   21932345.0294   21932347.8304  -15150398.01148 -11792054.10347
        69.5244         54.1744         48.9004         45.8004
  23695674.8254   23695674.4014   23695675.9334   -4142549.96946  -3067040.09346
      -168.0554       -130.9474         40.1004         37.8004
  23479887.9694   23479890.2544   23479894.2164   -4103567.86146  -2974644.83246
     -1893.0834      -1475.1174         40.1004         37.4004
  24500518.7504   24500517.7454   24500522.2784    -295787.18946   -192804.91345
     -3155.7514      -2459.0244         37.1004         34.8004
  19801818.3034   19801817.9004   19801821.8614  -27134733.34348 -21131571.69948
       980.7414        764.2184         51.2004         48.2004
  20768041.3264   20768040.9424   20768044.9314  -22165613.62948 -17252199.69447
       363.5444        283.2854         50.3004         47.3004
  22325889.0044   22325889.1334   22325892.0834   -5853344.00747  -4547578.21846
      2944.7164       2294.5944         43.6004         41.1004
  22364105.0984   22364104.8974   22364107.4254  -12831455.35247  -9984921.39647
      2978.1234       2320.6154         46.7004         44.0004
  22222171.7484   22222172.0744   22222174.7544  -10967094.27647  -8525101.23947
     -3043.3774      -2371.4594         47.0004         43.9004
 10  1  2  1 39  0.0000000  0  9G17G22G18G28G 9G27G26G12G15
  21932004.7174   21932005.0334   21932008.7334  -15152184.04648 -11793445.79247
        49.5704         38.6264         48.9004         45.9004
  23696687.1104   23696686.1914   23696688.2634   -4137233.78546  -3062897.62346
      -186.3384       -145.1994         40.4004         37.9004
  23490740.1604   23490739.2544   23490741.6234   -4046563.87346  -2930226.17746
     -1907.1274      -1486.0654         39.9004         37.3004
  24518543.3854   24518541.7524   24518545.9864    -201073.59146   -119002.16245
     -3158.3484      -2461.0454         36.8004         34.8004
  19796266.6354   19796266.4624   19796270.3014  -27163905.20148 -21154303.02048
       964.0354        751.1934         51.0004         48.0004
  20765994.9634   20765994.8804   20765999.0334  -22176365.51048 -17260577.77947
       353.2444        275.2544         50.3004         47.3004
  22309118.6844   22309119.9854   22309123.0744   -5941472.50647  -4616249.77346
      2930.4954       2283.4894         43.9004         41.2004
  22347129.7254   22347130.7174   22347133.5264  -12920652.94847 -10054425.99547
      2968.3524       2312.9964         46.9004         44.0004
  22239577.9554   22239577.8744   22239581.7054  -10875622.96247  -8453824.89847
     -3054.7014      -2380.2904         46.9004         44.0004
 10  1  2  1 39 30.0000000  0  9G17G22G18G28G 9G27G26G12G15
  21931778.4024   21931778.7664   21931782.1034  -15153371.20748 -11794370.83747
        29.5744         23.0564         48.8004         45.8004
  23697802.9114   23697802.4364   23697803.0294   -4131367.29846  -3058326.33246
      -204.7254       -159.5224         40.4004         37.8004
  23501668.2174   23501666.5924   23501668.3064   -3989139.10646  -2885479.67246
     -1921.1274      -1496.9884         39.9004         37.6004
  24536583.2474   24536581.6264   24536584.6074    -106282.37146    -45138.89545
     -3161.0104      -2463.1244         37.1004         35.2004
  19790810.2534   19790810.7114   19790814.8974  -27192575.51948 -21176643.53448
       947.3244        738.1754         51.0004         48.2004
  20764007.5694   20764007.7724   20764011.9154  -22186807.91848 -17268714.72047
       342.9214        267.2124         50.3004         47.3004
  22292430.1794   22292429.8534   22292433.9034   -6029174.77447  -4684589.18946
      2916.2754       2272.4154         43.9004         41.1004
  22330212.3584   22330211.8364   22330215.8714  -13009556.70347 -10123701.63547
      2958.5014       2305.3224         47.0004         44.2004
  22257047.7934   22257049.1614   22257052.6064  -10783813.92647  -8382285.42347
     -3065.9014      -2389.0074         46.9004         43.9004
 10  1  2  1 40  0.0000000  0  9G17G22G18G28G 9G27G26G12G15
  21931668.0214   21931667.6654   21931670.3794  -15153959.41448 -11794829.16247
         9.6144          7.4904         48.9004         45.9004
  23699024.1244   23699024.0494   23699026.5174   -4124951.09046  -3053326.62746
      -223.0404       -173.8014         40.3004         37.9004
  23512672.8124   23512673.3274   23512676.5184   -3931296.21946  -2840407.31846
     -1935.0854      -1507.8594         40.4004         38.1004
  24554635.4884   24554634.0934   24554634.9854     -11415.01846     28783.70745
     -3163.5554      -2465.1094         36.8004         34.6004
  19785450.9784   19785450.4854   19785454.9964  -27220743.34448 -21198592.49248
       930.5384        725.0934         51.2004         48.4004
  20762079.9534   20762079.5664   20762083.8614  -22196940.32348 -17276610.10047
       332.5624        259.1394         50.3004         47.3004
  22275822.8514   22275822.2244   22275825.9504   -6116447.73547  -4752594.10246
      2901.9524       2261.2604         43.9004         41.2004
  22313349.8034   22313350.5414   22313354.1014  -13098164.61347 -10192746.75147
      2948.6404       2297.6344         47.2004         44.0004
  22274583.1264   22274583.0574   22274586.9834  -10691669.68747  -8310484.69347
     -3077.0174      -2397.6694         47.0004         44.0004
 10  1  2  1 40 30.0000000  0  9G17G22G18G28G 9G27G26G12G15
  21931669.1394   21931668.9004   21931671.6804  -15153948.72848 -11794820.82247
       -10.3404         -8.0564         48.8004         45.4004
  23700353.0184   23700350.9724   23700350.3134   -4117985.52846  -3047898.96746
      -241.3504       -188.0704         40.4004         37.9004
  23523761.3434   23523759.9854   23523763.2364   -3873037.54646  -2795010.97546
     -1948.9024      -1518.6214         40.4004         37.8004
  24572697.4264   24572699.3084   24572703.8674      83526.74746    102764.33845
     -3165.9654      -2466.9784         36.4004         34.5004
  19780186.3444   19780186.2044   19780190.4194  -27248407.69648 -21220149.12248
       913.7474        712.0104         51.2004         48.2004
  20760210.7314   20760210.6284   20760214.7934  -22206762.33848 -17284263.61547
       322.2164        251.0754         50.3004         47.3004
  22259296.7924   22259297.1894   22259301.0734   -6203288.79647  -4820262.45646
      2887.4644       2249.9484         44.2004         41.6004
  22296547.5044   22296546.3464   22296549.1744  -13186475.65747 -10261560.53347
      2938.7494       2289.9304         47.2004         44.4004
  22292178.9914   22292181.0484   22292184.6914  -10599192.33447  -8238424.43747
     -3088.1274      -2406.3304         46.7004         43.7004
 10  1  2  1 41  0.0000000  0  9G17G22G18G28G 9G27G26G12G15
  21931784.8794   21931785.1274   21931788.3204  -15153339.00248 -11794345.69747
       -30.3194        -23.6324         48.6004         45.8004
  23701776.9744   23701778.2984   23701781.5694   -4110471.76146  -3042044.02846
      -259.5434       -202.2424         40.1004         37.6004
  23534924.5224   23534923.0214   23534927.2374   -3814365.66746  -2749292.62346
     -1962.5914      -1529.3024         39.9004         37.3004
  24590778.7224   24590779.0354   24590785.5324     178541.70246    176801.92845
     -3168.4544      -2468.9304         36.3004         34.3004
  19775018.1844   19775017.7364   19775021.7364  -27275567.48448 -21241312.59148
       896.8954        698.8814         51.2004         48.2004
  20758401.1744   20758400.8574   20758404.8264  -22216273.24648 -17291674.71247
       311.8264        242.9794         50.3004         47.3004
  22242852.8724   22242852.6214   22242857.9124   -6289695.20447  -4887592.10146
      2872.9454       2238.6834         44.2004         41.2004
  22279797.2084   22279797.5194   22279800.5694  -13274488.46947 -10330141.93247
      2928.7854       2282.1664         47.2004         44.2004
  22309842.4354   22309842.5854   22309845.2254  -10506384.19747  -8166106.42047
     -3099.1034      -2414.8794         46.9004         43.7004
 10  1  2  1 41 30.0000000  0  9G17G22G18G28G 9G27G26G12G15
  21932016.2164   21932015.9734   21932018.1344  -15152130.19848 -11793403.74847
       -50.2644        -39.1654         48.9004         46.1004
  23703313.7474   23703313.9114   23703314.8994   -4102409.92646  -3035762.14446
      -277.8554       -216.5134         39.7004         37.1004
  23546165.2904   23546166.0874   23546170.4054   -3755283.15146  -2703254.34246
     -1976.1994      -1539.8914         39.6004         37.1004
  24608875.2464   24608874.3874   24608877.7524     273628.46246    250895.50545
     -3170.8484      -2470.7884         36.1004         34.1004
  19769945.7274   19769945.4894   19769949.9184  -27302221.71848 -21262082.12148
       880.0384        685.7494         51.2004         48.2004
  20756650.4494   20756650.2534   20756654.5524  -22225472.50648 -17298842.96747
       301.4354        234.8844         50.3004         47.5004
  22226495.0824   22226494.6534   22226498.4174   -6375663.75847  -4954580.60246
      2858.3144       2227.2724         44.1004         41.1004
  22263105.2044   22263106.0064   22263108.8434  -13362201.81347 -10398489.99347
      2918.7434       2274.3504         47.2004         44.0004
  22327565.0714   22327565.2034   22327568.6584  -10413247.85347  -8093532.64247
     -3110.0074      -2423.3834         46.7004         43.7004
 10  1  2  1 42  0.0000000  0  9G17G22G18G28G 9G27G26G12G15
  21932358.8274   21932359.2364   21932362.4714  -15150322.41748 -11791995.08247
       -70.2514        -54.7434         48.9004         45.9004
  23704949.0914   23704950.6434   23704952.6134   -4093800.68946  -3029053.61746
      -296.0614       -230.6964         38.9004         36.0004
  23557488.9094   23557488.2164   23557492.2114   -3695792.38946  -2656897.92946
     -1989.8164      -1550.5004         39.9004         37.6004
  24626981.7804   24626981.3114   24626983.7334     368785.48645    325043.81745
     -3173.1344      -2472.5824         35.6004         33.8004
  19764969.9184   19764970.1744   19764974.2854  -27328369.17848 -21282456.77348
       863.1244        672.5614         51.2004         48.4004
  20754959.2554   20754959.0704   20754963.4624  -22234359.54548 -17305767.92847
       291.0074        226.7614         50.3004         47.5004
  22210218.1224   22210218.4974   22210223.3134   -6461191.43947  -5021225.55146
      2843.5554       2215.7514         43.9004         40.9004
  22246472.2674   22246471.4324   22246475.3674  -13449614.14047 -10466603.46547
      2908.6834       2266.5054         47.2004         44.0004
  22345350.4774   22345351.0904   22345354.4374  -10319784.75347  -8020704.26047
     -3120.8744      -2431.8454         46.5004         43.7004
 10  1  2  1 42 30.0000000  0  9G17G22G18G28G 9G27G26G12G15
  21932816.5974   21932817.2514   21932819.9684  -15147915.77548 -11790119.76747
       -90.1804        -70.2684         48.8004         45.6004
  23706694.7224   23706694.0334   23706695.9994   -4084645.08046  -3021919.37146
      -314.3034       -244.9094         38.9004         36.9004
  23568887.6324   23568885.3564   23568888.7354   -3635895.62546  -2610225.15246
     -2003.3524      -1561.0564         40.1004         37.6004
  24645102.8574   24645102.6094   24645105.3324     464011.26945    399245.67345
     -3175.5904      -2474.4824         35.4004         33.4004
  19760091.5454   19760091.1824   19760094.7614  -27354008.80948 -21302435.70748
       846.1754        659.3544         51.2004         48.4004
  20753327.4824   20753327.4144   20753331.3334  -22242933.68048 -17312449.06747
       280.5894        218.6404         50.3004         47.3004
  22194028.7734   22194027.8804   22194032.2524   -6546275.72347  -5087524.99946
      2828.7704       2204.2404         43.7004         40.9004
  22229895.5344   22229895.3544   22229899.1604  -13536724.15847 -10534481.38547
      2898.6134       2258.6514         47.2004         44.4004
  22363198.9494   22363198.5264   22363201.6894  -10225997.38547  -7947623.18747
     -3131.6304      -2440.2244         46.7004         43.9004
 10  1  2  1 43  0.0000000  0  9G17G22G18G28G 9G27G26G12G15
  21933388.8054   21933388.7014   21933392.0704  -15144910.65248 -11787778.07447
      -110.1514        -85.8354         48.8004         45.8004
  23708542.3454   23708540.0354   23708541.4524   -4074943.83146  -3014359.98146
      -332.4704       -259.0604         39.0004         36.7004
  23580361.9004   23580359.3654   23580365.3184   -3575595.34746  -2563237.93646
     -2016.7634      -1571.4984         40.3004         37.6004
  24663237.2364   24663235.4164   24663239.5974     559304.26645    473499.94545
     -3177.4494      -2475.9314         35.2004         33.6004
  19755308.8444   19755308.9104   19755312.6054  -27379139.56848 -21322018.11948
       829.1884        646.1214         51.2004         48.2004
  20751756.1914   20751755.7124   20751759.2764  -22251194.32248 -17318885.93947
       270.1244        210.4864         50.2004         47.3004
  22177922.5674   22177922.2584   22177926.1494   -6630913.64647  -5153476.62246
      2813.8004       2192.5784         43.9004         41.1004
  22213377.7044   22213377.2684   22213380.7044  -13623530.77847 -10602122.89647
      2888.5114       2250.7894         47.5004         44.7004
  22381106.0624   22381106.3414   22381110.3024  -10131888.16047  -7874291.33047
     -3142.3234      -2448.5674         46.7004         43.7004
 10  1  2  1 43 30.0000000  0  9G17G22G18G28G 9G27G26G12G15
  21934074.7884   21934074.9184   21934078.2014  -15141306.37748 -11784969.53647
      -130.1534       -101.4224         48.8004         45.8004
  23710489.1344   23710490.4434   23710491.8754   -4064697.15946  -3006375.57646
      -350.6104       -273.2024         38.9004         36.6004
  23591912.3674   23591911.2714   23591913.2414   -3514894.34046  -2515938.46746
     -2030.0244      -1581.8324         39.9004         37.3004
  24681382.7254   24681381.3604   24681389.4814     654663.54345    547805.85845
     -3179.7374      -2477.7204         35.4004         33.6004
  19750623.1654   19750623.2054   19750627.4284  -27403760.88148 -21341203.55648
       812.2094        632.8884         51.2004         48.2004
  20750243.8414   20750243.2784   20750247.3564  -22259140.94248 -17325078.11447
       259.6464        202.3234         50.3004         47.5004
  22161901.7144   22161902.3124   22161906.3634   -6715102.31247  -5219078.19446
      2798.7644       2180.8444         44.2004         41.6004
  22196915.6974   22196915.4874   22196919.6694  -13710032.72847 -10669527.00647
      2878.3074       2242.8384         47.5004         44.7004
  22399074.9264   22399075.4114   22399078.2064  -10037459.41547  -7800710.48647
     -3152.9424      -2456.8524         46.5004         43.5004
 10  1  2  1 44  0.0000000  0  9G17G22G18G28G 9G27G26G12G15
  21934874.8164   21934874.4834   21934877.7804  -15137103.19048 -11781694.30547
      -150.0964       -116.9594         48.8004         45.8004
  23712543.6574   23712543.2104   23712544.6644   -4053905.81546  -2997966.73645
      -368.7574       -287.3324         38.0004         35.5004
  23603538.4084   23603539.4824   23603541.9234   -3453795.11246  -2468328.70946
     -2043.2644      -1592.1554         39.9004         37.4004
  24699541.0864   24699543.1804   24699545.6554     750087.37945    622162.08845
     -3182.0814      -2479.5444         35.2004         34.0004
  19746035.8524   19746035.4764   19746039.1944  -27427871.70548 -21359991.21048
       795.1754        619.6174         51.2004         48.4004
  20748791.2254   20748790.8244   20748795.2694  -22266773.11848 -17331025.26247
       249.1604        194.1544         50.3004         47.5004
  22145968.2364   22145967.6824   22145971.8084   -6798839.08447  -5284327.59846
      2783.6664       2169.0854         44.6004         41.9004
  22180513.7254   22180513.4374   22180516.7474  -13796228.47847 -10736692.51447
      2868.0684       2234.8614         47.9004         45.1004
  22417103.8344   22417104.7144   22417108.1574   -9942713.04347  -7726882.15847
     -3163.4854      -2465.0464         46.3004         43.5004
 10  1  2  1 44 30.0000000  0  9G17G22G18G28G 9G27G26G12G15
  21935787.7894   21935788.3484   21935791.7344  -15132301.28248 -11777952.55447
      -170.0194       -132.4764         48.8004         45.8004
  23714696.6684   23714697.9144   23714702.6544   -4042570.71546  -2989134.16645
      -386.8674       -301.4554         37.6004         35.5004
  23615242.0354   23615242.1624   23615244.4534   -3392300.18446  -2420410.58146
     -2056.4214      -1602.4024         40.1004         37.8004
  24717711.9134   24717712.8174   24717718.7274     845574.14845    696567.36245
     -3184.0204      -2481.0594         35.2004         33.6004
  19741544.8694   19741544.5344   19741548.3834  -27451470.81048 -21378380.12348
       778.1024        606.3244         51.2004         48.2004
  20747398.0734   20747398.1714   20747402.5454  -22274090.15548 -17336726.85347
       238.6314        185.9494         50.3004         47.3004
  22130120.1664   22130119.5624   22130122.2834   -6882121.09147  -5349222.66046
      2768.4364       2157.2264         44.4004         41.2004
  22164169.1074   22164169.5794   22164173.5834  -13882116.89847 -10803618.56047
      2857.7954       2226.8534         47.9004         44.9004
  22435193.8154   22435194.6754   22435198.0394   -9847651.48747  -7652808.23747
     -3173.9544      -2473.2174         46.3004         43.5004
 10  1  2  1 45  0.0000000  0  9G17G22G18G28G 9G27G26G12G15
  21936816.0664   21936815.9004   21936819.2344  -15126901.15548 -11773744.65147
      -190.0034       -148.0574         48.8004         45.8004
  23716961.8414   23716960.5224   23716960.5944   -4030692.60746  -2979878.55445
      -405.0104       -315.5884         37.8004         35.9004
  23627016.2334   23627017.3574   23627021.5874   -3330412.45346  -2372186.36546
     -2069.4554      -1612.5604         40.3004         37.6004
  24735897.9874   24735892.0514   24735899.1434     941122.90945    771020.95045
     -3185.8584      -2482.4764         34.7004         32.9004
  19737151.5934   19737151.4674   19737155.3514  -27474557.31148 -21396369.60948
       761.0124        592.9914         51.2004         48.2004
  20746066.4094   20746066.1114   20746070.2204  -22281091.47148 -17342182.42847
       228.0934        177.7324         50.2004         47.3004
  22114358.1584   22114357.5984   22114361.9064   -6964945.34347  -5413761.03846
      2753.1194       2145.2754         44.2004         41.4004
  22147884.8414   22147884.6404   22147888.1714  -13967696.49347 -10870303.94147
      2847.5024       2218.8414         47.9004         44.9004
  22453343.2584   22453344.1374   22453347.4134   -9752277.35647  -7578490.73947
     -3184.3284      -2481.2934         46.3004         43.3004
 10  1  2  1 45 30.0000000  0  9G17G22G18G28G 9G27G26G12G15
  21937957.5864   21937957.8714   21937960.2134  -15120902.90448 -11769070.67747
      -209.9184       -163.5714         48.8004         45.9004
  23719323.8814   23719324.3554   23719326.4884   -4018272.28546  -2970200.39946
      -422.9644       -329.5744         38.3004         36.6004
  23638870.9114   23638868.2414   23638871.5134   -3268133.83646  -2323657.60846
     -2082.4604      -1622.7024         39.7004         36.9004
  24754089.4184   24754088.4754   24754089.8764    1036732.03745    845521.50145
     -3187.9824      -2484.1444         34.5004         33.3004
  19732856.1234   19732856.0554   19732859.8394  -27497130.38548 -21413959.01748
       743.8434        579.6164         51.2004         48.4004
  20744793.9854   20744793.8454   20744798.3034  -22287776.56148 -17347391.59147
       217.5604        169.5314         50.3004         47.3004
  22098685.0754   22098685.3694   22098687.9524   -7047309.07447  -5477940.57846
      2737.7274       2133.2904         44.4004         41.6004
  22131658.7714   22131658.6464   22131660.8614  -14052966.08147 -10936747.76947
      2837.1324       2210.7554         47.7004         44.5004
  22471552.1674   22471552.0754   22471555.8044   -9656592.13947  -7503930.83347
     -3194.7154      -2489.3794         46.3004         43.3004
 10  1  2  1 46  0.0000000  0  9G17G22G18G28G 9G27G26G12G15
  21939212.1354   21939212.2424   21939216.1334  -15114306.48348 -11763930.59747
      -229.8334       -179.0914         48.8004         45.8004
  23721790.8494   23721789.8364   23721792.0694   -4005310.58846  -2960100.40946
      -441.1174       -343.7234         38.7004         36.4004
  23650793.6784   23650793.3224   23650797.3184   -3205467.08546  -2274826.38546
     -2095.3104      -1632.7054         39.6004         37.1004
  24772293.8554   24772296.8224   24772297.9354    1132400.17545    920068.11445
     -3189.9244      -2485.6634         34.3004         33.3004
  19728658.7954   19728658.1854   19728662.4384  -27519188.70148 -21431147.31348
       726.6804        566.2424         51.2004         48.4004
  20743581.6164   20743581.7824   20743586.1554  -22294144.80848 -17352353.86447
       206.9904        161.2914         50.3004         47.3004
  22083099.9214   22083099.4044   22083103.3034   -7129209.57347  -5541759.14246
      2722.2324       2121.2194         44.4004         41.8004
  22115491.5804   22115491.1524   22115493.7704  -14137924.51347 -11002949.11947
      2826.7334       2202.6444         47.5004         44.5004
  22489820.1684   22489819.4234   22489822.0784   -9560598.48447  -7429130.57047
     -3204.9264      -2497.3454         46.3004         43.3004
 10  1  2  1 46 30.0000000  0  9G17G22G18G28G 9G27G26G12G15
  21940581.3114   21940581.5334   21940584.2284  -15107112.22748 -11758324.67647
      -249.7774       -194.6304         48.8004         45.8004
  23724362.6784   23724360.9244   23724361.1234   -3991807.97046  -2949578.85646
      -459.0894       -357.7324         39.0004         36.9004
  23662794.0414   23662792.0314   23662794.6404   -3142414.83546  -2225694.83246
     -2108.1824      -1642.7384         39.4004         36.7004
  24790511.6714   24790512.8294   24790515.0594    1228126.16545    994659.78245
     -3191.9804      -2487.2504         34.2004         33.1004
  19724558.9484   19724558.8664   19724562.7664  -27540731.58548 -21447933.97848
       709.4984        552.8584         51.2004         48.2004
  20742430.1634   20742430.3834   20742435.0214  -22300195.84548 -17357068.95547
       196.4114        153.0514         50.3004         47.3004
  22067603.8544   22067603.7584   22067606.8844   -7210643.98947  -5605214.53147
      2706.6434       2109.0754         44.8004         42.3004
  22099382.7564   22099383.2684   22099386.9814  -14222570.33447 -11068906.88247
      2816.3054       2194.5204         47.7004         44.5004
  22508143.7824   22508144.2054   22508148.1154   -9464298.72047  -7354091.79747
     -3215.0674      -2505.2424         46.3004         43.2004
 10  1  2  1 47  0.0000000  0  9G17G22G18G28G 9G27G26G12G15
  21942064.7314   21942064.3734   21942067.5114  -15099320.61548 -11752253.27447
      -269.7184       -210.1734         48.9004         45.9004
  23727033.1064   23727032.2124   23727033.6474   -3977765.80446  -2938636.94846
      -477.0604       -371.7354         39.2004         36.7004
  23674865.1264   23674864.8084   23674867.2684   -3078980.25746  -2176265.31446
     -2120.8064      -1652.5734         39.2004         36.4004
  24808737.6594   24808737.1844   24808737.7284    1323908.48745   1069295.25345
     -3193.6794      -2488.5764         34.2004         33.1004
  19720556.9124   19720557.3714   19720561.1704  -27561758.03748 -21464318.23248
       692.2604        539.4224         51.2004         48.2004
  20741340.4904   20741339.8314   20741343.8204  -22305929.00148 -17361536.35747
       185.8084        144.7884         50.3004         47.5004
  22052197.1164   22052196.2654   22052199.7884   -7291609.44147  -5668304.50547
      2691.0074       2096.8894         45.1004         42.3004
  22083336.1024   22083336.0374   22083338.3664  -14306902.37847 -11134620.13547
      2805.8254       2186.3634         47.5004         44.7004
  22526528.4074   22526527.9334   22526531.5754   -9367695.06547  -7278816.22347
     -3225.1654      -2513.1164         46.3004         43.3004
 10  1  2  1 47 30.0000000  0  9G17G22G18G28G 9G27G26G12G15
  21943660.5384   21943660.5654   21943663.2524  -15090931.77848 -11745716.51647
      -289.6234       -225.6784         48.8004         45.8004
  23729807.4614   23729808.0214   23729807.4574   -3963184.96046  -2927275.24746
      -494.9604       -385.6844         39.6004         37.3004
  23687008.0474   23687008.6424   23687011.5974   -3015165.18846  -2126539.31646
     -2133.4424      -1662.4254         38.7004         36.4004
  24826974.5744   24826974.5584   24826976.1744    1419745.16245   1143973.16545
     -3195.4764      -2489.9854         34.0004         32.6004
  19716655.0614   19716654.8244   19716658.5704  -27582267.47248 -21480299.61348
       675.0274        525.9904         51.2004         48.4004
  20740308.9154   20740308.9464   20740313.3484  -22311343.79448 -17365755.68147
       175.1804        136.5034         50.3004         47.3004
  22036879.8994   22036879.0184   22036882.4544   -7372103.14247  -5731026.85747
      2675.2334       2084.5974         45.3004         42.5004
  22067348.7374   22067347.5524   22067350.8994  -14390919.51147 -11200088.00747
      2795.2894       2178.1424         47.5004         44.7004
  22544967.7534   22544967.9374   22544970.7864   -9270789.96147  -7203305.73847
     -3235.1514      -2520.8914         46.2004         43.0004
 10  1  2  1 48  0.0000000  0  9G17G22G18G28G 9G27G26G12G15
  21945371.0714   21945371.3334   21945372.6874  -15081946.11748 -11738714.69747
      -309.4874       -241.1564         48.6004         45.6004
  23732685.0124   23732683.1614   23732685.4574   -3948066.24046  -2915494.45246
      -512.9314       -399.6884         39.9004         37.4004
  23699223.0494   23699222.7454   23699226.1064   -2950972.31246  -2076518.89546
     -2146.0474      -1672.2454         38.9004         36.7004
  24845219.4264   24845218.6444   24845224.0534    1515635.41945   1218692.90445
     -3197.2974      -2491.4104         33.8004         32.6004
  19712851.0064   19712850.5164   19712854.2314  -27602258.68148 -21495877.18448
       657.7274        512.5124         51.4004         48.4004
  20739339.3794   20739339.3404   20739343.7984  -22316439.62248 -17369726.45847
       164.5394        128.2104         50.3004         47.3004
  22021651.0804   22021651.8354   22021655.1644   -7452122.57447  -5793379.66447
      2659.4124       2072.2684         45.3004         42.5004
  22051420.9724   22051419.7464   22051423.3104  -14474620.25647 -11265309.35747
      2784.7344       2169.9224         47.7004         44.5004
  22563465.0764   22563465.5614   22563467.9804   -9173585.76947  -7127562.23047
     -3245.1094      -2528.6634         46.0004         42.8004
 10  1  2  1 48 30.0000000  0  9G17G22G18G28G 9G27G26G12G15
  21947194.3194   21947194.1284   21947197.0404  -15072363.82148 -11731247.93947
      -329.3724       -256.6514         48.8004         45.8004
  23735663.8614   23735663.2884   23735664.6544   -3932410.48546  -2903295.16146
      -530.7584       -413.5794         40.1004         37.6004
  23711510.3184   23711509.4164   23711513.7284   -2886404.52046  -2026206.34646
     -2158.4884      -1681.9354         39.2004         36.7004
  24863478.9544   24863478.1824   24863482.5994    1611577.67045   1293453.05545
     -3198.9114      -2492.6604         33.7004         32.6004
  19709145.4614   19709145.2374   19709149.1124  -27621730.64548 -21511050.14848
       640.4014        499.0144         51.4004         48.4004
  20738431.0164   20738430.5424   20738435.1734  -22321216.08548 -17373448.38147
       153.8884        119.9144         50.3004         47.5004
  22006513.8704   22006514.7684   22006519.6214   -7531664.89947  -5855360.68447
      2643.4224       2059.7954         45.3004         42.3004
  22035552.1124   22035552.2754   22035555.8944  -14558003.69447 -11330283.44547
      2774.1184       2161.6564         47.7004         44.9004
  22582018.8674   22582019.2694   22582022.9274   -9076084.72947  -7051587.38947
     -3254.9584      -2536.3304         46.0004         43.2004
 10  1  2  1 49  0.0000000  0  9G17G22G18G28G 9G27G26G12G15
  21949130.6924   21949130.8064   21949134.5264  -15062185.18548 -11723316.53747
      -349.2254       -272.1234         48.8004         45.9004
  23738744.8944   23738742.8874   23738745.5264   -3916218.96446  -2890678.39946
      -548.6254       -427.5054         40.3004         37.8004
  23723867.9734   23723867.1584   23723871.4344   -2821464.55146  -1975603.79946
     -2170.9044      -1691.6084         39.4004         36.9004
  24881750.0154   24881745.6874   24881747.8804    1707570.73845   1368252.77145
     -3200.6054      -2493.9844         33.1004         32.4004
  19705539.2114   19705538.8624   19705542.7004  -27640682.92148 -21525818.15748
       623.0704        485.5084         51.4004         48.4004
  20737583.2814   20737582.5444   20737586.9184  -22325672.51448 -17376920.92347
       143.1854        111.5754         50.3004         47.5004
  21991470.2894   21991470.8584   21991474.5154   -7610727.01747  -5916967.52947
      2627.4294       2047.3454         45.5004         42.5004
  22019746.0494   22019746.0044   22019748.6414  -14641068.63747 -11395009.35447
      2763.5074       2153.3864         47.9004         44.9004
  22600628.6044   22600628.9154   22600632.5944   -8978289.32547  -6975383.17647
     -3264.7054      -2543.9414         45.8004         42.8004
 10  1  2  1 49 30.0000000  0  9G17G22G18G28G 9G27G26G12G15
  21951181.7854   21951181.7204   21951185.2814  -15051410.70448 -11714920.82747
      -369.1044       -287.6134         48.9004         46.1004
  23741928.4944   23741927.8624   23741929.3584   -3899492.31946  -2877644.68146
      -566.4904       -441.4244         40.9004         38.6004
  23736294.6984   23736294.9724   23736299.0024   -2756154.82446  -1924713.16046
     -2183.1434      -1701.1554         39.2004         36.9004
  24900020.2974   24900024.4554                    1803613.06945   1443090.95145
     -3202.2684      -2495.2734         32.8004         32.0004
  19702031.5444   19702031.5394   19702035.2364  -27659114.48848 -21540180.42148
       605.6904        471.9654         51.4004         48.5004
  20736795.4904   20736795.5124   20736799.8244  -22329808.18348 -17380143.52547
       132.5054        103.2494         50.3004         47.5004
  21976517.1964   21976516.6064   21976520.1844   -7689306.46247  -5978198.26947
      2611.2654       2034.7544         45.5004         42.5004
  22004000.3664   22004000.5464   22004003.2574  -14723813.55747 -11459485.90147
      2752.7994       2145.0384         47.7004         44.7004
  22619294.8854   22619295.0834   22619297.6324   -8880201.33747  -6898950.98947
     -3274.4504      -2551.5194         45.8004         43.0004
 10  1  2  1 50  0.0000000  0  9G17G22G18G28G 9G27G26G12G15
  21953344.3894   21953344.5504   21953348.2364  -15040040.55648 -11706060.96847
      -388.9114       -303.0464         48.9004         45.8004
  23745210.7414   23745210.9324   23745214.1424   -3882231.42346  -2864194.60346
      -584.2434       -455.2524         41.1004         38.6004
  23748795.5304   23748794.4404   23748796.5374   -2690478.23646  -1873536.61646
     -2195.3414      -1710.6504         39.4004         37.1004
  24918306.1114   24918303.6234                    1899703.48845   1517966.61245
     -3203.8494      -2496.5074         32.4004         32.0004
  19698623.1604   19698623.2654   19698627.0344  -27677024.44948 -21554136.23848
       588.2934        458.4134         51.4004         48.5004
  20736069.5584   20736069.4934   20736073.9954  -22333622.78248 -17383115.93947
       121.7964         94.9074         50.3004         47.5004
  21961655.7494   21961655.7674   21961659.6944   -7767400.40247  -6039050.69247
      2595.0074       2022.0844         45.3004         42.3004
  21988315.1764   21988315.3364   21988317.9994  -14806237.53047 -11523712.33547
      2742.0784       2136.6734         47.7004         44.7004
  22638016.0894   22638015.9054   22638019.4444   -8781823.25047  -6822292.74747
     -3284.0554      -2558.9904         46.0004         43.2004
 10  1  2  1 50 30.0000000  0  9G17G22G18G28G 9G27G26G12G15
  21955621.5974   21955621.8764   21955624.8424  -15028075.45448 -11696737.50547
      -408.7644       -318.5214         48.8004         45.8004
  23748597.8374   23748597.2624   23748600.7034   -3864437.45946  -2850329.22646
      -602.0154       -469.1004         41.3004         38.6004
  23761361.2084   23761360.3364   23761362.8614   -2624437.27546  -1822076.17046
     -2207.4384      -1720.0744         39.0004         36.2004
  24936604.4344   24936603.6794   24936603.1554    1995840.66345   1592878.71845
     -3205.3744      -2497.6944         33.0004         32.0004
  19695314.0704   19695314.4374   19695318.3404  -27694411.95248 -21567684.94248
       570.8484        444.8134         51.4004         48.5004
  20735404.8894   20735404.5824   20735409.6114  -22337115.66648 -17385837.66647
       111.0674         86.5444         50.5004         47.7004
  21946888.9194   21946887.8004   21946892.3814   -7845006.15647  -6099522.70747
      2578.7454       2009.4184         45.1004         42.3004
  21972691.3544   21972691.5664   21972694.3154  -14888339.18247 -11587687.62947
      2731.3364       2128.3054         47.7004         44.7004
  22656790.1234   22656791.0704   22656793.9484   -8683157.65847  -6745410.45747
     -3293.6494      -2566.4844         45.8004         42.8004
 10  1  2  1 51  0.0000000  0  9G17G22G18G28G 9G27G26G12G15
  21958011.6764   21958012.1434   21958014.7784  -15015515.89948 -11686950.82347
      -428.5644       -333.9524         48.8004         45.9004
  23752084.8974   23752084.9794   23752085.2994   -3846111.55346  -2836049.29246
      -619.7774       -482.9424         40.3004         37.3004
  23773997.2394   23773998.0194   23773997.3814   -2558034.47746  -1770333.77846
     -2219.4554      -1729.4444         38.7004         36.4004
  24954907.8084   24954903.1644   24954910.4484    2092023.42945   1667826.25545
     -3206.8204      -2498.8084         32.8004         32.0004
  19692106.1854   19692105.4794   19692109.4114  -27711276.16748 -21580825.88648
       553.4104        431.2284         51.4004         48.5004
  20734802.5764   20734801.9424   20734805.8544  -22340286.31348 -17388308.30047
       100.3064         78.1604         50.5004         47.7004
  21932213.9524   21932213.3044   21932217.3014   -7922120.92647  -6159612.13347
      2562.2594       1996.5574         45.1004         42.3004
  21957129.1314   21957129.9654   21957131.9614  -14970117.38547 -11651410.88047
      2720.5194       2119.8784         47.5004         44.5004
  22675618.7594   22675619.5784   22675623.4794   -8584206.53047  -6668305.68847
     -3303.1264      -2573.8624         45.3004         42.3004
 10  1  2  1 51 30.0000000  0  9G17G22G18G28G 9G27G26G12G15
  21960514.9144   21960515.1724   21960517.8304  -15002362.03448 -11676701.05447
      -448.3334       -349.3534         48.9004         45.8004
  23755671.7344   23755672.2904   23755674.5114   -3827254.27946  -2821355.29946
      -637.3654       -496.6514         39.6004         36.9004
  23786700.8464   23786701.0824   23786703.8334   -2491272.67046  -1718311.61845
     -2231.3424      -1738.7024         38.2004         35.9004
  24973216.6644   24973210.4924   24973224.0304    2188250.48945   1742808.33045
     -3208.2234      -2499.9164         32.8004         32.0004
  19688996.9604   19688996.1894   19688999.8254  -27727616.23848 -21593558.41148
       535.9294        417.6104         51.4004         48.5004
  20734260.0074   20734259.8714   20734263.8594  -22343134.22948 -17390527.45347
        89.5484         69.7794         50.5004         47.5004
  21917632.3704   21917632.6004   21917637.0714   -7998741.93047  -6219316.80547
      2545.7604       1983.7034         45.1004         42.3004
  21941629.9854   21941629.9694   21941632.3604  -15051570.53747 -11714880.85847
      2709.6694       2111.4274         47.7004         44.9004
  22694503.2914   22694503.6264   22694507.3234   -8484972.38147  -6590980.38447
     -3312.4974      -2581.1654         45.3004         42.5004
 10  1  2  1 52  0.0000000  0  9G17G22G18G28G 9G27G26G12G15
  21963130.8474   21963130.8254   21963134.6444  -14988614.71648 -11665988.84747
      -468.1174       -364.7684         48.9004         45.9004
  23759362.5354   23759362.0444   23759364.6014   -3807867.51246  -2806248.76646
      -655.0074       -510.3984         39.6004         37.1004
  23799473.2354   23799472.2434   23799475.7814   -2424154.96346  -1666012.14446
     -2243.2064      -1747.9494         38.2004         36.0004
  24991534.1014   24991535.2314   24991538.2464    2284520.04545   1817823.52045
     -3209.7004      -2501.0724         32.8004         32.2004
  19685986.4344   19685986.5054   19685990.1984  -27743431.19048 -21605881.74948
       518.3974        403.9434         51.4004         48.4004
  20733779.7094   20733779.5544   20733783.7194  -22345658.83648 -17392494.68247
        78.7524         61.3614         50.5004         47.5004
  21903146.5804   21903147.3434   21903151.3154   -8074866.44747  -6278634.59947
      2529.1954       1970.7984         45.5004         42.6004
  21926191.4774   21926191.5654   21926194.8774  -15132697.89747 -11778096.95747
      2698.7934       2102.9494         47.9004         45.1004
  22713440.5824   22713440.6204   22713444.4114   -8385457.41347  -6513436.24147
     -3321.8114      -2588.4164         45.5004         42.6004
 10  1  2  1 52 30.0000000  0  9G17G22G18G28G 9G27G26G12G15
  21965859.6164   21965859.7914   21965863.2184  -14974274.29248 -11654814.48947
      -487.9224       -380.2034         48.9004         45.9004
  23763154.6614   23763154.2624   23763155.3084   -3787951.81846  -2790730.04846
      -672.6904       -524.1734         40.1004         37.9004
  23812314.1124   23812312.6214   23812314.7124   -2356683.63446  -1613437.13246
     -2255.0134      -1757.1554         38.7004         36.6004
  25009867.9074   25009861.9744   25009869.3754    2380830.98045   1892870.99945
     -3211.1364      -2502.1804         32.8004         32.2004
  19683077.1334   19683077.1214   19683081.2004  -27758720.54648 -21617795.53248
       500.8824        390.3014         51.4004         48.5004
  20733360.9114   20733360.6764   20733364.9074  -22347859.43548 -17394209.43847
        67.9374         52.9434         50.5004         47.7004
  21888756.0424   21888756.8724   21888760.4094   -8150491.81147  -6337563.43847
      2512.5234       1957.8264         45.8004         43.0004
  21910815.7594   21910815.9524   21910818.9904  -15213498.23248 -11841058.23847
      2687.8574       2094.4404         48.1004         45.2004
  22732428.9914   22732430.5504   22732434.0974   -8285664.35847  -6435675.42947
     -3331.0614      -2595.6474         45.3004         42.3004
 10  1  2  1 53  0.0000000  0  9G17G22G18G28G 9G27G26G12G15
  21968701.1334   21968701.3864   21968704.7694  -14959341.59248 -11643178.60547
      -507.6294       -395.5554         48.8004         45.8004
  23767042.0694   23767043.3114   23767044.9274   -3767508.38846  -2774800.10146
      -690.2424       -537.8504         39.7004         37.1004
  23825219.0324   23825218.4064   23825222.3624   -2288861.40746  -1560588.64046
     -2266.6214      -1766.1984         38.9004         36.6004
  25028200.1104   25028197.0324                    2477181.87645   1967949.61845
     -3212.4134      -2503.1764         32.1004         31.2004
  19680268.4464   19680267.8054   19680271.7094  -27773483.45548 -21629299.10048
       483.3144        376.6054         51.4004         48.5004
  20733003.7644   20733003.6904   20733007.9184  -22349735.55448 -17395671.34847
        57.1114         44.5014         50.5004         47.7004
  21874460.9134   21874461.4664   21874464.7424   -8225615.37347  -6396101.29247
      2495.7424       1944.7284         46.0004         43.2004
  21895501.8504   21895501.8944   21895505.0854  -15293970.33748 -11903763.75547
      2676.9074       2085.8984         48.1004         44.9004
  22751473.1944   22751473.9594   22751477.8224   -8185595.28447  -6357699.53547
     -3340.2054      -2602.7594         45.5004         42.8004
 10  1  2  1 53 30.0000000  0  9G17G22G18G28G 9G27G26G12G15
  21971655.9674   21971656.0254   21971659.2154  -14943816.45648 -11631081.08447
      -527.3954       -410.9544         48.8004         45.8004
  23771033.4354   23771032.6264   23771035.1774   -3746538.52246  -2758459.97245
      -707.7484       -551.4894         38.9004         35.9004
  23838192.6724   23838191.3204   23838194.5414   -2220691.04946  -1507468.91846
     -2278.1174      -1775.1594         39.2004         36.9004
  25046537.3104                                    2573571.86255   2043058.70255
     -3213.4814      -2504.0244         31.6004         31.2004
  19677558.9584   19677558.9274   19677562.6694  -27787718.74948 -21640391.53248
       465.6994        362.8854         51.4004         48.5004
  20732709.0734   20732708.6164   20732712.6694  -22351286.68948 -17396880.02547
        46.2824         36.0674         50.5004         47.5004
  21860259.9654   21860260.4844   21860264.2824   -8300234.53147  -6454246.09247
      2478.8914       1931.6034         45.8004         42.8004
  21880251.6364   21880251.9094   21880254.6804  -15374113.35648 -11966212.85247
      2665.9104       2077.3404         48.1004         45.1004
  22770568.7844   22770567.7174   22770571.3224   -8085252.48747  -6279510.34847
     -3349.2744      -2609.8134         45.5004         42.3004
 10  1  2  1 54  0.0000000  0  9G17G22G18G28G 9G27G26G12G15
  21974721.9664   21974722.4034   21974725.5044  -14927700.03748 -11618522.82647
      -547.0534       -426.2784         48.8004         45.8004
  23775121.3114   23775122.4294   23775124.8224   -3725043.41846  -2741710.54445
      -725.2764       -565.1474         38.0004         35.5004
  23851230.0744   23851229.8534   23851231.3684   -2152175.19846  -1454079.98346
     -2289.5784      -1784.0784         38.9004         36.2004
  25064898.1434   25064889.6544                    2669999.34345   2118196.95645
     -3214.9984      -2505.1944         31.4004         31.3004
  19674950.4934   19674950.4154   19674954.4774  -27801425.95048 -21651072.47048
       448.0854        349.1594         51.4004         48.5004
  20732475.3424   20732475.4504   20732479.4944  -22352512.42548 -17397835.14847
        35.4124         27.5934         50.5004         47.7004
  21846158.1014   21846158.2124   21846161.9844   -8374346.42747  -6511995.60947
      2461.8984       1918.3494         46.0004         43.0004
  21865065.0394   21865064.2624   21865066.9684  -15453925.79848 -12028404.34247
      2654.8994       2068.7604         48.2004         45.2004
  22789713.8794   22789714.7644   22789717.9614   -7984638.98247  -6201110.22347
     -3358.2524      -2616.8364         45.5004         42.6004
 10  1  2  1 54 30.0000000  0  9G17G22G18G28G 9G27G26G12G15
  21977902.0424   21977901.6944   21977904.8504  -14910992.92648 -11605504.29347
      -566.7404       -441.6234         48.8004         45.8004
  23779311.6484   23779311.8844   23779316.3224   -3703024.05746  -2724552.60245
      -742.7004       -578.7184         37.1004         34.6004
  23864333.7974   23864333.9704   23864335.4684   -2083317.00546  -1400424.25645
     -2300.9764      -1792.9754         38.2004         35.7004
  25083252.6534                                    2766462.75154     10674.45653
     -3215.8814      -2505.8714         26.4004         23.4004
  19672442.5494   19672442.6364   19672446.7384  -27814604.35848 -21661341.36448
       430.4534        335.4174         51.4004         48.4004
  20732304.4984   20732304.2714   20732307.9054  -22353412.27148 -17398536.32247
        24.5504         19.1264         50.5004         47.5004
  21832153.1164   21832152.8794   21832155.1584   -8447948.48047  -6569347.85347
      2444.8464       1905.0684         46.2004         43.3004
  21849939.9304   21849939.7214   21849942.5504  -15533406.54448 -12090337.36847
      2643.7974       2060.0914         48.2004         45.4004
  22808910.6664   22808911.6174   22808915.5824   -7883756.42747  -6122500.43847
     -3367.2184      -2623.8044         45.5004         42.5004
 10  1  2  1 55  0.0000000  0  9G17G22G18G28G 9G27G26G12G15
  21981193.5434   21981193.8634   21981195.6634  -14893695.51648 -11592025.79947
      -586.4034       -456.9424         48.8004         45.6004
  23783603.6414   23783603.2734   23783604.6694   -3680481.71546  -2706987.11445
      -760.1464       -592.3414         36.4004         34.5004
  23877500.9724   23877499.1594   23877505.2694   -2014118.45246  -1346503.35945
     -2312.2544      -1801.7594         38.0004         35.9004
  25101607.7534                                    2862961.42944     85848.80944
     -3217.0924      -2504.6784         26.4004         28.0004
  19670035.9854   19670035.7644   19670039.5674  -27827253.07448 -21671197.49748
       412.7934        321.6534         51.4004         48.5004
  20732195.0064   20732194.8354   20732198.8814  -22353985.56948 -17398983.05647
        13.6654         10.6464         50.5004         47.5004
  21818243.6534   21818243.8464   21818246.6984   -8521038.01747  -6626300.72147
      2427.7654       1891.7774         46.0004         43.0004
  21834878.2434   21834877.5944   21834881.0064  -15612554.42848 -12152011.02147
      2632.7034       2051.4514         48.2004         45.1004
  22828160.2514   22828159.8574   22828163.1254   -7782606.99847  -6043682.71647
     -3376.0474      -2630.6844         45.5004         42.6004
 10  1  2  1 55 30.0000000  0  9G17G22G18G28G 9G27G26G12G15
  21984597.6114   21984597.0934   21984599.4634  -14875808.43848 -11578087.79247
      -606.0384       -472.2414         48.6004         45.4004
  23787990.3674   23787991.2684   23787993.6804   -3657417.49845  -2689015.03745
      -777.5134       -605.8644         35.4004         33.4004
  23890734.6194   23890735.9764   23890736.9404   -1944583.25246  -1292320.10345
     -2323.4854      -1810.5064         38.2004         35.9004
  25119981.4044                                    2959493.86254    161004.27754
     -3218.2064      -2505.5344         26.4004         29.8004
  19667730.6144   19667729.7714   19667733.5294  -27839371.56948 -21680640.49048
       395.0814        307.8514         51.5004         48.5004
  20732147.9124   20732147.9504   20732152.2224  -22354231.73948 -17399174.88447
         2.7524          2.1384         50.5004         47.5004
  21804433.0614   21804432.3624   21804436.6424   -8593612.32447  -6682852.12847
      2410.5234       1878.3324         45.8004         42.6004
  21819879.8454   21819879.7344   21819883.4794  -15691368.26848 -12213424.38547
      2621.5234       2042.7404         48.2004         45.2004
  22847457.3554   22847458.6074   22847461.6914   -7681193.42547  -5964659.14947
     -3384.8254      -2637.5294         45.5004         42.5004
 10  1  2  1 56  0.0000000  0  8G17G22G18G 9G27G26G12G15
  21988112.5854   21988113.2914   21988115.8084  -14857332.50948 -11563690.95947
      -625.6694       -487.5334         48.6004         45.8004
  23792480.0484   23792482.7744   23792481.6014   -3633832.60245  -2670637.14345
      -794.8704       -619.3814         35.9004         34.6004
  23904028.2254   23904028.0034   23904030.3144   -1874713.61446  -1237876.28145
     -2334.4744      -1819.0704         38.0004         35.5004
  19665524.0034   19665524.4154   19665528.5354  -27850959.13148 -21689669.75948
       377.3714        294.0544         51.5004         48.5004
  20732163.6124   20732163.5754   20732167.7684  -22354150.36848 -17399111.48447
        -8.1854         -6.3814         50.5004         47.5004
  21790721.3414   21790721.6884   21790724.4414   -8665668.85647  -6739000.07247
      2393.2454       1864.8744         45.8004         43.0004
  21804947.1274   21804946.1364   21804948.8494  -15769847.02348 -12274576.63747
      2610.3454       2034.0464         48.2004         45.1004
  22866805.6154   22866806.0574   22866810.1074   -7579517.92647  -5885431.47547
     -3393.5404      -2644.2984         45.3004         42.3004
 10  1  2  1 56 30.0000000  0  8G17G22G18G 9G27G26G12G15
  21991741.0854   21991740.7004   21991744.0484  -14838268.43448 -11548835.83247
      -645.2704       -502.8104         48.8004         45.6004
  23797069.0044   23797067.3684   23797067.1604   -3609728.47246  -2651854.75845
      -812.0624       -632.7724         36.4004         34.6004
  23917387.2284   23917388.1084   23917389.6154   -1804512.17146  -1183173.87545
     -2345.5424      -1827.6984         37.8004         35.7004
  19663420.9404   19663420.5654   19663424.8084  -27862014.88648 -21698284.63248
       359.6344        280.2294         51.5004         48.5004
  20732242.1154   20732241.6704   20732245.6134  -22353740.95048 -17398792.46447
       -19.1304        -14.9084         50.5004         47.7004
  21777108.8674   21777108.9704   21777111.7744   -8737205.05647  -6794742.57047
      2375.8934       1851.3374         46.0004         43.0004
  21790075.9174   21790076.1564   21790079.2944  -15847989.43248 -12335466.81247
      2599.1354       2025.2964         48.2004         45.1004
  22886203.1474   22886203.6554   22886207.5534   -7477582.98047  -5806001.66147
     -3402.1624      -2651.0324         45.3004         42.3004
 10  1  2  1 57  0.0000000  0  9G17G14G22G18G 9G27G26G12G15
  21995480.0244   21995480.4844   21995482.8694  -14818616.71148 -11533522.80247
      -664.8374       -518.0634         48.6004         45.6004
  24522073.2404                                    -304209.62544   -199375.49044
      3441.0794       2677.7244         26.4004         29.8004
  23801754.7034   23801754.4904   23801756.5694   -3585106.51146  -2632668.83445
      -829.4374       -646.3134         36.6004         35.2004
  23930809.3874   23930810.0654   23930813.2664   -1733982.16146  -1128215.44346
     -2356.4434      -1836.1904         38.2004         36.0004
  19661418.4114   19661418.2394   19661421.9754  -27872538.17848 -21706484.60248
       341.8894        266.4034         51.5004         48.5004
  20732382.1314   20732381.8364   20732386.3184  -22353002.83848 -17398217.31347
       -30.1024        -23.4574         50.5004         47.5004
  21763594.5654   21763594.9534   21763598.6394   -8808218.14947  -6850077.44347
      2358.3194       1837.6454         46.2004         43.2004
  21775269.7194   21775270.2964   21775273.8084  -15925794.69948 -12396094.28547
      2587.8804       2016.5304         48.2004         45.2004
  22905650.1164   22905650.6494   22905653.8674   -7375390.95647  -5726371.51747
     -3410.6794      -2657.6724         45.3004         42.5004
 10  1  2  1 57 30.0000000  0 10G17G14G22G18G30G 9G27G26G12G15
  21999331.5034   21999331.5464   21999334.1274  -14798378.28048 -11517752.57447
      -684.3994       -533.3004         48.6004         45.4004
  24502446.9714                                    -407346.99844    -31365.19543
      3434.7024       2676.3904         26.4004         23.4004
  23806533.1064   23806534.5074   23806537.5434   -3559967.82046  -2613080.20445
      -846.5674       -659.6594         36.8004         34.8004
  23944291.0294   23944291.7954   23944296.7314   -1663126.13446  -1073002.96146
     -2367.2924      -1844.6474         38.3004         36.4004
  24500650.7764                                    -274742.21944   -200434.07745
      3764.7484       2933.5914         26.4004         30.1004
  19659517.4674   19659517.1074   19659520.9164  -27882528.37448 -21714269.17248
       324.1194        252.5604         51.5004         48.5004
  20732585.3794   20732585.0724   20732589.0514  -22351935.63948 -17397385.73247
       -41.0674        -32.0064         50.5004         47.5004
  21750181.1164   21750181.3464   21750185.1024   -8878705.65047  -6905002.75147
      2340.7844       1823.9824         46.2004         43.2004
  21760527.9784   21760528.1994   21760531.5614  -16003261.95048 -12456458.36347
      2576.5904       2007.7314         48.1004         45.1004
  22925146.1844   22925145.2684   22925148.4644   -7272944.44347  -5646543.04647
     -3419.1184      -2664.2554         45.1004         42.3004
 10  1  2  1 58  0.0000000  0 10G17G14G22G18G30G 9G27G26G12G15
  22003294.2354   22003294.4024   22003297.4494  -14777554.04048 -11501525.89847
      -703.9054       -548.4984         48.6004         45.6004
  24482857.8644                                    -510292.09944   -111580.35045
      3428.2684       2670.9744         26.4004         30.3004
  23811419.7764   23811419.2534   23811419.4334   -3534313.79246  -2593090.03745
      -863.7584       -673.0594         36.8004         35.0004
  23957838.1794   23957838.4844   23957840.1684   -1591946.91146  -1017538.66146
     -2378.0534      -1853.0304         38.5004         36.4004
  24479166.9924                                    -387640.00944    -18321.93743
      3761.7014       2931.1954         26.4004         23.4004
  19657718.3004   19657717.9594   19657721.4844  -27891984.90748 -21721637.90048
       306.3354        238.7024         51.5004         48.5004
  20732851.1544   20732850.9844   20732854.8984  -22350538.93148 -17396297.39647
       -52.0744        -40.5754         50.3004         47.5004
  21736868.2544   21736868.5294   21736873.0544   -8948664.77847  -6959516.35947
      2323.1284       1810.2194         46.0004         43.0004
  21745850.9574   21745851.1974   21745854.7394  -16080389.20447 -12516557.50947
      2565.2434       1998.9004         47.9004         44.9004
  22944688.0784   22944688.3664   22944691.6814   -7170245.80147  -5566518.13247
     -3427.5054      -2670.7814         45.1004         42.3004
 10  1  2  1 58 30.0000000  0 10G17G14G22G18G30G 9G27G26G12G15
  22007367.8864   22007368.0244   22007371.2684  -14756144.44248 -11484843.08647
      -723.3994       -563.6844         48.6004         45.4004
                                  24467219.909     -613042.60544   -175642.180 2
      3421.7604       2667.584          26.4004         14.400
  23816395.2394   23816396.2154   23816403.0084   -3508145.62746  -2572699.22345
      -880.7994       -686.3294         36.4004         34.3004
  23971445.2264   23971443.1384   23971445.3754   -1520447.40646   -961824.80346
     -2388.6374      -1861.2764         38.7004         36.4004
  24457698.9634                                    -500444.38944   -106221.08845
      3758.5504       2928.7314         26.4004         32.9004
  19656020.0554   19656019.9744   19656023.7544  -27900906.75948 -21728589.98948
       288.4754        224.7844         51.5004         48.5004
  20733179.5294   20733179.5374   20733183.4704  -22348812.04648 -17394951.76847
       -63.0674        -49.1454         50.3004         47.5004
  21723656.0494   21723656.6424   21723661.3694   -9018093.21747  -7013616.41947
      2305.4114       1796.4224         45.8004         42.8004
  21731239.7644   21731239.8344   21731243.2274  -16157175.56748 -12576391.01947
      2553.8404       1990.0074         48.1004         45.1004
  22964277.8824   22964278.5884   22964282.5584   -7067297.08747  -5486298.36247
     -3435.7324      -2677.1904         45.3004         42.6004
 10  1  2  1 59  0.0000000  0  9G17G22G18G30G 9G27G26G12G15
  22011552.9334   22011553.8774   22011556.5354  -14734150.57548 -11467704.99747
      -742.8464       -578.8454         48.4004         45.4004
  23821477.8574   23821476.6554   23821476.5454   -3481464.69246  -2551908.94445
      -897.8764       -699.6464         36.1004         34.3004
  23985110.0204   23985110.1874   23985112.2724   -1448630.35846   -905863.50445
     -2399.1574      -1869.4764         38.2004         35.5004
  24436250.0124                                    -613153.95344   -194046.81345
      3755.3784       2926.2734         26.4004         34.3004
  19654424.4034   19654423.8894   19654427.6564  -27909293.49448 -21735125.10248
       270.6354        210.8824         51.5004         48.5004
  20733571.3604   20733570.9824   20733574.9714  -22346754.61048 -17393348.57447
       -74.0924        -57.7374         50.3004         47.5004
  21710546.4944   21710546.4514   21710550.3624   -9086988.35147  -7067300.93547
      2287.5854       1782.5214         46.0004         43.2004
  21716693.0064   21716692.7004   21716696.0854  -16233620.28748 -12635958.31447
      2542.4474       1981.1304         48.2004         45.2004
  22983916.0714   22983916.6304   22983919.8224   -6964101.14547  -5405885.93747
     -3443.9374      -2683.5874         45.3004         42.3004
