     2.11           OBSERVATION DATA    G (GPS)             RINEX VERSION / TYPE
teqc  2009Mar23     root                20100105 01:16:03UTCPGM / RUN BY / DATE
Linux 2.4.20-8|Pentium IV|gcc|Linux|486/DX+                 COMMENT
teqc  2009Mar23     root                20100104 01:00:00UTCCOMMENT
BIT 2 OF LLI FLAGS DATA COLLECTED UNDER A/S CONDITION       COMMENT
PTBB                                                        MARKER NAME
14234M001                                                   MARKER NUMBER
Automatic           BKG/GOWettzell+PTB                      OBSERVER / AGENCY
RT820013901         ASHTECH Z-XII3T     1L01-1D04           REC # / TYPE / VERS
CR15930             ASH700936E      SNOW                    ANT # / TYPE
  3844060.0000   709661.2700  5023129.5100                  APPROX POSITION XYZ
        0.0562        0.0000        0.0000                  ANTENNA: DELTA H/E/N
     1     1                                                WAVELENGTH FACT L1/2
     9    C1    P1    P2    L1    L2    D1    D2    S1    S2# / TYPES OF OBSERV
    30.0000                                                 INTERVAL
Forced Modulo Decimation to 30 seconds                      COMMENT
 SNR is mapped to RINEX snr flag value [0-9]                COMMENT
  L1 & L2: min(max(int(snr_dBHz/6), 0), 9)                  COMMENT
pseudorange smoothing corrections not applied               COMMENT
  2010     1     4     0     0    0.0000000     GPS         TIME OF FIRST OBS
                                                            END OF HEADER
 10  1  4  0  0  0.0000000  0  7G 5G15G28G 9G27G18G 8
  24883325.1774   24883323.1244   24883325.4924    1301907.11645   1029148.87945
     -3743.3444      -2916.8984         35.7004         34.1004
  20454948.6934   20454948.9424   20454951.7064  -21128104.02048 -16214932.84448
      -187.3614       -145.9974         52.2004         49.4004
  21810262.6844   21810262.1204   21810265.8344  -14546512.76148 -11319693.73047
     -1728.4084      -1346.8084         48.4004         45.4004
  22107859.7764   22107860.7874   22107865.5464  -14523025.61047 -11290049.73247
      3225.1784       2513.1384         44.9004         42.3004
  21995739.1744   21995738.9954   21995743.2494  -14783288.02047 -11505524.29547
      1920.9884       1496.8724         47.7004         44.9004
  23137946.4294   23137944.8954   23137948.2914   -5371094.24346  -4176373.53946
      1343.2774       1046.7144         41.8004         39.3004
  23651701.8764   23651701.4104   23651705.9194   -5591350.92846  -4337879.14846
     -3189.4524      -2485.2864         40.1004         37.1004
 10  1  4  0  0 30.0000000  0  8G17G 5G15G28G 9G27G18G 8
  23641272.1444   23641270.3474   23641272.5284   -6355237.58147  -4936903.32646
      2911.1534       2268.4314         42.3004         39.5004
  24904693.8564   24904692.5924   24904694.8194    1414206.78545   1116655.08445
     -3743.2924      -2916.8594         35.2004         33.6004
  20456068.3224   20456068.5654   20456071.5274  -21122219.49248 -16210347.50048
      -204.9534       -159.7024         52.2004         49.4004
  21820168.9044   21820167.6754   21820171.5954  -14494458.41848 -11279131.90247
     -1741.8934      -1357.3184         48.4004         45.4004
  22089470.8964   22089471.5914   22089476.5764  -14619662.76547 -11365351.39247
      3217.2954       2506.9714         45.1004         42.1004
  21984793.1934   21984792.7464   21984796.9894  -14840810.69647 -11550347.14947
      1913.8504       1491.3244         47.9004         44.9004
  23130329.4024   23130328.0664   23130331.3084   -5411125.65647  -4207566.83346
      1325.4764       1032.8414         42.2004         39.7004
  23669920.1214   23669920.1164   23669925.3134   -5495606.53146  -4263273.16746
     -3193.4984      -2488.4424         39.2004         36.4004
 10  1  4  0  1  0.0000000  0  8G17G 5G15G28G 9G27G18G 8
  23624675.7424   23624677.3324   23624681.0584   -6442441.16547  -5004854.17146
      2902.3664       2261.5884         42.3004         39.7004
  24926063.3734   24926056.0694   24926070.8604    1526501.29145   1204157.32545
     -3742.9844      -2916.6084         34.2004         32.6004
  20457288.8814   20457289.0824   20457291.9914  -21115806.91448 -16205350.69048
      -222.5614       -173.4244         52.2004         49.4004
  21830151.5364   21830150.8154   21830154.0514  -14441999.72748 -11238254.99847
     -1755.3544      -1367.8054         48.4004         45.4004
  22071127.2934   22071127.1264   22071131.8004  -14716063.25047 -11440468.61447
      3209.3694       2500.7994         45.1004         42.5004
  21973887.2154   21973887.2484   21973891.4234  -14898119.03247 -11595002.98047
      1906.6704       1485.7174         47.9004         44.9004
  23122813.2774   23122812.5944   23122814.8174   -5450622.19347  -4238343.39446
      1307.5944       1018.8984         42.7004         40.2004
  23688164.5794   23688164.0034   23688169.0884   -5399739.48446  -4188571.58746
     -3197.7064      -2491.7194         39.4004         37.1004
 10  1  4  0  1 30.0000000  0  8G17G 5G15G28G 9G27G18G 8
  23608133.4564   23608132.6234   23608136.6004   -6529380.63447  -5072599.19846
      2893.5464       2254.6924         42.2004         39.3004
  24947425.9674   24947427.4904   24947432.8634    1638787.72155   1291653.24055
     -3742.7494      -2916.4274         33.8004         32.9004
  20458609.6584   20458609.6044   20458612.8014  -21108865.99048 -16199942.17748
      -240.1654       -187.1394         52.2004         49.4004
  21840209.9094   21840209.8954   21840212.9384  -14389138.60448 -11197064.51247
     -1768.7254      -1378.2314         48.4004         45.4004
  22052828.0954   22052827.8664   22052832.4694  -14812225.34247 -11515400.10347
      3201.4054       2494.6074         45.3004         42.3004
  21963022.2274   21963021.9804   21963026.7754  -14955212.45047 -11639491.34247
      1899.5314       1480.1554         47.7004         44.7004
  23115398.7364   23115398.0054   23115401.9704   -5489582.68847  -4268702.24346
      1289.6944       1004.9664         42.9004         40.0004
  23706429.6204   23706429.6484   23706434.7914   -5303750.98046  -4113775.39046
     -3201.6414      -2494.7874         39.7004         37.4004
 10  1  4  0  2  0.0000000  0  8G17G 5G15G28G 9G27G18G 8
  23591637.1024   23591638.1244   23591642.9374   -6616052.87647  -5140135.98246
      2884.5684       2247.7284         42.0004         39.2004
  24968795.0454   24968795.0294   24968797.2684    1751063.50045   1379140.89745
     -3742.3194      -2916.0974         33.7004         32.4004
  20460030.8894   20460031.1544   20460034.0624  -21101396.52848 -16194121.82748
      -257.8064       -200.8894         52.2004         49.4004
  21850345.8354   21850345.1284   21850348.4784  -14335876.78548 -11155561.79947
     -1782.0564      -1388.6214         48.4004         45.4004
  22034575.4794   22034574.1734   22034579.5974  -14908147.85747 -11590144.88747
      3193.3804       2488.3414         45.3004         42.3004
  21952199.1024   21952198.9784   21952203.5474  -15012090.55547 -11683811.93447
      1892.3504       1474.5554         47.7004         44.9004
  23108088.2544   23108087.0964   23108089.1924   -5528005.71647  -4298642.28346
      1271.7874        991.0004         42.9004         40.2004
  23724718.5144   23724720.0684   23724723.4684   -5207642.25046  -4038885.50746
     -3205.5884      -2497.8614         40.3004         38.1004
 10  1  4  0  2 30.0000000  0  8G17G 5G15G28G 9G27G18G 8
  23575195.9454   23575196.6934   23575201.3504   -6702454.82446  -5207462.19146
      2875.4794       2240.6354         41.8004         39.2004
  24990155.3234   24990152.1194                    1863325.49655   1466617.68455
     -3741.7294      -2915.6204         32.6004         31.2004
  20461553.5164   20461553.1684   20461556.1144  -21093398.06748 -16187889.26248
      -275.4254       -214.6184         52.2004         49.4004
  21860557.4054   21860556.5214   21860559.4864  -14282216.03048 -11113748.22447
     -1795.3294      -1398.9604         48.4004         45.4004
  22016366.4564   22016366.8444   22016372.0244  -15003829.53047 -11664702.00347
      3185.3654       2482.1004         45.3004         42.5004
  21941416.8244   21941415.8594   21941420.6864  -15068753.15247 -11727964.60247
      1885.1534       1468.9514         47.7004         44.7004
  23100879.2654   23100877.2284   23100880.9964   -5565890.02947  -4328162.55446
      1253.7714        976.9604         42.7004         39.3004
  23743033.6994   23743030.7634   23743035.3064   -5111414.37246  -3963902.76146
     -3209.6074      -2500.9844         40.1004         37.3004
 10  1  4  0  3  0.0000000  0  8G17G 5G15G28G 9G27G18G 8
  23558807.1874   23558808.1294   23558810.6794   -6788583.52147  -5274575.44646
      2866.3494       2233.5214         42.0004         39.3004
  25011522.5504                                    1975573.60745   1554083.90245
     -3741.2794      -2915.2924         31.0004         31.0004
  20463175.6644   20463175.8454   20463179.1954  -21084870.43448 -16181244.36048
      -293.0774       -228.3694         52.2004         49.6004
  21870843.8124   21870842.9104   21870847.0074  -14228158.38148 -11071625.37647
     -1808.5114      -1409.2284         48.4004         45.6004
  21998205.5064   21998205.7964   21998209.0324  -15099268.73047 -11739070.18347
      3177.2514       2475.7884         45.3004         42.3004
  21930674.3444   21930674.4824   21930679.4974  -15125199.71547 -11771948.92347
      1877.9414       1463.3244         47.7004         44.7004
  23093770.6254   23093771.0014   23093773.8044   -5603234.47547  -4357262.15046
      1235.7714        962.9434         42.2004         39.2004
  23761360.4944   23761362.4924   23761370.5264   -5015067.95946  -3888827.61046
     -3213.4984      -2504.0274         39.4004         36.7004
 10  1  4  0  3 30.0000000  0  8G17G 5G15G28G 9G27G18G 8
  23542467.6274   23542469.4064   23542474.5804   -6874436.37346  -5341473.73846
      2857.1484       2226.3394         41.8004         39.0004
  25032872.3544                                    2087801.38455   1641534.25055
     -3740.7004      -2914.8334         31.0004         30.8004
  20464898.9084   20464899.4114   20464902.8754  -21075813.06748 -16174186.68148
      -310.7444       -242.1374         52.2004         49.6004
  21881205.7114   21881205.5674   21881208.5814  -14173705.47348 -11029194.54147
     -1821.6584      -1419.4764         48.4004         45.4004
  21980091.1104   21980091.6244   21980094.7734  -15194463.78447 -11813248.12747
      3169.0554       2469.3894         45.3004         42.8004
  21919975.1184   21919974.4694   21919978.9344  -15181429.65047 -11815764.45147
      1870.6984       1457.6844         47.7004         44.9004
  23086767.6704   23086766.4854   23086771.1264   -5640037.68946  -4385939.97746
      1217.7384        948.8924         41.8004         39.0004
  23779722.0014   23779720.6994   23779726.5774   -4918603.63346  -3813660.65146
     -3217.4024      -2507.0614         39.2004         37.3004
 10  1  4  0  4  0.0000000  0  8G17G 5G15G28G 9G27G18G 8
  23526186.1444   23526186.1604   23526188.9084   -6960010.27546  -5408154.70846
      2847.7754       2219.0514         41.8004         39.2004
  25054224.2394                                    2200008.19555   1728968.11855
     -3740.2754      -2914.5004         31.0004         31.0004
  20466723.6254   20466723.9384   20466727.0124  -21066225.93248 -16166716.19548
      -328.4044       -255.8964         52.2004         49.4004
  21891642.4274   21891642.0964   21891645.7894  -14118858.87248 -10986456.92747
     -1834.7764      -1429.6964         48.4004         45.2004
  21962022.6854   21962022.5754   21962026.1364  -15289413.25047 -11887234.71047
      3160.9214       2463.0544         45.6004         42.8004
  21909315.9254   21909315.4164   21909319.6244  -15237442.65347 -11859410.94047
      1863.4804       1452.0624         47.9004         44.9004
  23079868.2024   23079868.0604   23079871.3504   -5676298.53147  -4414195.18346
      1199.6544        934.8064         42.5004         39.9004
  23798102.1284   23798101.0674   23798104.3004   -4822023.12746  -3738403.16846
     -3221.2804      -2510.0914         40.1004         37.8004
 10  1  4  0  4 30.0000000  0  7G17G15G28G 9G27G18G 8
  23509954.9504   23509955.5814   23509959.0994   -7045302.37147  -5474616.06846
      2838.3624       2211.7064         42.0004         39.5004
  20468648.9134   20468648.9044   20468652.2954  -21056108.83448 -16158832.74948
      -346.0734       -269.6714         52.2004         49.4004
  21902154.5174   21902154.0044   21902157.2364  -14063620.42148 -10943413.97547
     -1847.7704      -1439.8144         48.4004         45.4004
  21944002.1284   21944001.8754   21944005.8184  -15384115.42647 -11961028.59247
      3152.5464       2456.5184         45.8004         43.0004
  21898698.2914   21898698.0724   21898702.6264  -15293238.15247 -11902887.94847
      1856.2114       1446.3964         47.9004         44.9004
  23073072.5454   23073071.7744   23073073.3724   -5712015.79647  -4442026.82446
      1181.5004        920.6554         42.9004         40.2004
  23816501.2474   23816500.7814   23816505.9854   -4725327.27646  -3663055.78046
     -3225.0944      -2513.0514         40.1004         37.4004
 10  1  4  0  5  0.0000000  0  7G17G15G28G 9G27G18G 8
  23493780.0624   23493779.3734   23493782.6994   -7130309.76747  -5540855.61346
      2828.7374       2204.2054         42.3004         39.9004
  20470674.5434   20470675.3004   20470678.6104  -21045461.24948 -16150535.94548
      -363.7654       -283.4524         52.2004         49.4004
  21912739.8124   21912739.5024   21912742.5854  -14007992.31448 -10900067.38847
     -1860.7474      -1449.9384         48.4004         45.2004
  21926026.8074   21926027.1884   21926031.6594  -15478568.91847 -12034628.70047
      3144.2904       2450.0874         45.8004         43.2004
  21888121.9904   21888122.0084   21888126.7514  -15348815.75247 -11946195.15247
      1848.9584       1440.7444         47.9004         45.1004
  23066378.5454   23066378.3184   23066380.0834   -5747188.14047  -4469433.85246
      1163.2994        906.4614         43.0004         40.2004
  23834920.8714   23834920.7894   23834927.9934   -4628517.38946  -3587619.55246
     -3228.9354      -2516.0574         39.2004         36.2004
 10  1  4  0  5 30.0000000  0  7G17G15G28G 9G27G18G 8
  23477657.2034   23477656.2754   23477659.7204   -7215029.18247  -5606870.72146
      2819.1374       2196.7324         42.5004         39.7004
  20472802.3494   20472802.5834   20472805.6424  -21034283.13648 -16141825.73448
      -381.4544       -297.2374         52.2004         49.4004
  21923399.2014   21923398.6434   21923402.4114  -13951976.08948 -10856418.38547
     -1873.6594      -1460.0004         48.4004         45.4004
  21908102.4744   21908100.8104   21908105.0244  -15572772.13347 -12108033.77947
      3135.9264       2443.5954         46.0004         43.2004
  21877587.5964   21877587.4244   21877591.8774  -15404175.01748 -11989332.23847
      1841.6654       1435.0644         48.1004         45.1004
  23059787.7174   23059787.1934   23059791.1954   -5781814.47647  -4496415.42846
      1145.0604        892.2414         42.7004         39.9004
  23853366.6124   23853367.0064   23853370.0794   -4531594.83046  -3512095.47246
     -3232.6124      -2518.9304         38.7004         36.2004
 10  1  4  0  6  0.0000000  0  7G17G15G28G 9G27G18G 8
  23461591.6914   23461592.2854   23461595.3154   -7299458.14247  -5672659.51246
      2809.4274       2189.1464         42.7004         40.0004
  20475030.2564   20475030.4304   20475033.6334  -21022574.52348 -16132702.14548
      -399.1554       -311.0324         52.2004         49.4004
  21934132.9664   21934132.4424   21934135.4184  -13895573.54048 -10812468.34247
     -1886.5014      -1469.9994         48.4004         45.4004
  21890222.3364   21890222.4364   21890226.7434  -15666723.66047 -12181242.75247
      3127.5024       2437.0284         46.0004         43.2004
  21867094.9324   21867094.6344   21867098.9184  -15459315.58048 -12032298.90647
      1834.3854       1429.3904         48.1004         44.9004
  23053303.9004   23053304.8684   23053306.6424   -5815893.56847  -4522970.56646
      1126.8174        878.0164         42.7004         40.0004
  23871834.4374   23871832.3254   23871837.9084   -4434560.01346  -3436483.99346
     -3236.3204      -2521.8124         38.5004         36.0004
 10  1  4  0  6 30.0000000  0  7G17G15G28G 9G27G18G 8
  23445580.9414   23445581.1214   23445585.0334   -7383593.48447  -5738219.51746
      2799.5874       2181.4794         42.9004         40.2004
  20477359.3834   20477359.8804   20477362.8104  -21010334.43448 -16123164.42848
      -416.8694       -324.8344         52.2004         49.4004
  21944938.8924   21944938.2564   21944941.2594  -13838786.56348 -10768218.74847
     -1899.2834      -1479.9544         48.2004         45.1004
  21872392.6164   21872391.9654   21872396.7494  -15760421.86647 -12254254.31747
      3119.0394       2430.4214         46.0004         43.2004
  21856643.8674   21856643.5214   21856647.8264  -15514237.22348 -12075094.98347
      1827.0544       1423.6754         48.1004         45.1004
  23046922.6594   23046922.0004   23046925.7574   -5849424.36947  -4549098.49146
      1108.5584        863.8184         42.9004         40.2004
  23890316.2044   23890316.2434   23890324.1784   -4337414.40046  -3360786.11245
     -3240.0044      -2524.6714         38.2004         35.7004
 10  1  4  0  7  0.0000000  0  7G17G15G28G 9G27G18G 8
  23429627.0134   23429627.5584   23429631.0384   -7467432.43647  -5803548.55346
      2789.6524       2173.7554         43.2004         40.6004
  20479790.3234   20479790.2244   20479793.4584  -20997562.72148 -16113212.46048
      -434.5944       -338.6474         52.2004         49.4004
  21955817.8304   21955817.4734   21955820.0244  -13781617.08848 -10723671.10547
     -1912.0074      -1489.8814         48.1004         45.1004
  21854611.9134   21854611.3934   21854614.9824  -15853865.23247 -12327067.31147
      3110.4844       2423.7514         46.3004         43.5004
  21846233.9794   21846234.1284   21846237.9814  -15568939.28548 -12117719.96847
      1819.7314       1417.9744         48.1004         44.9004
  23040646.5814   23040646.6654   23040649.4484   -5882405.74447  -4574798.26346
      1090.2844        849.5764         42.9004         40.0004
  23908826.5904   23908825.7164   23908831.9724   -4240158.53246  -3285002.36045
     -3243.6914      -2527.5444         38.0004         35.7004
 10  1  4  0  7 30.0000000  0  7G17G15G28G 9G27G18G 8
  23413729.7124   23413730.5744   23413734.7904   -7550971.92247  -5868644.26746
      2779.6094       2165.9344         43.2004         40.6004
  20482321.3804   20482321.6074   20482324.8674  -20984259.54748 -16102846.36548
      -452.3094       -352.4484         52.2004         49.4004
  21966769.4584   21966768.9434   21966771.7114  -13724067.04548 -10678826.92947
     -1924.6684      -1499.7384         48.1004         45.1004
  21836877.7464   21836877.5114   21836881.8004  -15947052.28047 -12399680.56747
      3101.9464       2417.0944         46.5004         43.7004
  21835866.9854   21835866.6694   21835870.6584  -15623421.40947 -12160173.56147
      1812.4044       1412.2624         47.9004         44.9004
  23034475.9854   23034474.2934   23034478.7764   -5914836.60447  -4600069.08846
      1071.8484        835.2044         42.9004         40.2004
  23927350.3404   23927353.2084   23927357.3434   -4142793.60446  -3209133.61045
     -3247.2774      -2530.3584         37.8004         35.5004
 10  1  4  0  8  0.0000000  0  7G17G15G28G 9G27G18G 8
  23397890.4384   23397891.2094   23397892.8864   -7634209.13747  -5933504.41246
      2769.4904       2158.0424         43.4004         40.6004
  20484954.2724   20484954.2594   20484957.5724  -20970424.96048 -16092066.18148
      -470.0154       -366.2444         52.2004         49.4004
  21977792.5324   21977792.0144   21977795.2644  -13666138.10148 -10633687.49647
     -1937.2634      -1509.5544         48.1004         44.9004
  21819193.9414   21819194.0934   21819197.6504  -16039981.52447 -12472092.94947
      3093.3104       2410.3684         46.5004         43.7004
  21825541.0524   21825540.6334   21825545.2464  -15677683.04047 -12202455.34847
      1805.0394       1406.5164         47.9004         45.1004
  23028409.3404   23028408.0924   23028411.8724   -5946715.88247  -4624910.10746
      1053.4024        820.8484         42.9004         40.0004
  23945904.7794   23945901.9234   23945904.9454   -4045320.31546  -3133180.36545
     -3250.8584      -2533.1404         37.5004         35.3004
 10  1  4  0  8 30.0000000  0  7G17G15G28G 9G27G18G 8
  23382110.5624   23382110.6604   23382111.8844   -7717141.35947  -5998126.91346
      2759.3174       2150.1404         43.2004         40.2004
  20487687.9024   20487688.3714   20487691.4614  -20956058.67248 -16080871.69348
      -487.7554       -380.0674         52.2004         49.4004
  21988887.9294   21988887.3834   21988890.3014  -13607832.27047 -10588254.38347
     -1949.8014      -1519.3274         47.9004         44.7004
  21801559.0504   21801559.5544   21801563.7864  -16132651.40547 -12544303.22447
      3084.6464       2403.6204         46.5004         43.7004
  21815257.3734   21815257.0754   21815261.4464  -15731723.65248 -12244564.92047
      1797.6504       1400.7684         48.1004         45.1004
  23022447.8434   23022447.7354   23022450.8664   -5978042.49447  -4649320.47446
      1034.9864        806.4924         43.0004         40.4004
  23964472.7304   23964470.7724   23964476.8874   -3947740.18646  -3057143.99845
     -3254.5344      -2536.0054         37.6004         35.7004
 10  1  4  0  9  0.0000000  0  7G17G15G28G 9G27G18G 8
  23366386.0344   23366386.9274   23366389.4814   -7799765.49747  -6062509.34446
      2748.9624       2142.0554         43.2004         40.6004
  20490522.7444   20490523.0744   20490526.2054  -20941160.43648 -16069262.69048
      -505.4944       -393.8934         52.1004         49.2004
  22000054.3604   22000054.1824   22000057.0414  -13549151.23247 -10542528.89447
     -1962.2694      -1529.0364         47.9004         44.9004
  21783973.2594   21783973.8394   21783978.4164  -16225060.37647 -12616310.18747
      3075.9194       2396.8184         46.7004         43.7004
  21805015.1724   21805015.7404   21805020.3304  -15785542.77848 -12286501.89547
      1790.2694       1395.0154         48.2004         45.2004
  23016591.7504   23016591.0684   23016594.7264   -6008815.16647  -4673299.20446
      1016.5194        792.0934         43.2004         40.6004
  23983058.8154   23983059.9494   23983064.7154   -3850054.18546  -2981025.06045
     -3257.9534      -2538.6674         37.1004         34.8004
 10  1  4  0  9 30.0000000  0  7G17G15G28G 9G27G18G 8
  23350722.2734   23350722.6834   23350726.1064   -7882078.99547  -6126649.73746
      2738.5624       2133.9404         43.4004         40.6004
  20493459.4314   20493459.4494   20493462.6674  -20925729.95648 -16057238.95648
      -523.2154       -407.7034         52.1004         49.2004
  22011291.4164   22011291.4514   22011295.2614  -13490096.70847 -10496512.37947
     -1974.6884      -1538.7234         47.7004         44.7004
  21766438.9064   21766438.8654   21766443.4654  -16317206.59647 -12688112.40947
      3067.1474       2389.9784         46.7004         43.7004
  21794816.7994   21794816.6074   21794821.0054  -15839140.14048 -12328266.07147
      1782.8774       1389.2514         48.2004         45.2004
  23010841.2084   23010840.6584   23010843.9794   -6039033.25347  -4696845.77246
       998.0144        777.6794         43.0004         40.2004
  24001665.6884   24001666.6984   24001672.0744   -3752263.32346  -2904824.43445
     -3261.4714      -2541.4024         36.3004         33.8004
 10  1  4  0 10  0.0000000  0  7G17G15G28G 9G27G18G 8
  23335118.3164   23335117.1914   23335121.9204   -7964078.58247  -6190545.49146
      2728.0764       2125.7674         43.2004         40.2004
  20496496.6814   20496497.0054   20496500.3914  -20909767.44948 -16044800.64348
      -540.9574       -421.5234         52.1004         49.4004
  22022600.0654   22022599.8444   22022603.9954  -13430670.96347 -10450206.62047
     -1987.0394      -1548.3414         47.7004         44.9004
  21748954.5454   21748954.7914   21748959.6004  -16409088.96347 -12759709.04847
      3058.3424       2383.1324         46.9004         44.0004
  21784659.6574   21784659.5604   21784663.8424  -15892515.33648 -12369857.13747
      1775.4474       1383.4694         48.2004         45.2004
  23005197.0864   23005195.7794   23005200.8034   -6068695.77247  -4719959.42946
       979.4474        763.2164         43.0004         40.0004
  24020299.7364   24020295.5904   24020300.0904   -3654368.53545  -2828542.75945
     -3264.8944      -2544.0744         35.7004         34.0004
 10  1  4  0 10 30.0000000  0  7G17G15G28G 9G27G18G 8
  23319575.0384   23319575.1454   23319578.7644   -8045761.46047  -6254194.48446
      2717.4594       2117.4944         43.4004         40.7004
  20499635.8344   20499635.9364   20499639.2844  -20893272.87448 -16031947.73448
      -558.6884       -435.3374         52.1004         49.2004
  22033977.9374   22033977.8574   22033982.4864  -13370875.54147 -10403612.77947
     -1999.3374      -1557.9224         47.7004         44.5004
  21731522.0034   21731521.7464   21731525.7204  -16500705.87647 -12831098.82247
      3049.4474       2376.1944         47.0004         44.4004
  21774545.3174   21774544.8464   21774549.7424  -15945667.98848 -12411274.79347
      1768.0444       1377.6944         48.2004         45.2004
  22999658.0074   22999658.1614   22999661.5914   -6097801.67047  -4742639.36546
       960.9054        748.7524         42.9004         40.2004
  24038944.3494   24038945.6134   24038948.8364   -3556371.15146  -2752181.23545
     -3268.2574      -2546.6834         36.1004         34.5004
 10  1  4  0 11  0.0000000  0  7G17G15G28G 9G27G18G 8
  23304088.6594   23304090.1454   23304095.1164   -8127124.99847  -6317594.64846
      2706.7194       2109.1264         43.2004         40.2004
  20502875.9134   20502876.0544   20502879.3554  -20876246.09848 -16018680.12848
      -576.4274       -449.1604         52.1004         49.2004
  22045427.2164   22045427.2524   22045430.7204  -13310712.52947 -10356732.50947
     -2011.5334      -1567.4234         47.7004         44.7004
  21714137.0654   21714137.3164   21714142.0204  -16592055.96447 -12902280.67647
      3040.5494       2369.2524         47.2004         44.2004
  21764472.7934   21764472.6334   21764477.1344  -15998597.63148 -12452518.67347
      1760.5894       1371.8824         48.2004         45.2004
  22994225.3984   22994225.8674   22994229.1844   -6126349.91247  -4764884.72946
       942.3044        734.2774         42.9004         40.0004
  24057613.7684   24057612.5004   24057618.0784   -3458271.64646  -2675740.04445
     -3271.6274      -2549.3254         36.4004         34.8004
 10  1  4  0 11 30.0000000  0  7G17G15G28G 9G27G18G 8
  23288670.5164   23288670.9644   23288673.0214   -8208166.12847  -6380743.56046
      2695.9594       2100.7444         43.2004         40.6004
  20506217.3474   20506217.5174   20506220.5034  -20858687.02548 -16004997.74448
      -594.1894       -463.0044         52.1004         49.2004
  22056945.9614   22056945.2174   22056949.1864  -13250183.80047 -10309567.27547
     -2023.7214      -1576.9214         47.7004         44.7004
  21696804.6684   21696805.3034   21696810.1724  -16683137.38747 -12973253.19447
      3031.5264       2362.2264         47.0004         44.2004
  21754443.8254   21754443.1674   21754447.4434  -16051303.69948 -12493588.33347
      1753.1124       1366.0614         48.1004         45.2004
  22988899.3544   22988899.2424   22988903.1464   -6154339.40647  -4786694.72246
       923.6934        719.7724         42.7004         40.0004
  24076302.9834   24076302.3344   24076306.3004   -3360071.08046  -2599220.14645
     -3275.0374      -2551.9704         37.1004         35.3004
 10  1  4  0 12  0.0000000  0  7G17G15G28G 9G27G18G 8
  23273310.5514   23273311.3304   23273313.8174   -8288881.96847  -6443638.99846
      2685.1104       2092.2844         43.6004         40.9004
  20509659.8614   20509659.9204   20509663.4404  -20840595.44148 -15990900.40948
      -611.9264       -476.8234         52.1004         49.2004
  22068533.4654   22068533.0564   22068536.4954  -13189290.94747 -10262118.30347
     -2035.8044      -1586.3484         47.7004         44.7004
  21679524.3804   21679523.8194   21679528.6364  -16773948.70647 -13044015.23647
      3022.5264       2355.2064         47.0004         43.9004
  21744456.1614   21744456.0184   21744460.6904  -16103785.76648 -12534483.45247
      1745.6574       1360.2544         48.1004         45.2004
  22983681.3994   22983679.1254   22983682.1494   -6181769.67847  -4808068.94646
       905.0124        705.2124         42.7004         40.0004
  24095010.0554   24095007.3204   24095012.0664   -3261770.44446  -2522622.30645
     -3278.2954      -2554.5184         37.1004         34.8004
 10  1  4  0 12 30.0000000  0  7G17G15G28G 9G27G18G 8
  23258014.0744   23258014.7774   23258016.9864   -8369269.98947  -6506278.98246
      2674.0904       2083.7164         44.1004         41.4004
  20513203.9524   20513204.1854   20513207.4034  -20821971.39348 -15976388.16748
      -629.6844       -490.6604         51.9004         49.1004
  22080190.2634   22080189.5924   22080192.4944  -13128036.14547 -10214387.28547
     -2047.8414      -1595.7174         47.5004         44.5004
  21662295.1354   21662295.1994   21662299.1494  -16864488.33547 -13114565.57747
      3013.4504       2348.1484         46.9004         44.0004
  21734512.7894   21734512.0794   21734515.8534  -16156043.34048 -12575203.64647
      1738.1654       1354.4174         48.2004         45.2004
  22978565.7194   22978566.7854   22978569.3684   -6208639.46347  -4829006.44846
       886.3034        690.6274         42.7004         39.7004
  24113730.1654   24113729.6834   24113737.5084   -3163370.99046  -2445947.35545
     -3281.6104      -2557.1054         36.1004         34.1004
 10  1  4  0 13  0.0000000  0  7G17G15G28G 9G27G18G 8
  23242779.8144   23242778.9704   23242782.7654   -8449327.55347  -6568661.48146
      2663.0254       2075.0954         44.1004         41.1004
  20516849.3504   20516849.6954   20516852.2154  -20802815.01048 -15961461.12048
      -647.4144       -504.4794         51.9004         49.1004
  22091914.9644   22091914.4414   22091917.7754  -13066421.38747 -10166375.79347
     -2059.8104      -1605.0484         47.5004         44.5004
  21645117.9794   21645118.0414   21645122.0314  -16954754.56547 -13184902.88347
      3004.3054       2341.0074         46.9004         44.0004
  21724610.7754   21724610.5564   21724614.6414  -16208076.02148 -12615748.58947
      1730.6604       1348.5644         48.1004         45.2004
  22973560.2374   22973560.6834   22973562.8354   -6234947.98447  -4849506.59046
       867.5784        676.0374         42.9004         40.0004
  24132475.3434   24132473.5994   24132478.2454   -3064873.59445  -2369196.13545
     -3284.8854      -2559.6514         35.9004         34.3004
 10  1  4  0 13 30.0000000  0  7G17G15G28G 9G27G18G 8
  23227606.3214   23227606.9774   23227611.7034   -8529051.16047  -6630783.78346
      2651.8364       2066.3654         43.7004         41.1004
  20520595.7714   20520595.9144   20520598.9544  -20783126.30948 -15946119.28148
      -665.1564       -518.3044         51.9004         48.9004
  22103708.0924   22103707.4154   22103710.4754  -13004448.34147 -10118085.11047
     -2071.7044      -1614.3184         47.5004         44.7004
  21627994.2294   21627993.6724   21627997.6914  -17044745.88047 -13255025.96547
      2995.1264       2333.8654         47.0004         44.2004
  21714750.9494   21714751.3874   21714755.8334  -16259883.22648 -12656117.83447
      1723.1504       1342.7204         48.1004         45.1004
  22968661.3844   22968661.1994   22968664.5494   -6260694.47547  -4869568.81446
       848.8394        661.4344         42.9004         40.4004
  24151237.5004   24151235.7664   24151242.4094   -2966278.94846  -2292369.15945
     -3288.1174      -2562.1664         36.1004         34.5004
 10  1  4  0 14  0.0000000  0  7G17G15G28G 9G27G18G 8
  23212501.4474   23212500.2154   23212505.4954   -8608438.22547  -6692643.83846
      2640.5604       2057.5714         43.9004         41.2004
  20524443.9514   20524444.1314   20524446.8314  -20762905.61448 -15930362.89948
      -682.8874       -532.1204         51.7004         48.9004
  22115569.0104   22115568.3244   22115571.4564  -12942119.11047 -10069516.87947
     -2083.5384      -1623.5364         47.7004         44.5004
  21610921.0634   21610920.9584   21610925.0604  -17134461.07547 -13324933.88647
      2985.8664       2326.6424         47.0004         44.0004
  21704936.8524   21704936.0834   21704940.3794  -16311464.65648 -12696311.15347
      1715.6054       1336.8364         48.1004         45.1004
  22963869.1214   22963868.5044   22963871.7604   -6285878.29547  -4889192.55646
       830.0544        646.7694         42.9004         40.0004
  24170019.2924   24170019.1814   24170023.1074   -2867588.67645  -2215467.75445
     -3291.3184      -2564.6634         35.9004         34.1004
 10  1  4  0 14 30.0000000  0  7G17G15G28G 9G27G18G 8
  23197457.8754   23197458.4174   23197462.6484   -8687486.07947  -6754239.55946
      2629.2154       2048.7534         43.9004         40.9004
  20528393.3284   20528393.2694   20528396.0304  -20742152.60448 -15914191.72648
      -700.6354       -545.9504         51.7004         48.9004
  22127497.1804   22127496.4964   22127499.6814  -12879435.30247 -10020672.34947
     -2095.3474      -1632.7404         47.5004         44.4004
  21593901.6064   21593901.7164   21593906.2204  -17223898.40347 -13394625.29847
      2976.5844       2319.4154         47.0004         44.2004
  21695164.5084   21695163.8564   21695167.3794  -16362819.83148 -12736328.16747
      1708.0444       1330.9444         48.1004         45.2004
  22959184.5384   22959182.8964   22959186.3484   -6310498.69747  -4908377.29046
       811.2624        632.1424         42.7004         39.9004
  24188816.2244   24188815.2284   24188821.4524   -2768803.48545  -2138492.32645
     -3294.5014      -2567.1384         35.6004         33.6004
 10  1  4  0 15  0.0000000  0  7G17G15G28G 9G27G18G 8
  23182482.1284   23182481.1674   23182483.8064   -8766191.40147  -6815568.33246
      2617.7754       2039.8144         43.6004         40.7004
  20532442.4324   20532443.2874   20532446.3024  -20720867.27448 -15897605.75948
      -718.3924       -559.7854         51.7004         48.7004
  22139492.4764   22139492.1624   22139495.2464  -12816398.65147  -9971552.89547
     -2107.0794      -1641.8824         47.5004         44.4004
  21576935.3864   21576935.3244   21576939.6084  -17313056.19247 -13464098.90547
      2967.2314       2312.1244         47.2004         44.2004
  21685435.0564   21685434.2124   21685437.9414  -16413948.26348 -12776168.50247
      1700.4874       1325.0604         48.2004         45.2004
  22954606.2944   22954605.8574   22954609.0944   -6334554.35647  -4927121.97646
       792.4154        617.4754         42.7004         39.9004
  24207629.7964   24207625.8344   24207636.1134   -2669924.11945  -2061443.43445
     -3297.5094      -2569.4914         34.5004         32.7004
 10  1  4  0 15 30.0000000  0  7G17G15G28G 9G27G18G 8
  23167569.3794   23167569.5454   23167573.0984   -8844551.87847  -6876628.42646
      2606.2334       2030.8384         43.6004         40.7004
  20536595.6784   20536595.5274   20536598.2744  -20699049.71348 -15880605.06448
      -736.1094       -573.5894         51.7004         48.9004
  22151555.6794   22151554.4614   22151557.6624  -12753011.51947  -9922160.32647
     -2118.7334      -1650.9644         47.5004         44.5004
  21560022.9434   21560023.0414   21560027.0674  -17401933.00247 -13533353.56547
      2957.8764       2304.8444         47.4004         44.5004
  21675748.2304   21675748.0874   21675751.6764  -16464849.44948 -12815831.76747
      1692.9104       1319.1464         48.4004         45.4004
  22950135.9374   22950136.2924   22950137.5054   -6358044.70247  -4945426.16446
       773.5674        602.7744         42.9004         40.2004
  24226468.5204   24226467.3144   24226472.9534   -2570951.14645  -1984321.69545
     -3300.5894      -2571.8874         34.2004         33.1004
 10  1  4  0 16  0.0000000  0  7G17G15G28G 9G27G18G 8
  23152724.8754   23152723.8444   23152727.2654   -8922564.72847  -6937417.64646
      2594.6194       2021.7894         43.6004         40.7004
  20540847.8024   20540848.0744   20540851.5584  -20676700.62448 -15863190.18548
      -753.8254       -587.3984         51.7004         48.9004
  22163683.7854   22163683.2034   22163685.5974  -12689275.59047  -9872495.96847
     -2130.3384      -1660.0114         47.4004         44.2004
  21543163.5254   21543163.1824   21543168.3804  -17490527.41547 -13602388.16247
      2948.4174       2297.4754         47.5004         44.5004
  21666105.3324   21666105.1364   21666108.8264  -16515522.99448 -12855317.63147
      1685.3234       1313.2404         48.2004         45.2004
  22945773.5104   22945772.0814   22945775.8094   -6380969.04647  -4963289.31446
       754.6944        588.1104         42.9004         39.9004
  24245318.1364   24245318.3524   24245319.6874   -2471886.33945  -1907128.34145
     -3303.6604      -2574.2804         35.0004         33.6004
 10  1  4  0 16 30.0000000  0  7G17G15G28G 9G27G18G 8
  23137945.5864   23137945.7564   23137949.2634   -9000227.28147  -6997933.91246
      2582.8834       2012.6354         43.6004         41.1004
  20545201.6944   20545202.3854   20545205.7824  -20653819.88248 -15845361.02648
      -771.5724       -601.2264         51.7004         48.9004
  22175877.9084   22175877.3974   22175880.1154  -12625192.79747  -9822561.32547
     -2141.8534      -1668.9784         47.2004         44.4004
  21526358.6294   21526358.7494   21526363.3034  -17578837.60147 -13671201.28747
      2938.9064       2290.0554         47.7004         44.7004
  21656506.3714   21656505.8064   21656509.9784  -16565968.54548 -12894625.84947
      1677.7144       1307.3074         48.4004         45.4004
  22941518.7074   22941518.6774   22941520.5754   -6403326.84947  -4980710.97446
       735.8114        573.3634         42.7004         40.0004
  24264184.1594   24264181.8974   24264190.0154   -2372730.60645  -1829864.13545
     -3306.5934      -2576.5644         34.5004         32.9004
 10  1  4  0 17  0.0000000  0  7G17G15G28G 9G27G18G 8
  23123234.8164   23123234.0794   23123237.9664   -9077536.59447  -7058174.89246
      2571.0604       2003.4384         43.7004         40.9004
  20549657.8244   20549657.6384   20549660.7884  -20630407.26548 -15827117.42948
      -789.2704       -615.0164         51.7004         48.9004
  22188138.8374   22188138.1654   22188140.6894  -12560764.94647  -9772357.80247
     -2153.3134      -1677.9064         47.2004         44.4004
  21509608.3144   21509608.2884   21509613.1034  -17666862.04447 -13739791.73747
      2929.3714       2282.6314         47.5004         44.5004
  21646949.8144   21646949.6864   21646953.5704  -16616185.44048 -12933755.88547
      1670.0804       1301.3554         48.4004         45.4004
  22937372.0844   22937371.1844   22937375.0304   -6425117.13747  -4997690.39946
       716.8294        558.5564         42.7004         40.0004
  24283070.8184   24283071.6404   24283076.7994   -2273484.80445  -1752529.68845
     -3309.6764      -2578.9744         35.7004         34.5004
 10  1  4  0 17 30.0000000  0  7G17G15G28G 9G27G18G 8
  23108589.5104   23108590.1174   23108594.5374   -9154489.65647  -7118138.30546
      2559.1044       1994.1114         43.7004         40.7004
  20554213.3154   20554213.9784   20554217.1504  -20606462.92948 -15808459.51148
      -807.0024       -628.8324         51.7004         48.7004
  22200463.7174   22200463.2814   22200465.6234  -12495994.41947  -9721887.26647
     -2164.7184      -1686.7924         47.4004         44.2004
  21492912.2424   21492912.9054   21492916.7204  -17754599.19847 -13808158.33447
      2919.7664       2275.1394         47.5004         44.7004
  21637437.2544   21637437.1954   21637441.5984  -16666173.40348 -12972707.52347
      1662.4434       1295.4064         48.4004         45.4004
  22933332.5694   22933333.0924   22933336.8134   -6446339.30747  -5014227.16546
       697.8874        543.8154         43.0004         40.4004
  24301978.3594   24301976.7934   24301979.3604   -2174149.51146  -1675125.65145
     -3312.6534      -2581.2794         37.0004         35.2004
 10  1  4  0 18  0.0000000  0  8G17G15G28G 9G27G22G18G 8
  23094014.6814   23094014.7194   23094018.8324   -9231083.95647  -7177822.15846
      2547.1114       1984.7514         43.6004         41.1004
  20558871.4264   20558871.5964   20558874.9784  -20581987.28248 -15789387.58048
      -824.7204       -642.6364         51.5004         48.7004
  22212853.8904   22212853.3894   22212857.1814  -12430882.74747  -9671150.91047
     -2176.0554      -1695.6254         47.2004         44.2004
  21476272.5984   21476271.8864   21476275.7224  -17842047.51247 -13876299.86347
      2910.0884       2267.6084         47.5004         44.5004
  21627968.4524   21627968.5024   21627972.5254  -16715931.95748 -13011480.40647
      1654.8054       1289.4604         48.4004         45.4004
                                                   -186929.58344
      2302.8714                         26.4004        -24.200
  22929402.8574   22929402.6054   22929406.1584   -6466993.02747  -5030320.98346
       678.9484        529.0574         43.0004         40.0004
  24320891.0144   24320893.0834   24320897.6074   -2074726.02345  -1597652.87545
     -3315.8244      -2583.7604         35.9004         33.8004
 10  1  4  0 18 30.0000000  0  7G17G15G28G 9G27G18G 8
  23079508.0584   23079508.5134   23079511.4134   -9307316.63847  -7237224.23046
      2535.0244       1975.3374         44.1004         41.2004
  20563630.0164   20563629.9364   20563633.8434  -20556980.49348 -15769901.77648
      -842.4114       -656.4234         51.5004         48.7004
  22225309.0874   22225309.2764   22225311.4044  -12365432.09647  -9620150.40047
     -2187.3154      -1704.4074         47.2004         44.2004
  21459686.5784   21459686.6084   21459690.0784  -17929205.43747 -13944215.13047
      2900.3994       2260.0524         47.5004         44.5004
  21618543.8294   21618543.2424   21618547.4314  -16765460.49548 -13050074.04747
      1647.1094       1283.4624         48.4004         45.4004
  22925581.1984   22925579.6904   22925583.6654   -6487077.38147  -5045971.12746
       659.9324        514.2444         42.7004         39.7004
  24339828.1884   24339827.7334   24339834.4724   -1975215.42145  -1520112.11845
     -3318.3224      -2585.6974         34.5004         32.6004
 10  1  4  0 19  0.0000000  0  7G17G15G28G 9G27G18G 8
  23065070.8804   23065070.6984   23065074.9104   -9383185.05447  -7296342.45346
      2522.8324       1965.8514         44.1004         41.2004
  20568489.3034   20568489.8254   20568492.9054  -20531442.98548 -15750002.43248
      -860.1044       -670.2114         51.5004         48.7004
  22237827.8454   22237827.4384   22237830.9104  -12299644.33347  -9568887.20247
     -2198.5244      -1713.1374         47.2004         44.2004
  21443156.8714   21443156.0764   21443160.2354  -18016071.35147 -14011902.84247
      2890.6464       2252.4564         47.5004         44.5004
  21609162.3814   21609162.2594   21609166.6644  -16814758.52748 -13088488.08347
      1639.4274       1277.4734         48.4004         45.4004
  22921867.9504   22921867.7734   22921870.2134   -6506591.92847  -5061177.26746
       641.0144        499.4874         42.5004         39.7004
  24358790.1074   24358789.8464   24358789.8094   -1875618.25745  -1442503.95845
     -3321.4194      -2588.1184         34.0004         32.7004
 10  1  4  0 19 30.0000000  0  7G17G15G28G 9G27G18G 8
  23050703.6814   23050703.8424   23050707.5044   -9458686.48447  -7355174.72446
      2510.5374       1956.2434         44.1004         41.2004
  20573450.1644   20573450.1914   20573453.9554  -20505374.66648 -15729689.46048
      -877.7734       -683.9794         51.5004         48.7004
  22250409.8514   22250409.4954   22250413.7504  -12233521.08847  -9517362.59347
     -2209.6824      -1721.8314         47.0004         43.9004
  21426682.2604   21426681.7564   21426685.7934  -18102643.59347 -14079361.73147
      2880.8214       2244.7924         47.5004         44.4004
  21599824.9154   21599825.0944   21599829.9604  -16863825.78048 -13126722.29247
      1631.7244       1271.4794         48.6004         45.8004
  22918263.7644   22918261.6224   22918266.1224   -6525536.05847  -5075938.95246
       621.9494        484.6464         42.5004         39.9004
  24377754.1304   24377753.9994   24377757.5664   -1775936.01345  -1364829.64045
     -3324.2304      -2590.3144         34.7004         33.4004
 10  1  4  0 20  0.0000000  0  7G17G15G28G 9G27G18G 8
  23036405.6704   23036406.7904   23036409.3214   -9533818.52147  -7413719.17546
      2498.2084       1946.6544         43.9004         41.1004
  20578512.0064   20578512.1804   20578515.3994  -20478775.71448 -15708963.01748
      -895.4814       -697.7774         51.5004         48.7004
  22263055.8404   22263056.3224   22263059.0774  -12167064.36747  -9465578.15547
     -2220.7574      -1730.4724         46.9004         43.9004
  21410263.9694   21410263.9914   21410267.7964  -18188920.88347 -14146590.78547
      2870.9814       2237.1274         47.5004         44.5004
  21590532.2704   21590531.6984   21590536.1134  -16912661.87748 -13164776.37647
      1624.0114       1265.4614         48.6004         45.6004
  22914766.6394   22914766.5564   22914769.8424   -6543908.95747  -5090255.52546
       602.8734        469.7844         42.5004         39.7004
  24396737.2494   24396733.8974   24396746.3904   -1676169.49845  -1287089.45745
     -3326.8704      -2592.3654         34.0004         32.2004
 10  1  4  0 20 30.0000000  0  7G17G15G28G 9G27G18G 8
  23022180.7724   23022180.4284   23022182.8664   -9608577.76247  -7471973.09546
      2485.7244       1936.9374         44.1004         41.4004
  20583674.1104   20583674.2984   20583677.7564  -20451646.65648 -15687823.50848
      -913.1494       -711.5474         51.4004         48.5004
  22275766.3944   22275765.7244   22275769.2444  -12100276.36647  -9413535.54347
     -2231.7884      -1739.0604         46.9004         44.0004
  21393902.2494   21393902.2094   21393905.8764  -18274901.71247 -14213588.82747
      2861.0554       2229.3934         47.5004         44.7004
  21581283.9554   21581283.0764   21581287.1404  -16961266.23048 -13202649.89547
      1616.2744       1259.4394         48.6004         45.6004
  22911381.1254   22911379.3184   22911382.6104   -6561710.14547  -5104126.56846
       583.8654        454.9434         42.5004         40.0004
  24415738.9294   24415741.9004   24415744.5534   -1576319.42345  -1209284.16145
     -3329.6104      -2594.4864         32.8004         32.0004
 10  1  4  0 21  0.0000000  0  7G17G15G28G 9G27G18G 8
  23008025.2794   23008025.3444   23008028.8904   -9682961.75247  -7529934.64346
      2473.2094       1927.1604         44.1004         41.2004
  20588936.6424   20588937.6044   20588941.2404  -20423987.88548 -15666271.23748
      -930.7704       -725.2744         51.4004         48.5004
  22288537.4324   22288537.4694   22288541.6124  -12033158.63947  -9361236.01747
     -2242.7314      -1747.5834         46.7004         43.7004
  21377597.3944   21377597.7924   21377601.3624  -18360584.29847 -14280354.47347
      2851.0904       2221.6304         47.7004         44.7004
  21572078.2114   21572077.8764   21572082.3604  -17009638.41148 -13240342.49647
      1608.5404       1253.4064         48.6004         45.6004
  22908102.4174   22908101.9714   22908103.9364   -6578939.45247  -5117552.02446
       564.7554        440.0864         42.9004         40.2004
  24434751.6744   24434751.0304   24434763.6204   -1476386.78645  -1131414.54645
     -3332.5564      -2596.8124         32.8004         31.9004
 10  1  4  0 21 30.0000000  0  8G17G15G28G 9G27G22G18G 8
  22993941.8794   22993942.6914   22993945.9064   -9756967.81647  -7587601.68246
      2460.5354       1917.3144         44.1004         41.4004
  20594302.2174   20594302.0464   20594305.1954  -20395799.25848 -15644306.08648
      -948.4574       -739.0594         51.4004         48.5004
  22301371.4534   22301372.1634   22301376.0034  -11965713.40447  -9308681.29047
     -2253.6184      -1756.0714         46.5004         43.7004
  21361349.6864   21361349.5864   21361353.6084  -18445967.18047 -14346886.58547
      2841.0734       2213.8234         47.7004         44.7004
  21562916.7714   21562917.1294   21562921.7854  -17057777.85348 -13277853.74047
      1600.7574       1247.3434         48.6004         45.6004
  24535520.5584                                     -69200.58044    -45266.24544
      2205.5614       1718.4304         26.4004         25.8004
  22904930.7794   22904931.2344   22904934.3484   -6595596.19247  -5130531.30146
       545.6624        425.1784         43.0004         40.2004
  24453789.1804   24453787.6524                   -1376372.91545  -1053481.70645
     -3335.1884      -2598.8454         32.1004         31.5004
 10  1  4  0 22  0.0000000  0  8G17G15G28G 9G27G22G18G 8
  22979932.4974   22979932.3944   22979934.7844   -9830592.96647  -7644971.90446
      2447.7974       1907.3764         44.1004         41.1004
  20599766.0134   20599766.5854   20599770.2024  -20367081.56548 -15621928.67048
      -966.0924       -752.8024         51.4004         48.5004
  22314269.1014   22314268.1984   22314272.8554  -11897942.83747  -9255873.05247
     -2264.4164      -1764.4804         46.7004         43.7004
  21345160.1354   21345159.5714   21345163.5124  -18531048.52647 -14413183.73347
      2831.0104       2205.9824         47.9004         44.9004
  21553801.5764   21553801.3964   21553805.4834  -17105683.87248 -13315183.09647
      1592.9724       1241.2734         48.8004         45.8004
                                  24524849.322     -135156.70844    -88968.208 2
      2191.5104       1709.128          26.4004         15.800
  22901872.1174   22901871.0194   22901873.3224   -6611679.59847  -5143063.84446
       526.5624        410.3214         43.0004         40.6004
  24472831.7034                                   -1276278.60145   -975486.17345
     -3337.7944      -2600.8744         31.6004         31.3004
 10  1  4  0 22 30.0000000  0  8G17G15G28G 9G27G22G18G 8
  22965994.6014   22965995.6224   22965998.0304   -9903835.22747  -7702043.79446
      2434.9894       1897.4074         44.1004         41.6004
  20605332.4294   20605332.3924   20605335.6974  -20337834.66848 -15599138.88748
      -983.7234       -766.5364         51.4004         48.5004
  22327227.0334   22327225.9164   22327230.0974  -11829848.64047  -9202812.63647
     -2275.1754      -1772.8514         46.5004         43.3004
  21329026.7014   21329025.8004   21329030.6534  -18615827.26547 -14479245.08947
      2820.8974       2198.1054         47.7004         44.9004
  21544729.3264   21544729.2854   21544733.9654  -17153356.27748 -13352330.41647
      1585.1834       1235.2124         48.8004         45.8004
                                  24524849.322     -200687.34044    -88968.208 2
      2177.2974       1709.128          26.4004         15.800
  22898920.1194   22898919.7214   22898922.1294   -6627189.50847  -5155149.49146
       507.4354        395.4094         43.2004         40.6004
  24491898.0394                                   -1176104.57245   -897428.52045
     -3340.4384      -2602.9514         31.0004         31.0004
 10  1  4  0 23  0.0000000  0  7G17G15G28G 9G27G18G 8
  22952129.9754   22952130.3094   22952135.7344   -9976691.31947  -7758814.76546
      2422.0684       1887.2914         44.4004         41.6004
  20610997.5584   20610998.1484   20611001.4214  -20308059.18348 -15575937.22448
     -1001.3184       -780.2484         51.4004         48.4004
  22340245.7174   22340245.2314   22340248.5564  -11761432.75047  -9149501.55547
     -2285.8714      -1781.2024         46.3004         43.5004
  21312950.7684   21312950.8054   21312955.4874  -18700301.59847 -14545069.23147
      2810.7154       2190.1634         47.9004         44.9004
  21535702.0964   21535701.8414   21535706.6474  -17200794.66648 -13389295.37447
      1577.3674       1229.1154         48.8004         45.9004
  22896078.7724   22896077.6074   22896080.1194   -6642125.47647  -5166787.92846
       488.2674        380.4904         43.6004         40.7004
  24510972.3914                                   -1075851.44844     28025.79643
     -3343.0774      -2604.9954         26.4004         23.4004
 10  1  4  0 23 30.0000000  0  8G17G15G28G 9G27G22G18G 8
  22938340.6674   22938340.3424   22938344.8824  -10049158.97547  -7815283.04846
      2409.0604       1877.1904         44.4004         41.6004
  20616764.4044   20616764.9964   20616768.5594  -20277755.52748 -15552323.99548
     -1018.9264       -793.9644         51.2004         48.4004
  22353326.4524   22353325.6164   22353328.7214  -11692696.88247  -9095941.13347
     -2296.4854      -1789.4754         46.5004         43.5004
  21296934.0694   21296934.4254   21296938.6784  -18784469.68947 -14610654.74047
      2800.4724       2182.1844         47.9004         45.1004
  21526718.7264   21526719.6414   21526723.7694  -17247998.47648 -13426077.56247
      1569.5444       1223.0244         48.8004         45.8004
  24485810.9994                                     -39766.01544    -23946.59343
      2148.5404       1674.1864         26.4004         23.4004
  22893343.4024   22893343.5984   22893347.3114   -6656487.26147  -5177978.93046
       469.1334        365.5434         43.4004         40.6004
  24530064.1604                                    -975521.12354    106173.08354
     -3345.8734      -2605.1044         26.4004         29.6004
 10  1  4  0 24  0.0000000  0  7G17G15G28G 9G27G22G18
  22924624.5364   22924624.7994   22924627.9304  -10121235.19247  -7871446.31246
      2395.9794       1866.9954         44.4004         41.6004
  20622631.7554   20622631.7804   20622635.5074  -20246924.05948 -15528299.47248
     -1036.5064       -807.6644         51.2004         48.4004
  22366466.4474   22366466.4354   22366468.4234  -11623643.06847  -9042132.96347
     -2307.0904      -1797.7334         46.3004         43.5004
  21280976.6804   21280976.4414   21280980.8794  -18868330.05347 -14676000.45347
      2790.1984       2174.1794         47.9004         45.1004
  21517781.9394   21517781.9834   21517786.2324  -17294967.08548 -13462676.47447
      1561.6574       1216.8804         48.8004         45.9004
                                  24480502.250     -104006.85544    -45679.720 2
      2134.1624       1669.413          28.3004         14.000
  22890722.6194   22890720.7274   22890723.7894   -6670274.38847  -5188722.15046
       449.9814        350.6394         43.4004         40.6004
 10  1  4  0 24 30.0000000  0  7G17G15G28G 9G27G22G18
  22910985.8584   22910985.2994   22910988.7804  -10192917.27547  -7927302.45246
      2382.8074       1856.7394         44.8004         41.9004
  20628598.7164   20628599.0044   20628602.6524  -20215565.52248 -15503864.26348
     -1054.0844       -821.3664         51.2004         48.2004
  22379667.8804   22379667.1324   22379669.9024  -11554273.40447  -8988078.68647
     -2317.5664      -1805.8914         46.5004         43.5004
  21265076.9004   21265077.0394   21265081.4224  -18951881.45948 -14741105.43047
      2779.8904       2166.1474         48.1004         45.2004
  21508888.7224   21508888.5854   21508892.9294  -17341700.16648 -13499091.85747
      1553.8474       1210.7854         48.8004         45.8004
                                  24480502.250     -167814.04745    -45679.720 2
      2119.6594       1669.413          34.9004         14.000
  22888207.0354   22888206.3074   22888209.3384   -6683486.22047  -5199017.08946
       430.7864        335.6744         43.4004         40.7004
 10  1  4  0 25  0.0000000  0  7G17G15G28G 9G27G22G18
  22897418.0244   22897418.8014   22897422.8364  -10264203.06047  -7982849.79946
      2369.5474       1846.4204         44.8004         41.9004
  20634666.1344   20634666.7474   20634670.4834  -20183679.64548 -15479018.13848
     -1071.6584       -835.0584         51.0004         48.2004
  22392927.6194   22392927.7044   22392928.9284  -11484589.72047  -8933779.71847
     -2327.9994      -1814.0284         46.3004         43.0004
  21249237.8274   21249237.2254   21249241.0784  -19035121.83248 -14805968.03647
      2769.4784       2158.0354         48.1004         45.2004
  21500040.7394   21500040.7584   21500045.1144  -17388197.28848 -13535323.38547
      1545.9424       1204.6324         48.8004         45.9004
  24449379.5664   24449381.5924   24449384.0444    -231185.35746   -173104.51745
      2105.0494       1640.3044         36.8004         35.5004
  22885803.1654   22885801.4034   22885804.9854   -6696122.75847  -5208863.73746
       411.6094        320.7264         43.4004         40.9004
 10  1  4  0 25 30.0000000  0  7G17G15G28G 9G27G22G18
  22883929.7324   22883929.6324   22883933.8554  -10335089.72347  -8038086.15547
      2356.2104       1836.0174         45.3004         42.5004
  20640835.1314   20640835.0824   20640838.4944  -20151266.91948 -15453761.48348
     -1089.1924       -848.7164         51.0004         48.2004
  22406249.0404   22406247.7334   22406249.6584  -11414594.03347  -8879237.60647
     -2338.3694      -1822.1014         46.2004         43.3004
  21233456.5084   21233456.2844   21233460.4984  -19118049.72248 -14870587.15747
      2759.0294       2149.8954         48.1004         45.1004
  21491237.8574   21491237.3994   21491242.0164  -17434457.66248 -13571370.42347
      1538.0584       1198.4864         48.8004         45.8004
  24437404.8044   24437405.1354   24437409.1954    -294118.42646   -222143.31146
      2090.4724       1628.9464         38.7004         36.7004
  22883505.8544   22883505.9904   22883510.1814   -6708183.46247  -5218261.70346
       392.4144        305.7774         43.6004         40.6004
 10  1  4  0 26  0.0000000  0  7G17G15G28G 9G27G22G18
  22870517.2544   22870517.1714   22870520.2884  -10405574.40947  -8093009.28547
      2342.7334       1825.4864         45.1004         42.1004
  20647102.7224   20647103.0864   20647106.2874  -20118328.10648 -15428094.89548
     -1106.7494       -862.4044         51.0004         48.2004
  22419626.2744   22419625.4634   22419629.0744  -11344288.33347  -8824453.93847
     -2348.6684      -1830.1274         46.3004         43.5004
  21217735.9914   21217735.4364   21217739.5404  -19200663.64848 -14934961.63647
      2748.5374       2141.7164         48.2004         45.2004
  21482479.1254   21482479.2654   21482483.9174  -17480481.15148 -13607232.86947
      1530.1534       1192.3224         48.8004         45.8004
  24425514.0764   24425512.5844   24425513.2354    -356611.76746   -270839.46246
      2075.7654       1617.4824         38.5004         36.2004
  22881321.2074   22881320.1004   22881324.3264   -6719668.35847  -5227210.97346
       373.2104        290.8034         43.2004         40.4004
 10  1  4  0 26 30.0000000  0  7G17G15G28G 9G27G22G18
  22857181.1064   22857180.9134   22857183.9594  -10475654.68347  -8147617.28246
      2329.2444       1815.0064         44.9004         41.9004
  20653470.6944   20653470.7234   20653474.8304  -20084863.83848 -15402018.84448
     -1124.2344       -876.0224         51.0004         48.2004
  22433063.3664   22433063.0714   22433066.0694  -11273674.46747  -8769430.15647
     -2358.9044      -1838.1174         46.3004         43.3004
  21202075.2474   21202075.0764   21202078.4014  -19282962.51348 -14999090.59647
      2738.0304       2133.5364         48.2004         45.2004
  21473766.7744   21473766.4914   21473771.1964  -17526267.24448 -13642910.34047
      1522.2454       1186.1724         48.8004         45.9004
  24413704.0304   24413704.5514   24413706.5774    -418663.37346   -319191.39346
      2061.0034       1605.9764         38.9004         36.7004
  22879245.9294   22879245.4974   22879248.6364   -6730577.16047  -5235711.35646
       354.0294        275.8574         43.0004         40.2004
 10  1  4  0 27  0.0000000  0  7G17G15G28G 9G27G22G18
  22843923.2474   22843923.6624   22843927.0094  -10545328.10647  -8201908.23147
      2315.6144       1804.3694         44.9004         42.5004
  20659938.5874   20659939.1234   20659942.4894  -20050874.34248 -15375533.53948
     -1141.7364       -889.6664         51.0004         48.0004
  22446559.1574   22446559.0434   22446561.7564  -11202754.44047  -8714167.79347
     -2369.0784      -1846.0244         46.3004         43.3004
  21186474.5484   21186473.7974   21186478.1724  -19364944.38048 -15062972.55747
      2727.4254       2125.2624         48.2004         45.2004
  21465099.7224   21465099.4824   21465103.3504  -17571815.26448 -13678402.30747
      1514.2794       1179.9664         48.9004         45.9004
  24401984.5804   24401982.8114   24401982.9854    -480271.27346   -367197.50946
      2046.1524       1594.4084         39.4004         37.3004
  22877278.8664   22877278.5604   22877282.9914   -6740909.42847  -5243762.49046
       334.7694        260.8704         43.0004         40.4004
 10  1  4  0 27 30.0000000  0  7G17G15G28G 9G27G22G18
  22830742.2474   22830741.7554   22830745.3924  -10614592.09047  -8255880.14347
      2301.9674       1793.7294         45.3004         42.3004
  20666505.8564   20666506.4284   20666510.3304  -20016360.53048 -15348639.66748
     -1159.2144       -903.2834         50.8004         48.0004
  22460112.8524   22460112.2624   22460115.1574  -11131530.15747  -8658668.33947
     -2379.2104      -1853.9194         46.2004         43.2004
  21170933.9874   21170933.9184   21170937.7824  -19446607.67648 -15126606.28147
      2716.8014       2116.9904         48.1004         45.2004
  21456478.0094   21456477.2304   21456481.0824  -17617124.80048 -13713708.43747
      1506.3504       1173.7784         48.9004         45.8004
  24390339.4324   24390340.8184   24390344.0984    -541433.39146   -414856.30446
      2031.2734       1582.8144         38.7004         36.2004
  22875422.2904   22875423.3564   22875425.8504   -6750664.78947  -5251364.07646
       315.5684        245.8984         43.0004         40.4004
 10  1  4  0 28  0.0000000  0  7G17G15G28G 9G27G22G18
  22817639.9374   22817639.8274   22817643.1264  -10683443.86447  -8309530.84946
      2288.1554       1782.9704         45.1004         41.9004
  20673174.3234   20673174.6114   20673177.6724  -19981322.34648 -15321337.20348
     -1176.6674       -916.8834         50.8004         48.0004
  22473723.4124   22473723.0494   22473726.3784  -11060003.78947  -8602933.50047
     -2389.2614      -1861.7624         46.0004         43.2004
  21155455.8284   21155454.6604   21155459.0054  -19527950.77948 -15189990.49247
      2706.0784       2108.6304         48.2004         45.2004
  21447900.3714   21447900.2264   21447904.4664  -17662195.40548 -13748828.38247
      1498.3924       1167.5744         48.8004         45.6004
  24378790.8674   24378789.3094   24378791.0054    -602147.68946   -462166.08546
      2016.4214       1571.2374         39.0004         36.9004
  22873676.7474   22873675.5494   22873678.4234   -6759843.36747  -5258516.24146
       296.3474        230.8984         42.9004         39.9004
 10  1  4  0 28 30.0000000  0  8G17G15G28G12G 9G27G22G18
  22804617.4564   22804617.7194   22804619.9824  -10751880.84647  -8362858.36647
      2274.2664       1772.1494         45.1004         42.1004
  20679941.5304   20679941.4324   20679944.8274  -19945760.43448 -15293626.64147
     -1194.1044       -930.4694         50.8004         47.8004
  22487391.4234   22487390.7654   22487395.1204  -10988176.87347  -8546964.45847
     -2399.2374      -1869.5344         46.0004         42.8004
  24811478.4834                                    -133333.29644    -77602.79144
      3790.3134       2953.4394         26.4004         27.9004
  21140036.8524   21140037.0964   21140040.7494  -19608971.90748 -15253123.82647
      2695.3024       2100.2334         48.2004         45.2004
  21439369.4374   21439369.1624   21439373.6904  -17707026.55848 -13783761.74247
      1490.3644       1161.3274         48.8004         45.8004
  24367319.8254   24367320.5054   24367323.7354    -662412.28546   -509125.54246
      2001.2614       1559.4194         39.4004         37.1004
  22872039.9844   22872039.8934   22872041.3454   -6768444.91647  -5265218.79146
       277.1344        215.9714         42.7004         40.0004
 10  1  4  0 29  0.0000000  0  8G17G15G28G12G 9G27G22G18
  22791673.5484   22791673.2424   22791676.4244  -10819900.52947  -8415860.69647
      2260.3584       1761.3154         44.9004         42.1004
  20686807.3274   20686807.8474   20686811.7214  -19909675.41648 -15265508.47247
     -1211.5474       -944.0624         50.7004         47.8004
  22501116.2794   22501115.9984   22501119.4924  -10916051.47947  -8490762.85647
     -2409.1194      -1877.2344         45.8004         42.8004
  24789846.7224                                    -246999.83144   -166174.00845
      3787.2384       2951.1034         26.4004         35.2004
  21124681.3234   21124680.9424   21124684.8174  -19689669.57348 -15316005.10747
      2684.5054       2091.8154         48.4004         45.6004
  21430884.3844   21430883.8984   21430887.9564  -17751617.85248 -13818508.20147
      1482.3704       1155.0984         48.8004         45.8004
  24355938.7964   24355937.9664   24355940.8994    -722225.13246   -555732.98446
      1986.1944       1547.6844         39.2004         36.7004
  22870512.0994   22870511.1344   22870514.3574   -6776469.35247  -5271471.63846
       257.8834        200.9474         42.7004         39.7004
 10  1  4  0 29 30.0000000  0  8G17G15G28G12G 9G27G22G18
  22778808.7904   22778809.1844   22778812.6054  -10887500.42247  -8468535.91547
      2246.2794       1750.3554         44.9004         42.1004
  20693774.3314   20693774.5984   20693777.5184  -19873067.83448 -15236983.09947
     -1228.9644       -957.6384         50.7004         47.8004
  22514898.3454   22514897.7434   22514901.3594  -10843629.79647  -8434330.36447
     -2418.9594      -1884.8874         45.8004         42.8004
  24768234.4364                   24768236.9224    -360573.93945   -254673.43645
      3784.1864       2948.7164         34.3004         35.3004
  21109386.0314   21109386.4424   21109389.9374  -19770042.05448 -15378633.01047
      2673.6524       2083.3724         48.6004         45.4004
  21422444.6004   21422444.2104   21422448.5604  -17795968.64248 -13853067.26047
      1474.3334       1148.8334         48.8004         45.8004
  24344646.3034   24344645.3044   24344645.3384    -781584.59646   -601987.11046
      1971.0724       1535.8994         39.4004         37.1004
  22869095.4494   22869094.6944   22869098.0014   -6783916.53347  -5277274.65946
       238.6164        185.9124         42.5004         39.9004
 10  1  4  0 30  0.0000000  0  8G17G15G28G12G 9G27G22G18
  22766026.6064   22766026.5604   22766029.6274  -10954678.04147  -8520882.10647
      2232.2074       1739.3744         45.1004         42.3004
  20700839.7344   20700840.1294   20700843.2774  -19835938.36248 -15208051.06947
     -1246.3444       -971.1724         50.7004         47.8004
  22528735.4914   22528734.7464   22528738.4624  -10770913.58647  -8377668.37447
     -2428.7504      -1892.5394         45.6004         42.5004
  24746642.1624   24746638.9144   24746643.9904    -474053.56446   -343099.09545
      3781.0394       2946.2644         37.0004         35.3004
  21094154.7714   21094154.1304   21094157.6914  -19850087.86548 -15441006.34947
      2662.7434       2074.8704         48.6004         45.4004
  21414050.4744   21414049.9814   21414054.8504  -17840078.41248 -13887438.50347
      1466.3004       1142.5754         48.9004         45.9004
  24333436.3224   24333433.0354   24333436.8704    -840488.66546   -647886.38546
      1955.9034       1524.0774         38.9004         36.0004
  22867788.2054   22867787.1264   22867790.8104   -6790786.11447  -5282627.61046
       219.3554        170.9194         42.2004         39.5004
 10  1  4  0 30 30.0000000  0  8G17G15G28G12G 9G27G22G18
  22753322.3924   22753323.0284   22753326.7904  -11021430.61647  -8572897.10647
      2217.9844       1728.3104         44.9004         42.1004
  20708004.2604   20708004.4114   20708008.2574  -19798287.92948 -15178713.08847
     -1263.7144       -984.7104         50.7004         47.7004
  22542627.7144   22542627.4724   22542631.6654  -10697905.11247  -8320778.64947
     -2438.4684      -1900.1054         45.5004         42.6004
  24725063.7984   24725063.6704   24725067.3374    -587437.39346   -431450.12346
      3777.8784       2943.8064         38.2004         36.4004
  21078985.3424   21078984.2644   21078988.3694  -19929805.82648 -15503124.22047
      2651.7824       2066.3304         48.4004         45.4004
  21405702.4624   21405702.6414   21405707.0974  -17883946.68748 -13921621.56847
      1458.2384       1136.2874         48.9004         46.1004
  24322311.3744   24322309.5214   24322312.5454    -898935.56146   -693429.41545
      1940.5674       1512.1334         37.6004         35.0004
  22866591.1444   22866591.3424   22866593.0194   -6797078.17247  -5287530.54846
       200.1314        155.9464         42.3004         39.7004
 10  1  4  0 31  0.0000000  0  8G17G15G28G12G 9G27G22G18
  22740702.0084   22740702.3234   22740705.4274  -11087756.03347  -8624579.23447
      2203.6844       1717.1394         45.1004         42.3004
  20715268.1964   20715268.2714   20715272.0194  -19760116.66048 -15148969.25747
     -1281.0514       -998.2234         50.7004         47.7004
  22556576.7174   22556576.8004   22556580.4344  -10624605.80647  -8263662.29447
     -2448.1404      -1907.6404         45.6004         42.8004
  24703503.4364   24703505.6314   24703510.6384    -700723.26746   -519724.84846
      3774.5594       2941.2184         39.0004         36.9004
  21063876.9194   21063877.4414   21063881.3394  -20009193.99848 -15564985.13347
      2640.7574       2057.7254         48.6004         45.6004
  21397401.1494   21397400.6534   21397405.4344  -17927573.16248 -13955616.21747
      1450.1914       1130.0174         49.1004         45.9004
  24311277.3014   24311276.9744   24311280.4564    -956923.19946   -738614.59345
      1925.2614       1500.2134         37.3004         35.3004
  22865503.2584   22865503.3304   22865505.9904   -6802792.89647  -5291983.60946
       180.8404        140.9214         42.5004         40.0004
 10  1  4  0 31 30.0000000  0  8G17G15G28G12G 9G27G22G18
  22728161.8714   22728162.3644   22728165.9984  -11153651.52747  -8675926.38947
      2189.3504       1705.9984         45.1004         42.5004
  20722630.8324   20722631.1364   20722634.3574  -19721425.26148 -15118820.13147
     -1298.3944      -1011.7374         50.7004         47.7004
  22570580.6354   22570579.3754   22570583.5074  -10551017.84047  -8206321.02647
     -2457.7474      -1915.1254         45.6004         42.6004
  24681966.8124   24681967.5144   24681972.6304    -813909.26346   -607921.77746
      3771.1664       2938.5694         39.4004         37.1004
  21048833.8204   21048833.3014   21048837.3124  -20088250.92448 -15626587.91847
      2629.6914       2049.1034         48.6004         45.8004
  21389145.1044   21389144.7784   21389149.3864  -17970957.38548 -13989422.10447
      1442.0934       1123.7044         48.9004         45.9004
  24300335.0114   24300332.7304   24300330.7824   -1014449.80646   -783440.58046
      1909.8854       1488.2224         37.8004         36.0004
  22864526.5534   22864525.4264   22864529.4104   -6807930.01947  -5295986.57246
       161.5894        125.8794         42.9004         40.4004
 10  1  4  0 32  0.0000000  0  8G17G15G28G12G 9G27G22G18
  22715705.4554   22715705.4534   22715708.6354  -11219114.72947  -8726936.67647
      2174.8874       1694.7064         45.3004         42.5004
  20730092.1464   20730092.7044   20730095.9924  -19682214.62048 -15088266.39747
     -1315.6704      -1025.1984         50.7004         47.7004
  22584637.7784   22584637.1444   22584640.3774  -10477143.32247  -8148756.45447
     -2467.2474      -1922.5304         45.5004         42.5004
  24660449.2874   24660448.0654   24660451.4984    -926993.87446   -696039.62346
      3767.7474       2935.9054         39.6004         37.1004
  21033852.3004   21033852.2214   21033856.4674  -20166975.00048 -15687931.34747
      2618.5604       2040.4324         48.8004         45.8004
  21380935.7744   21380935.5094   21380939.4574  -18014098.78448 -14023038.78047
      1433.9874       1117.3924         48.9004         45.9004
  24289471.5304   24289470.9404   24289474.2254   -1071513.65446   -827905.88446
      1894.4094       1476.1664         38.9004         36.9004
  22863657.0264   22863656.5754   22863660.6234   -6812489.56447  -5299539.51546
       142.3684        110.9404         42.9004         39.9004
 10  1  4  0 32 30.0000000  0  8G17G15G28G12G 9G27G22G18
  22703330.6714   22703331.2694   22703333.7064  -11284143.29647  -8777608.27947
      2160.3394       1683.3934         45.5004         42.6004
  20737652.6294   20737652.8344   20737656.6874  -19642485.44048 -15057308.59047
     -1332.9464      -1038.6604         50.5004         47.7004
  22598750.4414   22598750.2034   22598752.7964  -10402984.23047  -8090970.14247
     -2476.6964      -1929.8924         45.5004         42.5004
  24638950.1354   24638949.1064   24638952.8154   -1039975.20046   -784076.97346
      3764.2944       2933.2184         39.2004         36.7004
  21018935.7144   21018935.8114   21018939.8044  -20245364.55948 -15749014.10447
      2607.3874       2031.7284         48.9004         45.9004
  21372772.7734   21372772.2824   21372776.7934  -18056996.79448 -14056465.79547
      1425.8694       1111.0664         48.9004         45.9004
  24278701.8074   24278700.9644   24278703.9064   -1128112.91146   -872009.23646
      1878.8884       1464.0694         39.2004         36.7004
  22862901.0014   22862899.9394   22862902.9794   -6816471.74247  -5302642.51546
       123.1124         95.9664         42.5004         39.7004
 10  1  4  0 33  0.0000000  0  8G17G15G28G12G 9G27G22G18
  22691038.5164   22691039.2654   22691042.1304  -11348734.57747  -8827939.16247
      2145.7224       1672.0004         45.5004         42.6004
  20745311.0174   20745311.8694   20745315.4314  -19602238.10748 -15025947.03847
     -1350.1914      -1052.1004         50.7004         47.7004
  22612916.6124   22612915.6504   22612918.0684  -10328542.04947  -8032963.24347
     -2486.0754      -1937.2044         45.5004         42.5004
  24617468.0174   24617468.3194   24617472.8034   -1152851.56846   -872032.61346
      3760.7324       2930.4414         39.0004         36.6004
  21004082.7574   21004082.3674   21004086.7604  -20323417.84448 -15809834.83647
      2596.1514       2022.9754         48.9004         45.9004
  21364656.2434   21364655.6984   21364659.2204  -18099650.93148 -14089702.78547
      1417.7344       1104.7314         48.9004         46.1004
  24268022.2504   24268018.0194   24268021.4614   -1184245.32946   -915748.79145
      1863.3574       1451.9604         38.3004         35.9004
  22862252.6104   22862251.8284   22862254.7194   -6819876.14547  -5305295.30846
       103.8624         80.9284         42.3004         39.7004
 10  1  4  0 33 30.0000000  0  8G17G15G28G12G 9G27G22G18
  22678832.4224   22678832.4374   22678834.9424  -11412886.09747  -8877927.35147
      2131.0224       1660.5434         45.6004         42.8004
  20753068.9374   20753069.0384   20753072.5354  -19561473.62148 -14994182.50047
     -1367.4304      -1065.5274         50.7004         47.7004
  22627135.7514   22627135.5694   22627138.6924  -10253819.12647  -7974737.58447
     -2495.4654      -1944.5174         45.5004         42.5004
  24596009.8574   24596008.9394   24596013.0434   -1265621.19146   -959905.06646
      3757.2184       2927.7004         38.9004         36.7004
  20989293.6074   20989293.7204   20989297.4744  -20401133.60748 -15870392.56447
      2584.8794       2014.1894         48.9004         45.8004
  21356585.2504   21356585.0934   21356589.0944  -18142060.66048 -14122749.33047
      1409.5884       1098.3874         48.9004         45.9004
  24257425.8794   24257426.7044   24257428.7614   -1239909.68546   -959123.59945
      1847.6814       1439.7494         38.0004         35.7004
  22861714.6224   22861714.8274   22861717.0084   -6822703.26147  -5307498.26646
        84.6344         65.9474         42.7004         40.2004
 10  1  4  0 34  0.0000000  0  8G17G15G28G12G 9G27G22G18
  22666710.0244   22666708.1054   22666711.9174  -11476595.71547  -8927571.20447
      2116.2534       1649.0294         45.6004         42.6004
  20760924.1984   20760924.6234   20760927.6914  -19520192.75248 -14962015.61147
     -1384.6294      -1078.9314         50.7004         47.7004
  22641407.2584   22641407.7694   22641410.5524  -10178817.34247  -7916294.64947
     -2504.7114      -1951.7254         45.5004         42.6004
  24574568.9724   24574569.5284   24574575.1314   -1378281.84746  -1047692.55546
      3753.5674       2924.8624         39.2004         36.7004
  20974569.6844   20974569.3074   20974573.6134  -20478510.09548 -15930685.92847
      2573.5474       2005.3544         48.9004         45.8004
  21348561.5644   21348561.4314   21348565.6224  -18184225.54448 -14155605.07647
      1401.4184       1092.0144         48.9004         45.9004
  24246924.7574   24246924.8634   24246925.4364   -1295104.02446  -1002132.26145
      1832.0004       1427.5374         38.0004         35.5004
  22861286.9594   22861286.5744   22861289.5194   -6824953.08847  -5309251.38546
        65.3634         50.9374         43.0004         40.4004
 10  1  4  0 34 30.0000000  0  8G17G15G28G12G 9G27G22G18
  22654669.4344   22654669.2224   22654672.2104  -11539860.97147  -8976868.79947
      2101.4174       1637.4724         45.6004         42.8004
  20768878.0624   20768878.0404   20768881.4574  -19478396.23548 -14929446.91747
     -1401.7984      -1092.3114         50.5004         47.7004
  22655732.8134   22655732.3984   22655735.5204  -10103538.74347  -7857635.99547
     -2513.8524      -1958.8424         45.6004         42.6004
  24553150.7964   24553152.6504   24553157.5754   -1490832.19946  -1135394.14746
      3749.8244       2921.9424         39.0004         36.7004
  20959909.4994   20959909.7624   20959913.4584  -20555545.90148 -15990713.82047
      2562.1554       1996.4814         48.8004         45.8004
  21340584.3544   21340584.1244   21340588.6824  -18226144.92648 -14188269.51347
      1393.2214       1085.6254         48.9004         46.1004
  24236510.6614   24236508.5784   24236511.9034   -1349826.64646  -1044773.27245
      1816.2784       1415.2774         37.1004         34.6004
  22860968.9894   22860967.8944   22860970.4294   -6826625.68647  -5310554.73846
        46.1294         35.9464         43.2004         40.2004
 10  1  4  0 35  0.0000000  0  8G17G15G28G12G 9G27G22G18
  22642714.6964   22642715.0384   22642718.4144  -11602679.22747  -9025818.07647
      2086.4634       1625.8204         45.6004         42.6004
  20776929.9254   20776930.2444   20776933.1904  -19436084.51948 -14896476.76647
     -1418.9714      -1105.6924         50.5004         47.7004
  22670110.2194   22670109.6084   22670112.9504  -10027985.09447  -7798763.02347
     -2523.0234      -1965.9984         45.5004         42.5004
  24531759.9974   24531759.0464   24531762.0714   -1603270.04246  -1223008.06746
      3746.0494       2919.0004         39.4004         36.9004
  20945315.7124   20945315.0754   20945319.3524  -20632239.48348 -16050475.05047
      2550.7354       1987.5884         48.8004         45.8004
  21332654.3844   21332654.0744   21332658.1274  -18267818.34848 -14220742.30247
      1384.9994       1079.2224         48.9004         45.9004
  24226190.1764   24226187.9094   24226187.6444   -1404075.70346  -1087045.16345
      1800.4184       1402.9254         36.8004         34.8004
  22860759.7844   22860758.8984   22860763.0624   -6827721.34847  -5311408.51146
        26.9224         20.9684         43.0004         40.2004
 10  1  4  0 35 30.0000000  0  8G17G15G28G12G 9G27G22G18
  22630846.5694   22630847.0954   22630850.2304  -11665048.05747  -9074417.17047
      2071.4234       1614.1034         45.6004         42.6004
  20785079.9734   20785079.5684   20785082.6424  -19393258.53648 -14863105.88647
     -1436.1024      -1119.0404         50.5004         47.5004
  22684540.1044   22684539.7684   22684542.3924   -9952158.49747  -7739677.35547
     -2532.0644      -1973.0234         45.5004         42.6004
  24510385.2164   24510383.4374   24510385.8984   -1715593.93746  -1310533.15446
      3742.1964       2915.9974         39.2004         36.7004
  20930787.9434   20930786.3594   20930790.7344  -20708589.02048 -16109968.18647
      2539.2184       1978.6144         48.8004         45.8004
  21324771.2884   21324770.8604   21324775.0624  -18309245.30148 -14253023.03747
      1376.7834       1072.8124         48.9004         45.9004
  24215954.5734   24215951.6874   24215956.1684   -1457849.47546  -1128946.88245
      1784.5974       1390.5974         36.3004         34.1004
  22860661.9194   22860661.0214   22860663.6394   -6828240.16647  -5311812.80746
         7.7034          6.0114         43.0004         40.2004
 10  1  4  0 36  0.0000000  0  8G17G15G28G12G 9G27G22G18
  22619064.5934   22619064.4014   22619067.9264  -11726965.08947  -9122664.21447
      2056.3534       1602.3534         45.6004         42.8004
  20793326.6424   20793326.5144   20793329.7624  -19349919.05348 -14829334.85147
     -1453.1694      -1132.3404         50.5004         47.5004
  22699021.5574   22699020.0444   22699023.0884   -9876060.60947  -7680380.27447
     -2541.0814      -1980.0704         45.6004         42.5004
  24489031.1184   24489030.6304   24489032.8374   -1827801.69246  -1397967.75846
      3738.3044       2912.9614         39.2004         36.9004
  20916323.4234   20916323.4344   20916327.5384  -20784592.90548 -16169191.99647
      2527.6704       1969.6114         48.9004         45.9004
  21316934.4054   21316934.5324   21316938.6624  -18350425.34748 -14285111.37647
      1368.5474       1066.4004         48.9004         45.9004
  24205813.9484   24205808.4794   24205817.4504   -1511146.28345  -1170476.87445
      1768.5734       1378.1024         34.9004         32.9004
  22860670.8384   22860672.0424   22860673.9114   -6828182.06847  -5311767.56946
       -11.5464         -9.0034         43.0004         40.0004
 10  1  4  0 36 30.0000000  0  8G17G15G28G12G 9G27G22G18
  22607367.8294   22607368.9854   22607371.1104  -11788428.20347  -9170557.55147
      2041.1844       1590.5284         45.8004         43.0004
  20801670.8744   20801671.4664   20801675.0314  -19306066.92348 -14795164.36447
     -1470.3034      -1145.6934         50.3004         47.5004
  22713552.5644   22713552.3384   22713555.6504   -9799693.54647  -7620873.47947
     -2550.0314      -1987.0314         45.5004         42.6004
  24467697.4924   24467698.8194   24467702.6334   -1939892.01746  -1485310.88646
      3734.3264       2909.8624         39.0004         36.6004
  20901927.3254   20901926.8594   20901930.4574  -20860249.72348 -16228145.36347
      2516.1204       1960.6154         48.9004         46.1004
  21309145.5544   21309145.1584   21309149.6904  -18391357.99548 -14317006.94047
      1360.2794       1059.9604         49.1004         46.1004
  24195753.7154   24195755.1124   24195763.5124   -1563964.47345  -1211633.94245
      1752.5394       1365.6154         34.2004         32.9004
  22860792.1284   22860792.8064   22860796.1374   -6827547.55647  -5311273.16046
       -30.7724        -23.9794         43.0004         40.4004
 10  1  4  0 37  0.0000000  0  8G17G15G28G12G 9G27G22G18
  22595759.5314   22595759.5944   22595762.8334  -11849435.00347  -9218095.28847
      2025.9174       1578.6314         46.2004         43.2004
  20810113.5434   20810113.6314   20810116.8674  -19261703.23448 -14760595.25647
     -1487.3024      -1158.9434         50.3004         47.5004
  22728134.9814   22728135.2964   22728137.9814   -9723058.99647  -7561158.24947
     -2558.9004      -1993.9494         45.5004         42.5004
  24446389.1344   24446391.5484   24446396.1584   -2051862.90946  -1572560.93746
      3730.3104       2906.7304         39.4004         36.9004
  20887595.6224   20887595.5944   20887600.1764  -20935557.70348 -16286826.89347
      2504.4214       1951.5024         49.1004         45.9004
  21301404.1814   21301403.4434   21301407.2404  -18432042.76248 -14348709.34447
      1352.0334       1053.5334         49.1004         46.3004
  24185800.4604   24185804.0134   24185803.0434   -1616302.14346  -1252416.46345
      1736.4974       1353.1134         36.1004         34.8004
  22861023.4444   22861023.9924   22861025.8894   -6826336.76847  -5310329.73246
       -49.9594        -38.9264         43.0004         40.4004
 10  1  4  0 37 30.0000000  0  8G17G15G28G12G 9G27G22G18
  22584236.1664   22584237.3294   22584240.7794  -11909983.13247  -9265275.65547
      2010.5834       1566.6854         46.2004         43.3004
  20818652.0694   20818652.6154   20818656.1214  -19216828.46748 -14725627.91247
     -1504.3494      -1172.2214         50.3004         47.3004
  22742767.7454   22742768.3044   22742772.4634   -9646159.33647  -7501236.41747
     -2567.7364      -2000.8274         45.1004         42.1004
  24425109.0864   24425106.9494   24425114.1554   -2163712.94446  -1659716.79046
      3726.2414       2903.5624         39.4004         37.1004
  20873331.8224   20873332.0714   20873335.8984  -21010515.55748 -16345235.60047
      2492.7434       1942.3954         48.9004         45.9004
  21293708.2824   21293708.4704   21293713.0154  -18472479.17148 -14380218.22147
      1343.7344       1047.0694         49.1004         46.1004
  24175935.4724   24175935.3414   24175935.9634   -1668157.80446  -1292823.47445
      1720.4914       1340.6364         36.8004         35.2004
  22861361.6624   22861363.0654   22861365.5784   -6824550.03647  -5308937.47346
       -69.1644        -53.8984         42.7004         40.0004
 10  1  4  0 38  0.0000000  0  8G17G15G28G12G 9G27G22G18
  22572804.6824   22572803.3684   22572806.2354  -11970070.17447  -9312096.71347
      1995.1634       1554.6734         46.2004         43.3004
  20827288.9044   20827289.2304   20827292.6764  -19171443.51248 -14690263.02447
     -1521.3154      -1185.4374         50.3004         47.3004
  22757451.9454   22757451.2514   22757455.7454   -9568996.33447  -7441109.41047
     -2576.4674      -2007.6214         45.1004         42.3004
  24403847.2664   24403848.5444   24403851.8214   -2275439.71646  -1746776.62446
      3722.1004       2900.3364         39.7004         37.4004
  20859135.3744   20859135.1104   20859139.1914  -21085121.64448 -16403370.19947
      2480.9734       1933.2264         48.9004         45.9004
  21286060.9684   21286060.7704   21286065.2764  -18512666.63348 -14411533.11747
      1335.4164       1040.5884         49.1004         46.1004
  24166157.3714   24166157.4384   24166158.4244   -1719529.70146  -1332853.54945
      1704.3294       1328.0474         36.8004         34.6004
  22861814.3934   22861812.5174   22861815.9014   -6822187.42747  -5307096.50546
       -88.3494        -68.8574         42.5004         40.0004
 10  1  4  0 38 30.0000000  0  8G17G15G28G12G 9G27G22G18
  22561457.4394   22561457.5104   22561460.1764  -12029693.78747  -9358556.68147
      1979.6984       1542.6144         46.2004         43.3004
  20836023.0444   20836022.8074   20836025.7954  -19125549.29448 -14654501.29547
     -1538.3154      -1198.6834         50.2004         47.3004
  22772185.8254   22772185.4224   22772189.0094   -9491571.94447  -7380778.71846
     -2585.1574      -2014.4104         44.9004         41.9004
  24382611.9804   24382611.1784   24382612.8614   -2387041.85146  -1833739.31946
      3717.9574       2897.1034         40.1004         37.8004
  20845004.9244   20845004.9924   20845008.9634  -21159374.37048 -16461229.45847
      2469.2024       1924.0564         48.9004         45.8004
  21278461.3634   21278460.9454   21278465.2564  -18552604.56448 -14442653.57247
      1327.1004       1034.1044         49.1004         46.1004
  24156477.7674   24156476.2044   24156474.5974   -1770416.31246  -1372505.44045
      1688.1094       1315.4034         36.1004         34.0004
  22862371.3954   22862372.2274   22862374.1854   -6819249.65847  -5304807.34546
      -107.5064        -83.7894         42.7004         40.0004
 10  1  4  0 39  0.0000000  0  8G17G15G28G12G 9G27G22G18
  22550199.6774   22550199.9344   22550202.7644  -12088851.81147  -9404653.83047
      1964.1534       1530.5094         46.2004         43.2004
  20844852.1444   20844852.4794   20844856.6814  -19079146.86548 -14618343.56747
     -1555.2094      -1211.8544         50.2004         47.2004
  22786969.6384   22786968.0374   22786971.1714   -9413888.05647  -7320245.80346
     -2593.7724      -2021.1264         44.8004         41.6004
  24361398.1894   24361397.6444   24361400.1524   -2498517.48046  -1920603.43246
      3713.7284       2893.8144         40.1004         37.3004
  20830942.8174   20830942.3864   20830946.4274  -21233272.27248 -16518812.23147
      2457.2944       1914.7744         48.9004         45.9004
  21270909.1224   21270908.8974   21270913.0284  -18592292.48648 -14473579.22547
      1318.7424       1027.5924         49.3004         46.3004
  24146888.7154   24146887.9364   24146885.8114   -1820815.48646  -1411777.61745
      1671.8294       1302.7314         36.1004         34.3004
  22863040.6924   22863039.5144   22863042.4554   -6815736.86447  -5302070.10646
      -126.6614        -98.7024         42.5004         39.9004
 10  1  4  0 39 30.0000000  0  8G17G15G28G12G 9G27G22G18
  22539031.4734   22539031.3694   22539034.7354  -12147542.13147  -9450386.54247
      1948.5074       1518.3204         46.2004         43.2004
  20853779.8184   20853779.7934   20853783.1684  -19032237.06348 -14581790.50547
     -1572.1254      -1225.0294         50.2004         47.2004
  22801800.1684   22801799.9294   22801803.1154   -9335946.58247  -7259512.19546
     -2602.3414      -2027.7904         44.8004         41.8004
  24340209.3494   24340209.4894   24340212.7004   -2609864.62946  -2007367.43546
      3709.4184       2890.4524         40.1004         37.6004
  20816947.9524   20816948.1264   20816952.4584  -21306813.40348 -16576116.99547
      2445.4054       1905.5134         48.9004         45.9004
  21263404.4964   21263404.1044   21263408.5684  -18631729.90248 -14504309.67547
      1310.3884       1021.0824         49.3004         46.3004
  24137384.4624   24137383.6834   24137389.4634   -1870726.29846  -1450669.13445
      1655.5084       1289.9934         36.3004         34.3004
  22863818.6534   22863816.8444   22863822.4144   -6811649.24147  -5298884.96146
      -145.8414       -113.6524         42.3004         39.7004
 10  1  4  0 40  0.0000000  0  8G17G15G28G12G 9G27G22G18
  22527952.7934   22527952.2594   22527956.1484  -12205762.35047  -9495752.94547
      1932.8194       1506.0894         46.3004         43.3004
  20862802.4144   20862802.5194   20862805.5914  -18984820.65948 -14544842.66447
     -1588.9774      -1238.1674         50.2004         47.2004
  22816680.5954   22816680.3434   22816683.9444   -9257749.40047  -7198579.31746
     -2610.8024      -2034.3884         44.6004         41.6004
  24319048.0464   24319046.1734   24319048.3444   -2721081.89346  -2094030.22646
      3705.0094       2887.0274         40.1004         37.6004
  20803022.4714   20803021.9384   20803025.9214  -21379996.48348 -16633142.76247
      2433.4344       1896.1784         49.1004         46.1004
  21255947.2624   21255947.1614   21255951.4424  -18670916.37948 -14534844.58847
      1302.0214       1014.5634         49.3004         46.3004
  24127986.6194   24127985.4444   24127982.3164   -1920147.04846  -1489178.76145
      1639.1824       1277.2854         37.0004         35.3004
  22864706.5024   22864705.3014   22864708.3624   -6806987.29347  -5295252.27646
      -164.9654       -128.5294         42.3004         39.9004
 10  1  4  0 40 30.0000000  0  8G17G15G28G12G 9G27G22G18
  22516962.7644   22516963.1174   22516966.5914  -12263510.12647  -9540751.21247
      1917.0054       1493.7584         46.3004         43.3004
  20871921.4244   20871921.4304   20871924.9674  -18936898.94848 -14507501.10847
     -1605.8124      -1251.2804         50.0004         47.0004
  22831609.1584   22831609.1874   22831612.3164   -9179298.64847  -7137448.86646
     -2619.2324      -2040.9634         44.6004         41.9004
  24297904.5394   24297905.2624   24297909.3024   -2832167.01046  -2180590.06646
      3700.5844       2883.5754         40.3004         37.9004
  20789163.6464   20789164.1474   20789167.7274  -21452819.89748 -16689888.26347
      2421.4274       1886.8264         48.9004         45.9004
  21248538.4634   21248538.1894   21248542.4524  -18709851.20948 -14565183.41147
      1293.6104       1008.0114         49.3004         46.3004
  24118673.7744   24118673.5834   24118672.7254   -1969076.00246  -1527305.25246
      1622.7274       1264.4614         38.2004         36.4004
  22865702.0244   22865702.6484   22865703.1744   -6801751.35947  -5291172.36146
      -184.0844       -143.4344         42.3004         39.7004
 10  1  4  0 41  0.0000000  0  8G17G15G28G12G 9G27G22G18
  22506066.4234   22506065.8004   22506068.5684  -12320783.04047  -9585379.45447
      1901.1554       1481.4254         46.3004         43.5004
  20881136.8394   20881137.0474   20881140.8294  -18888472.49748 -14469766.24447
     -1622.5984      -1264.3624         50.0004         47.2004
  22846585.7244   22846585.8174   22846589.0524   -9100596.30147  -7076122.35946
     -2627.5764      -2047.4674         44.8004         41.9004
  24276789.6914   24276791.5764   24276795.5794   -2943118.67146  -2267045.88046
      3696.0864       2880.0734         39.7004         37.3004
  20775375.3774   20775375.3124   20775379.1734  -21525281.82448 -16746352.09447
      2409.3544       1877.4184         49.1004         46.1004
  21241177.8924   21241177.1954   21241181.3804  -18748533.88248 -14595325.74547
      1285.1994       1001.4544         49.3004         46.3004
  24109456.6444   24109454.4054   24109457.3414   -2017511.20946  -1565046.93746
      1606.2844       1251.6454         38.2004         36.0004
  22866807.7964   22866807.1524   22866809.8084   -6795941.80847  -5286645.46146
      -203.2264       -158.3564         42.2004         39.5004
 10  1  4  0 41 30.0000000  0  8G17G15G28G12G 9G27G22G18
  22495256.4764   22495256.9334   22495260.1934  -12377579.19147  -9629636.18147
      1885.2344       1469.0174         46.3004         43.5004
  20890447.5994   20890447.6374   20890451.6324  -18839542.47248 -14431638.96947
     -1639.3704      -1277.4314         50.0004         47.0004
  22861609.2084   22861610.1064   22861613.1304   -9021643.97947  -7014601.06346
     -2635.9504      -2054.0034         44.4004         41.2004
  24255708.0204   24255705.8514   24255709.8474   -3053934.95446  -2353396.23646
      3691.6124       2876.5794         40.3004         38.1004
  20761655.5164   20761654.8934   20761659.2394  -21597381.08548 -16802533.32947
      2397.2524       1867.9854         49.1004         46.1004
  21233864.2044   21233864.2064   21233868.0574  -18786963.93148 -14625271.23147
      1276.7804        994.8954         49.3004         46.3004
  24100333.0514   24100331.9574   24100333.7264   -2065451.43146  -1602403.00045
      1589.7294       1238.7564         37.8004         35.7004
  22868022.0194   22868021.2424   22868024.7934   -6789559.13247  -5281671.95146
      -222.3004       -173.2274         42.2004         39.5004
 10  1  4  0 42  0.0000000  0  8G17G15G28G12G 9G27G22G18
  22484540.3044   22484540.8464   22484542.9204  -12433896.67647  -9673519.93047
      1869.2124       1456.5334         46.5004         43.9004
  20899854.4724   20899854.5374   20899857.8284  -18790109.85748 -14393120.05147
     -1656.1304      -1290.4934         49.8004         46.8004
  22876680.4704   22876680.2534   22876683.0984   -8942443.94147  -6952886.76846
     -2644.0654      -2060.2844         43.9004         40.6004
  24234642.3304   24234642.8644   24234646.8234   -3164614.34746  -2439639.87446
      3687.0064       2872.9844         40.4004         37.8004
  20748004.1424   20748004.2574   20748008.3914  -21669116.14448 -16858430.76847
      2385.0754       1858.5044         49.1004         46.3004
  21226599.8534   21226599.4384   21226603.6774  -18825140.79848 -14655019.43347
      1268.3324        988.3084         49.3004         46.3004
  24091303.3054   24091302.3394   24091305.7584   -2112895.69246  -1639372.57145
      1573.1704       1225.8514         37.6004         35.5004
  22869344.1504   22869343.9364   22869348.0994   -6782604.16047  -5276252.48946
      -241.3744       -188.1014         42.2004         39.5004
 10  1  4  0 42 30.0000000  0  8G17G15G28G12G 9G27G22G18
  22473915.6734   22473915.0654   22473918.2524  -12489732.69747  -9717028.51947
      1853.1624       1444.0264         46.7004         43.7004
  20909357.0634   20909357.3084   20909359.8964  -18740175.73248 -14354210.34347
     -1672.8034      -1303.4814         49.8004         47.0004
  22891799.2984   22891799.3984   22891801.9724   -8862997.81547  -6890980.69146
     -2652.2944      -2066.7294         43.9004         41.2004
  24213608.8654   24213608.9474   24213610.3874   -3275155.20246  -2525775.58546
      3682.3604       2869.3744         40.8004         38.5004
  20734423.1934   20734423.2104   20734426.9584  -21740485.11848 -16914042.94747
      2372.8434       1848.9704         49.3004         46.3004
  21219383.1794   21219382.7754   21219386.8444  -18863063.99948 -14684569.97447
      1259.8514        981.7024         49.3004         46.3004
  24082368.9444   24082369.4324   24082373.3514   -2159841.80146  -1675954.00845
      1556.5554       1212.9004         38.0004         35.9004
  22870777.7954   22870778.7734   22870779.2904   -6775077.01547  -5270387.21146
      -260.4614       -202.9524         42.0004         39.2004
 10  1  4  0 43  0.0000000  0  8G17G15G28G12G 9G27G22G18
  22463381.5534   22463382.2574   22463384.7384  -12545085.41047  -9760160.48747
      1837.0014       1431.4354         46.7004         43.9004
  20918954.3024   20918954.0314   20918958.1674  -18689740.87448 -14314910.44347
     -1689.4864      -1316.4824         50.0004         47.0004
  22906965.8124   22906964.6064   22906966.5904   -8783307.59147  -6828884.41746
     -2660.4024      -2073.0404         44.1004         41.4004
  24192599.8984   24192599.2854   24192602.9054   -3385554.91246  -2611801.33046
      3677.6384       2865.6904         40.8004         37.9004
  20720912.2084   20720911.9154   20720916.2214  -21811486.48148 -16969368.67847
      2360.5524       1839.3934         49.3004         46.3004
  21212214.9584   21212214.4444   21212218.8434  -18900733.10348 -14713922.52947
      1251.3834        975.1104         49.3004         46.3004
  24073531.9064   24073531.8484   24073532.6154   -2206288.35946  -1712146.10046
      1539.9164       1199.9354         38.3004         36.2004
  22872317.4244   22872317.6964   22872320.8314   -6766978.37347  -5264076.57346
      -279.4304       -217.7404         42.0004         39.0004
 10  1  4  0 43 30.0000000  0  8G17G15G28G12G 9G27G22G18
  22452940.8114   22452940.8394   22452944.3384  -12599952.58747  -9802914.11847
      1820.7874       1418.8024         46.7004         44.0004
  20928646.0494   20928646.5754   20928650.1134  -18638806.55248 -14275221.34547
     -1706.1414      -1329.4644         49.8004         47.0004
  22922175.3554   22922174.0774   22922177.7774   -8703375.38747  -6766599.57046
     -2668.4174      -2079.2934         44.1004         41.2004
  24171617.8674   24171619.3674   24171622.9254   -3495812.15046  -2697716.03046
      3672.8054       2861.9214         40.9004         38.5004
  20707472.0394   20707471.4514   20707475.4434  -21882118.43548 -17024406.56247
      2348.2144       1829.7774         49.5004         46.5004
  21205094.4914   21205094.7284   21205099.1224  -18938147.62048 -14743076.69847
      1242.8954        968.4874         49.3004         46.3004
  24064786.6904   24064787.1004   24064788.7474   -2252234.05046  -1747947.99346
      1523.1644       1186.8834         38.5004         36.4004
  22873969.9634   22873968.9694   22873971.8434   -6758308.62947  -5257320.96146
      -298.5024       -232.5944         42.0004         39.5004
 10  1  4  0 44  0.0000000  0  8G17G15G28G12G 9G27G22G18
  22442591.9734   22442592.4344   22442595.7654  -12654332.01147  -9845287.68247
      1804.4924       1406.1004         46.9004         43.9004
  20938434.2234   20938434.4024   20938437.3174  -18587373.63848 -14235143.74047
     -1722.7214      -1342.3754         49.8004         47.0004
  22937430.3754   22937430.6444   22937433.5244   -8623202.59547  -6704127.30046
     -2676.4034      -2085.5084         44.1004         41.4004
  24150666.6514   24150666.2374   24150668.4234   -3605925.25146  -2783518.43746
      3667.9794       2858.1624         41.3004         38.8004
  20694101.1244   20694101.2284   20694105.4464  -21952379.82248 -17079155.68847
      2335.8344       1820.1304         49.6004         46.6004
  21198023.7974   21198023.5604   21198027.7524  -18975306.84348 -14772031.92347
      1234.3914        961.8644         49.3004         46.3004
  24056142.9004   24056141.7944   24056142.7944   -2297677.10946  -1783358.18946
      1506.3544       1173.7854         39.0004         36.9004
  22875726.6884   22875726.6824   22875729.7434   -6749068.48747  -5250120.85046
      -317.5104       -247.3994         42.0004         39.2004
 10  1  4  0 44 30.0000000  0  8G17G15G28G12G 9G27G22G18
  22432337.2534   22432336.8024   22432340.9814  -12708221.82647  -9887279.73147
      1788.1324       1393.3434         46.7004         43.5004
  20948315.8704   20948316.1264   20948319.9694  -18535443.43848 -14194678.66247
     -1739.2924      -1355.2914         49.8004         46.8004
  22952733.4604   22952732.4174   22952735.5474   -8542791.51947  -6641469.32446
     -2684.3224      -2091.6754         44.2004         41.2004
  24129738.5044   24129738.2964   24129742.1414   -3715892.49146  -2869207.17146
      3663.0884       2854.3564         41.3004         38.6004
  20680801.7914   20680801.8464   20680805.8004  -22022268.92148 -17133614.72647
      2323.4264       1810.4654         49.6004         46.6004
  21191001.6284   21191001.1404   21191004.9704  -19012210.29748 -14800787.85247
      1225.8364        955.1984         49.1004         46.1004
  24047588.0714   24047588.7954   24047589.8464   -2342616.40446  -1818375.83646
      1489.5754       1160.7054         39.4004         36.9004
  22877594.9054   22877593.6024   22877596.0324   -6739258.59047  -5242476.80046
      -336.4804       -262.2004         42.2004         39.5004
 10  1  4  0 45  0.0000000  0  8G17G15G28G12G 9G27G22G18
  22422177.1034   22422176.5134   22422178.6904  -12761619.82347  -9928888.55047
      1771.7004       1380.5424         46.7004         43.7004
  20958292.2794   20958292.5764   20958296.0894  -18483016.96748 -14153826.86147
     -1755.8204      -1368.1724         49.8004         47.0004
  22968080.1974   22968079.6644   22968082.4814   -8462144.10147  -6578627.17946
     -2692.1394      -2097.7664         44.2004         41.4004
  24108839.2784   24108840.3494   24108844.0514   -3825711.91046  -2954780.76146
      3658.1204       2850.4864         41.3004         39.0004
  20667573.6674   20667572.9164   20667577.4274  -22091784.37848 -17187782.61447
      2310.9384       1800.7314         49.6004         46.5004
  21184027.2284   21184027.0764   21184031.5494  -19048857.62948 -14829344.20547
      1217.2924        948.5424         49.1004         46.1004
  24039134.1084   24039134.0454   24039135.0244   -2387050.35646  -1852999.71546
      1472.7354       1147.5884         39.7004         37.3004
  22879568.4304   22879569.0404   22879572.3754   -6728879.16947  -5234388.94846
      -355.4534       -276.9634         42.7004         40.2004
 10  1  4  0 45 30.0000000  0  8G17G15G28G12G 9G27G22G18
  22412108.8374   22412109.0824   22412113.2154  -12814523.69247  -9970112.33547
      1755.2034       1367.6874         46.9004         44.0004
  20968363.2554   20968363.2084   20968366.6484  -18430095.36848 -14112589.25947
     -1772.2844      -1381.0004         49.8004         47.0004
  22983470.5824   22983470.5934   22983473.9994   -8381262.17047  -6515602.32746
     -2699.9364      -2103.8474         44.1004         41.1004
  24087970.4364   24087970.5084   24087973.3984   -3935382.09346  -3040238.04546
      3653.1234       2846.5814         41.1004         38.1004
  20654415.6934   20654416.1864   20654420.6944  -22160924.45448 -17241657.99647
      2298.3794       1790.9444         49.6004         46.5004
  21177102.6494   21177102.2054   21177106.4704  -19085248.16748 -14857700.46247
      1208.7184        941.8584         49.1004         46.1004
  24030775.0024   24030775.5764   24030776.7534   -2430977.70246  -1887228.80546
      1455.7944       1134.3834         39.4004         36.9004
  22881652.9724   22881651.8914   22881656.2894   -6717931.28047  -5225858.15446
      -374.3924       -291.7454         43.2004         40.6004
 10  1  4  0 46  0.0000000  0  8G17G15G28G12G 9G27G22G18
  22402135.3084   22402135.2004   22402139.5764  -12866931.74547 -10010949.78547
      1738.6544       1354.7934         46.7004         43.7004
  20978527.5334   20978527.7694   20978531.0804  -18376679.73548 -14070966.67747
     -1788.7424      -1393.8274         49.8004         46.8004
  22998906.6174   22998905.9414   22998908.6114   -8300147.59847  -6452396.16846
     -2707.7084      -2109.9034         43.7004         40.6004
  24067130.7484   24067131.3054   24067133.1364   -4044901.09446  -3125577.51346
      3648.1204       2842.6934         40.8004         38.1004
  20641331.3594   20641331.1384   20641335.2264  -22229687.44548 -17295239.54447
      2285.7964       1781.1434         49.6004         46.6004
  21170226.8444   21170226.6594   21170230.5674  -19121381.17448 -14885856.04947
      1200.1334        935.1724         49.1004         46.3004
  24022512.2014   24022511.6204   24022513.1764   -2474396.61346  -1921061.75246
      1438.8814       1121.2134         39.2004         36.7004
  22883843.5774   22883842.8764   22883846.7004   -6706415.58547  -5216884.92746
      -393.3264       -306.4764         43.4004         40.6004
 10  1  4  0 46 30.0000000  0  8G17G15G28G12G 9G27G22G18
  22392256.1054   22392257.4964   22392260.4774  -12918841.58547 -10051398.99547
      1722.0034       1341.8244         46.5004         43.7004
  20988785.9004   20988786.0074   20988789.4984  -18322771.10248 -14028959.91847
     -1805.1844      -1406.6374         49.8004         46.8004
  23014385.9754   23014385.1024   23014388.4084   -8218802.42647  -6389010.33646
     -2715.2944      -2115.8174         43.4004         40.6004
  24046317.2994   24046316.9714   24046323.4604   -4154267.38746  -3210797.97746
      3643.0264       2838.7144         41.1004         38.8004
  20628317.9474   20628318.1504   20628321.9154  -22298072.05448 -17348526.25147
      2273.1494       1771.2824         49.6004         46.6004
  21163399.9074   21163399.7914   21163403.6834  -19157256.27548 -14913810.67247
      1191.5264        928.4594         49.3004         46.3004
  24014345.8704   24014344.9964   24014348.4374   -2517306.09046  -1954497.71546
      1421.7784       1107.8774         39.0004         36.6004
  22886142.5214   22886142.4324   22886145.5234   -6694332.49647  -5207469.55846
      -412.2084       -321.2184         43.0004         40.0004
 10  1  4  0 47  0.0000000  0  8G17G15G28G12G 9G27G22G18
  22382475.0824   22382474.6774   22382479.1604  -12970251.15647 -10091458.39747
      1705.2744       1328.7964         46.7004         44.0004
  20999138.6304   20999138.3604   20999142.0744  -18268370.56048 -13986569.85547
     -1821.5494      -1419.3894         49.8004         46.8004
  23029908.3784   23029908.1064   23029911.9924   -8137228.53747  -6325446.27546
     -2722.9474      -2121.7644         43.2004         40.4004
  24025535.9564   24025536.5904   24025540.7164   -4263479.06746  -3295897.98046
      3637.7884       2834.6364         41.5004         38.8004
  20615377.9434   20615377.2754   20615381.2074  -22366076.57548 -17401516.78547
      2260.4614       1761.4034         49.6004         46.6004
  21156622.8544   21156622.1644   21156626.0314  -19192872.87448 -14941563.86047
      1182.9054        921.7484         49.3004         46.3004
  24006280.0874   24006279.7144   24006280.4554   -2559704.71046  -1987535.64246
      1404.7514       1094.6124         39.4004         37.3004
  22888551.4354   22888550.1814   22888554.1294   -6681682.99247  -5197612.82746
      -431.0824       -335.8954         42.9004         40.2004
 10  1  4  0 47 30.0000000  0  8G17G15G28G12G 9G27G22G18
  22372787.9994   22372787.8074   22372790.4544  -13021158.75047 -10131126.64847
      1688.5144       1315.7284         46.9004         43.9004
  21009584.2434   21009583.9964   21009587.6774  -18213479.38648 -13943797.50547
     -1837.8634      -1432.1034         49.8004         46.8004
  23045475.4964   23045475.1494   23045477.8484   -8055427.71647  -6261705.40346
     -2730.4744      -2127.6604         43.6004         40.9004
  24004783.6764   24004783.8204   24004786.4334   -4372534.31446  -3380876.08046
      3632.6024       2830.6044         40.9004         38.3004
  20602508.7784   20602508.9904   20602513.5414  -22433699.44748 -17454209.92747
      2247.7244       1751.4754         49.8004         46.8004
  21149893.9214   21149893.5324   21149897.7594  -19228230.25348 -14969115.06847
      1174.2384        914.9974         49.3004         46.3004
  23998306.0924   23998306.5584   23998308.8694   -2601591.05946  -2020174.38146
      1387.6694       1081.2974         39.7004         37.4004
  22891065.1774   22891064.6974   22891067.8524   -6668467.59547  -5187315.12246
      -449.9334       -350.5894         42.9004         40.0004
 10  1  4  0 48  0.0000000  0  8G17G15G28G12G 9G27G22G18
  22363195.1964   22363196.0724   22363198.7314  -13071562.29647 -10170402.11947
      1671.6804       1302.6004         46.7004         43.7004
  21020122.1334   21020122.4244   21020125.3044  -18158098.76448 -13900643.77047
     -1854.1854      -1444.8164         49.6004         46.6004
  23061084.2774   23061083.6844   23061085.9594   -7973401.84247  -6197789.12646
     -2737.9324      -2133.4514         43.7004         40.9004
  23984058.3074   23984060.0664   23984064.3554   -4481431.24946  -3465730.84046
      3627.2984       2826.4704         40.9004         38.3004
  20589713.1514   20589713.5574   20589717.6504  -22500939.31948 -17506604.62147
      2234.9144       1741.4924         49.8004         46.8004
  21143214.7234   21143214.7324   21143219.1464  -19263328.12848 -14996464.05047
      1165.6024        908.2634         49.1004         46.1004
  23990435.6964   23990435.3824   23990437.4534   -2642963.98746  -2052413.04346
      1370.5294       1067.9474         40.4004         38.3004
  22893687.3064   22893687.4344   22893691.6384   -6654687.06147  -5176577.06446
      -468.7554       -365.2714         42.7004         39.9004
 10  1  4  0 48 30.0000000  0  8G17G15G28G12G 9G27G22G18
  22353701.4974   22353701.1894   22353704.1144  -13121459.65947 -10209283.18047
      1654.7764       1289.4394         46.9004         43.9004
  21030754.0454   21030754.0984   21030757.4534  -18102229.90348 -13857109.58047
     -1870.4184      -1457.4674         49.6004         46.6004
  23076736.4404   23076735.1104   23076738.0354   -7891152.89547  -6133699.04646
     -2745.3524      -2139.2344         43.7004         40.9004
  23963364.7074   23963366.7734   23963373.1544   -4590168.68246  -3550461.26546
      3621.9204       2822.2804         40.6004         37.9004
  20576991.3104   20576991.3144   20576995.3784  -22567794.53648 -17558699.58647
      2222.0424       1731.4684         49.8004         46.8004
  21136585.4484   21136585.3974   21136589.9824  -19298166.20048 -15023610.59847
      1156.9314        901.5014         49.1004         46.1004
  23982660.6684   23982660.3464   23982661.5924   -2683822.00346  -2084250.48746
      1353.3644       1054.5674         40.4004         37.9004
  22896415.1394   22896415.6424   22896420.4494   -6640342.59447  -5165399.57746
      -487.5674       -379.9214         42.5004         39.9004
 10  1  4  0 49  0.0000000  0  8G17G15G28G12G 9G27G22G18
  22344301.7464   22344301.9014   22344305.6514  -13170848.96047 -10247768.33847
      1637.8254       1276.2334         46.7004         43.5004
  21041478.1854   21041477.9094   21041481.4674  -18045874.08548 -13813195.95347
     -1886.6254      -1470.0974         49.5004         46.5004
  23092428.5224   23092428.7914   23092432.5704   -7808682.87247  -6069436.69446
     -2752.6624      -2144.9354         43.7004         40.9004
  23942709.7234   23942709.2904   23942711.2964   -4698744.47846  -3635065.80946
      3616.4554       2818.0164         40.9004         38.6004
  20564342.8504   20564342.8594   20564347.5774  -22634263.40948 -17610493.50247
      2209.1644       1721.4244         49.8004         46.8004
  21130005.2094   21130005.2184   21130009.9684  -19332743.62048 -15050554.04147
      1148.2254        894.7174         49.1004         46.3004
  23974980.5324   23974982.1534   23974983.8304   -2724164.06146  -2115685.84946
      1336.1344       1041.1434         39.9004         37.3004
  22899254.4374   22899253.2164   22899257.8864   -6625434.61847  -5153782.97146
      -506.3094       -394.5044         42.7004         39.9004
 10  1  4  0 49 30.0000000  0  8G17G15G28G12G 9G27G22G18
  22335000.5304   22335000.5674   22335003.9404  -13219727.91147 -10285855.83247
      1620.7654       1262.9394         46.7004         43.7004
  21052294.9154   21052294.7864   21052298.0304  -17989032.39448 -13768903.73447
     -1902.8164      -1482.7114         49.5004         46.5004
  23108165.3244   23108164.4264   23108167.0754   -7725993.28147  -6005003.28046
     -2759.9954      -2150.6384         43.4004         40.2004
  23922078.3504   23922077.2074   23922082.1914   -4807156.85346  -3719542.98046
      3610.9914       2813.7574         41.3004         38.6004
  20551768.9764   20551768.1084   20551772.5474  -22700344.27748 -17661985.08147
      2196.2114       1711.3404         50.0004         47.0004
  21123475.5724   21123475.3214   21123479.7864  -19367059.85448 -15077293.96347
      1139.5164        887.9344         49.3004         46.5004
  23967406.4304   23967405.0124   23967406.7104   -2763988.54846  -2146717.94246
      1318.8214       1027.6564         39.7004         37.4004
  22902197.7304   22902197.8074   22902201.1444   -6609963.70647  -5141727.74346
      -525.0834       -409.1584         42.5004         39.7004
 10  1  4  0 50  0.0000000  0  8G17G15G28G12G 9G27G22G18
  22325797.2214   22325797.4264   22325800.6314  -13268095.20747 -10323544.61747
      1603.6814       1249.6164         46.9004         44.0004
  21063203.0114   21063203.3134   21063207.1534  -17931706.27948 -13724234.04747
     -1918.9444      -1495.2794         49.5004         46.5004
  23123941.0194   23123941.1194   23123943.9074   -7643086.35847  -5940400.47746
     -2767.1444      -2156.2414         43.0004         39.9004
  23901479.0844   23901479.4364   23901482.8224   -4915404.21346  -3803891.54646
      3605.4514       2809.4424         41.5004         38.8004
  20539267.2734   20539267.0924   20539271.9364  -22766035.71848 -17713173.20347
      2183.1924       1701.1874         50.0004         46.8004
  21116995.8784   21116995.0734   21116999.6654  -19401114.40948 -15103829.97047
      1130.7814        881.1274         49.5004         46.5004
  23959924.6174   23959925.4004   23959926.1974   -2803294.36546  -2177345.90246
      1301.5264       1014.1794         39.6004         36.9004
  22905250.7874   22905249.0764   22905251.8624   -6593931.10347  -5129234.84146
      -543.7574       -423.7114         42.5004         39.7004
 10  1  4  0 50 30.0000000  0  8G17G15G28G12G 9G27G22G18
  22316690.1054   22316690.7094   22316693.9574  -13315948.74347 -10360833.07847
      1586.5164       1236.2444         46.9004         44.0004
  21074204.4234   21074204.6114   21074207.3904  -17873896.90848 -13679187.79047
     -1935.0084      -1507.8004         49.5004         46.5004
  23139759.7044   23139759.4454   23139760.9624   -7559963.85147  -5875629.68446
     -2774.3064      -2161.7924         43.0004         40.2004
  23880913.2684   23880911.8284   23880914.0294   -5023484.97146  -3888110.31546
      3599.9104       2805.1274         41.1004         38.3004
  20526842.0344   20526841.2594   20526845.1994  -22831336.09848 -17764056.60547
      2170.1444       1691.0244         49.8004         46.8004
  21110564.2604   21110564.1634   21110569.0824  -19434906.53948 -15130161.49447
      1122.0294        874.3114         49.5004         46.6004
  23952546.2944   23952544.8934   23952545.6994   -2842080.23146  -2207568.61146
      1284.1714       1000.6534         39.4004         37.1004
  22908406.1164   22908405.7394   22908409.4914   -6577337.87247  -5116305.08446
      -562.4504       -438.2794         42.3004         39.5004
 10  1  4  0 51  0.0000000  0  8G17G15G28G12G 9G27G22G18
  22307683.3314   22307682.9934   22307685.6604  -13363286.37247 -10397719.52347
      1569.2924       1222.8234         47.0004         44.2004
  21085296.1924   21085296.4614   21085300.1914  -17815605.28448 -13633765.72247
     -1951.0864      -1520.3244         49.5004         46.3004
  23155615.9464   23155617.4994   23155621.2874   -7476627.40247  -5810692.22046
     -2781.4364      -2167.3504         43.0004         40.4004
  23860372.4114   23860375.9654   23860379.7684   -5131397.25046  -3972197.81846
      3594.2184       2800.6844         40.6004         38.1004
  20514489.2904   20514489.3584   20514493.4014  -22896243.90448 -17814634.09847
      2157.0214       1680.7924         49.6004         46.6004
  21104184.0514   21104183.8944   21104188.4304  -19468435.92348 -15156288.28547
      1113.2574        867.4664         49.5004         46.5004
  23945264.1924   23945263.4354   23945263.5354   -2880344.92346  -2237385.32846
      1266.7824        987.1094         39.9004         37.6004
  22911672.6544   22911670.4284   22911673.9514   -6560184.55347  -5102938.87546
      -581.0974       -452.8174         42.5004         40.0004
 10  1  4  0 51 30.0000000  0  8G17G15G28G12G 9G27G22G18
  22298773.2574   22298773.0394   22298776.1374  -13410106.36647 -10434202.61747
      1552.0284       1209.3684         47.0004         44.2004
  21096480.7904   21096480.7294   21096484.0064  -17756832.96848 -13587969.11747
     -1967.0974      -1532.8054         49.3004         46.5004
  23171516.7544   23171516.3474   23171519.6784   -7393079.23747  -5745589.74446
     -2788.4524      -2172.8174         43.4004         40.7004
  23839875.7814   23839873.1004   23839877.4984   -5239139.35946  -4056152.73246
      3588.5324       2796.2504         40.8004         38.6004
  20502213.1854   20502212.8204   20502216.9084  -22960757.78348 -17864904.64447
      2143.8954       1670.5664         49.6004         46.6004
  21097854.2474   21097853.7684   21097858.2844  -19501701.87948 -15182209.81047
      1104.4614        860.6184         49.5004         46.5004
  23938080.2684   23938081.8594   23938083.9074   -2918087.29746  -2266794.93546
      1249.3214        973.5044         40.3004         38.1004
  22915040.8974   22915041.2174   22915044.8304   -6542472.13147  -5089137.00446
      -599.7214       -467.3254         42.7004         40.4004
 10  1  4  0 52  0.0000000  0  8G17G15G28G12G 9G27G22G18
  22289962.5554   22289961.9834   22289966.2294  -13456407.02247 -10470281.02447
      1534.6624       1195.8384         47.2004         44.4004
  21107755.8204   21107756.0334   21107759.3214  -17697581.34648 -13541799.00647
     -1983.0374      -1545.2264         49.5004         46.5004
  23187454.0754   23187454.5894   23187458.3084   -7309321.11647  -5680323.67846
     -2795.4024      -2178.2354         43.6004         40.7004
  23819404.8474   23819404.2304   23819407.8804   -5346709.82846  -4139973.87646
      3582.7854       2791.7814         41.5004         38.8004
  20490011.1814   20490011.3504   20490015.6924  -23024876.19648 -17914867.03947
      2130.6604       1660.2564         49.6004         46.6004
  21091573.6624   21091573.5204   21091578.1544  -19534704.03448 -15207925.77247
      1095.6514        853.7514         49.5004         46.5004
  23931000.0664   23931000.4384   23930998.0854   -2955306.24746  -2295796.76546
      1231.8794        959.8984         40.4004         37.9004
  22918517.7994   22918516.9684   22918521.7064   -6524201.57947  -5074900.22346
      -618.3334       -481.8244         42.9004         40.0004
 10  1  4  0 52 30.0000000  0  8G17G15G28G12G 9G27G22G18
  22281250.8344   22281250.7994   22281253.9644  -13502186.14547 -10505953.07047
      1517.2614       1182.2814         47.2004         44.2004
  21119122.1064   21119122.1324   21119125.5854  -17637851.61048 -13495256.33447
     -1998.9514      -1557.6234         49.3004         46.3004
  23203433.2734   23203434.0124   23203435.8004   -7225355.12847  -5614895.63646
     -2802.3064      -2183.6064         43.6004         40.6004
  23798966.7264   23798966.8364   23798971.0874   -5454106.75146  -4223659.78346
      3576.9904       2787.2664         41.6004         39.0004
  20477885.4064   20477885.5944   20477889.8954  -23088597.52148 -17964520.01047
      2117.4014       1649.9254         49.8004         46.8004
  21085343.5814   21085343.7164   21085348.5394  -19567441.66248 -15233435.60447
      1086.8514        846.8964         49.5004         46.5004
  23924015.3254   23924014.8954   23924018.0324   -2992000.54646  -2324389.72646
      1214.4094        946.2914         40.6004         37.9004
  22922100.9894   22922100.7704   22922102.9854   -6505373.81847  -5060229.27346
      -636.8814       -496.2714         42.7004         39.9004
 10  1  4  0 53  0.0000000  0  8G17G15G28G12G 9G27G22G18
  22272638.7894   22272638.8514   22272642.6954  -13547442.26447 -10541217.56147
      1499.7784       1168.6624         47.2004         44.4004
  21130578.8764   21130578.8494   21130582.4264  -17577645.04548 -13448342.10547
     -2014.8404      -1570.0044         49.3004         46.3004
  23219450.5094   23219449.7524   23219452.9424   -7141182.67347  -5549306.72046
     -2809.1644      -2188.9514         43.4004         40.4004
  23778560.6004   23778562.2104   23778566.5384   -5561328.43246  -4307209.15946
      3571.1424       2782.7114         41.6004         38.8004
  20465835.6764   20465835.5514   20465840.1364  -23151920.19448 -18013862.34947
      2104.0964       1639.5574         49.8004         46.8004
  21079164.8534   21079164.3274   21079169.1244  -19599914.26148 -15258738.91747
      1077.9944        839.9964         49.5004         46.5004
  23917132.5834   23917133.7934   23917134.9174   -3028168.91046  -2352572.87646
      1196.8384        932.5994         40.8004         38.5004
  22925791.4704   22925789.6034   22925792.1754   -6485989.75947  -5045124.85346
      -655.4014       -510.6864         42.7004         40.0004
 10  1  4  0 53 30.0000000  0  8G17G15G28G12G 9G27G22G18
  22264127.7534   22264127.4034   22264131.1374  -13592173.31847 -10576072.93247
      1482.2634       1155.0234         47.4004         44.5004
  21142126.4784   21142127.1024   21142130.1984  -17516963.41748 -13401057.73547
     -2030.6424      -1582.3144         49.3004         46.5004
  23235506.5504   23235506.7704   23235510.2984   -7056805.75047  -5483558.47846
     -2815.9584      -2194.2474         43.2004         40.2004
  23758191.8324   23758192.4914   23758198.5734   -5668373.20846  -4390620.68146
      3565.2004       2778.0744         41.6004         39.2004
  20453862.0374   20453862.2034   20453866.1074  -23214842.98648 -18062893.08647
      2090.7224       1629.1334         50.0004         46.8004
  21073035.5964   21073035.5844   21073040.2764  -19632121.07948 -15283835.12847
      1069.1434        833.0954         49.5004         46.5004
  23910349.6434   23910349.3594   23910352.0124   -3063810.33046  -2380345.42946
      1179.2254        918.8714         40.8004         38.1004
  22929584.4014   22929583.7524   22929587.6014   -6466050.54347  -5029587.81946
      -673.8714       -525.0864         42.9004         40.0004
 10  1  4  0 54  0.0000000  0  8G17G15G28G12G 9G27G22G18
  22255714.3214   22255714.8394   22255718.2774  -13636377.61647 -10610517.82747
      1464.6714       1141.2964         47.4004         44.2004
  21153764.8144   21153764.2694   21153767.5774  -17455807.40748 -13353403.72747
     -2046.4224      -1594.6124         49.3004         46.5004
  23251602.6274   23251601.6874   23251604.8934   -6972226.36647  -5417652.48246
     -2822.6554      -2199.4994         43.0004         40.2004
  23737854.9174   23737855.8994   23737861.6544   -5775239.11346  -4473892.85146
      3559.2004       2773.4104         41.6004         38.8004
  20441965.2824   20441964.8944   20441968.8584  -23277363.90948 -18111610.68947
      2077.3174       1618.6844         50.0004         46.8004
  21066958.1414   21066957.9454   21066962.3814  -19664061.75148 -15308723.95447
      1060.2464        826.1694         49.5004         46.6004
  23903669.1634   23903668.9044   23903670.6294   -3098923.75846  -2407706.51046
      1161.6174        905.1504         40.6004         37.9004
  22933484.0474   22933482.6024   22933487.6654   -6445557.32447  -5013619.09846
      -692.3124       -539.4674         43.0004         40.2004
 10  1  4  0 54 30.0000000  0  8G17G15G28G12G 9G27G22G18
  22247403.3784   22247404.1064   22247407.2654  -13680053.21347 -10644550.74447
      1447.0184       1127.5434         47.4004         44.5004
  21165490.2494   21165491.3454   21165495.3814  -17394178.69748 -13305381.34447
     -2062.1664      -1606.8904         49.3004         46.3004
  23267735.7184   23267735.3624   23267737.6084   -6887446.29647  -5351590.10046
     -2829.3124      -2204.6764         43.0004         40.0004
  23717556.1514   23717554.9274   23717560.7094   -5881924.50446  -4557024.34346
      3553.1594       2768.6954         41.8004         39.3004
  20430143.5824   20430144.2264   20430148.4744  -23339481.94148 -18160014.34847
      2063.8744       1608.2114         50.0004         47.0004
  21060930.4414   21060930.1634   21060934.7484  -19695735.71248 -15333404.96047
      1051.3364        819.2284         49.5004         46.5004
  23897089.2914   23897087.9494   23897088.6034   -3133508.17846  -2434655.41246
      1143.9854        891.4294         40.1004         37.1004
  22937489.4764   22937488.7244   22937491.9194   -6424511.04547  -4997219.43946
      -710.7404       -553.8144         42.9004         40.0004
 10  1  4  0 55  0.0000000  0  8G17G15G28G12G 9G27G22G18
  22239193.4814   22239193.3064   22239196.8714  -13723198.74647 -10678170.62247
      1429.3264       1113.7584         47.4004         44.4004
  21177308.6704   21177308.8494   21177312.4424  -17332079.02148 -13256991.99247
     -2077.8304      -1619.0894         49.3004         46.5004
  23283906.3264   23283904.6184   23283908.3484   -6802467.47447  -5285372.84146
     -2835.9264      -2209.8274         42.9004         40.0004
  23697287.6734   23697288.2594   23697294.2804   -5988428.02347  -4640014.06946
      3547.0354       2763.9264         42.0004         39.3004
  20418400.6424   20418400.5264   20418405.0624  -23401195.06248 -18208102.48047
      2050.3404       1597.6654         50.0004         47.2004
  21054953.8684   21054953.5434   21054958.2094  -19727142.66248 -15357877.89747
      1042.4444        812.2974         49.3004         46.3004
  23890605.6854   23890607.8304   23890608.1144   -3167562.63346  -2461191.31545
      1126.2644        877.6124         38.7004         35.5004
  22941599.1634   22941597.9844   22941602.1454   -6402912.83147  -4980389.67646
      -729.1494       -568.1564         42.5004         39.7004
 10  1  4  0 55 30.0000000  0  8G17G15G28G12G 9G27G22G18
  22231084.6584   22231084.7994   22231088.0954  -13765812.27747 -10711375.95247
      1411.5534       1099.9134         47.4004         44.5004
  21189214.3264   21189214.9334   21189218.5114  -17269509.52748 -13208236.54847
     -2093.4864      -1631.2864         49.1004         46.1004
  23300114.7014   23300113.2574   23300117.0494   -6717291.74847  -5219002.16046
     -2842.4754      -2214.9234         43.0004         40.2004
  23677056.2744   23677056.3524   23677061.1694   -6094747.72347  -4722860.62446
      3540.8554       2759.1124         42.2004         39.7004
  20406735.1654   20406734.2534   20406738.6004  -23462501.99548 -18255874.11147
      2036.7934       1587.1174         50.2004         47.2004
  21049028.5704   21049028.3124   21049032.6504  -19758281.82248 -15382142.16947
      1033.4774        805.3064         49.5004         46.5004
  23884230.4044   23884228.6304   23884230.3054   -3201085.70246  -2487313.23645
      1108.5104        863.7664         38.0004         35.5004
  22945815.5724   22945813.7894   22945816.5094   -6380763.55247  -4963130.52746
      -747.4934       -582.4574         42.2004         39.3004
 10  1  4  0 56  0.0000000  0  8G17G15G28G12G 9G27G22G18
  22223076.7014   22223076.7374   22223081.0964  -13807892.24247 -10744165.53247
      1393.7574       1086.0424         47.4004         44.5004
  21201210.6454   21201211.0654   21201215.0204  -17206471.07948 -13159115.70347
     -2109.0794      -1643.4374         49.3004         46.3004
  23316360.4894   23316359.9874   23316360.7934   -6631920.85847  -5152479.38346
     -2848.8894      -2219.9264         42.5004         39.3004
  23656857.5294   23656858.8114   23656865.2994   -6200882.01646  -4805562.68346
      3534.7064       2754.3094         41.8004         39.0004
  20395145.4164   20395145.6514   20395149.3014  -23523401.18448 -18303328.01847
      2023.1654       1576.4924         50.2004         47.2004
  21043153.4814   21043153.7004   21043157.7464  -19789152.64448 -15406197.34547
      1024.5474        798.3514         49.5004         46.6004
  23877949.7684   23877949.6994   23877952.7184   -3234076.64246  -2513020.41445
      1090.8274        850.0024         37.6004         35.3004
  22950133.4094   22950132.9764   22950136.0364   -6358064.55247  -4945443.00646
      -765.7964       -596.7234         42.2004         39.7004
 10  1  4  0 56 30.0000000  0  8G17G15G28G12G 9G27G22G18
  22215170.3674   22215170.9824   22215174.5124  -13849436.76647 -10776537.88447
      1375.8554       1072.0954         47.4004         44.4004
  21213295.7194   21213295.8114   21213300.2124  -17142965.52948 -13109630.85947
     -2124.6164      -1655.5484         49.5004         46.5004
  23332641.9554   23332639.5534   23332643.6944   -6546356.60447  -5085805.95246
     -2855.3544      -2224.9344         42.0004         39.0004
  23636700.4394   23636699.7324   23636703.4604   -6306829.15647  -4888118.94146
      3528.3904       2749.3944         42.2004         39.7004
  20383634.7394   20383634.6644   20383638.6964  -23583891.09148 -18350463.00447
      2009.4794       1565.8284         50.2004         47.0004
  21037330.2704   21037330.3414   21037334.3934  -19819754.52748 -15430042.95847
      1015.5594        791.3464         49.5004         46.5004
  23871765.7174   23871770.0974   23871774.6614   -3266534.40546  -2538312.21445
      1072.9624        836.0644         36.8004         34.8004
  22954556.5984   22954555.9194   22954560.4994   -6334816.87047  -4927327.96146
      -784.0734       -610.9654         42.3004         39.5004
 10  1  4  0 57  0.0000000  0  8G17G15G28G12G 9G27G22G18
  22207367.7594   22207367.5214   22207370.7394  -13890444.29347 -10808491.78747
      1357.9344       1058.1254         47.4004         44.4004
  21225468.6904   21225468.9754   21225472.8774  -17078994.80548 -13059783.54547
     -2140.0784      -1667.5934         49.3004         46.5004
  23348960.5154   23348960.0644   23348963.4414   -6460600.74147  -5018983.22146
     -2861.6674      -2229.8814         42.0004         39.7004
  23616575.7064   23616574.1744   23616578.1034   -6412587.54747  -4970528.06746
      3522.1294       2744.5184         42.2004         39.5004
  20372201.8064   20372201.8974   20372206.1044  -23643970.34348 -18397278.00247
      1995.7594       1555.1344         50.2004         47.0004
  21031558.7734   21031558.0834   21031562.4094  -19850086.86848 -15453678.54447
      1006.6184        784.3784         49.5004         46.5004
  23865699.9304   23865698.7314   23865701.0494   -3298457.77146  -2563187.60146
      1055.2534        822.2734         37.6004         36.0004
  22959085.7714   22959084.9274   22959087.5794   -6311021.57647  -4908786.19446
      -802.3014       -625.1654         42.2004         39.5004
 10  1  4  0 57 30.0000000  0  8G17G15G28G12G 9G27G22G18
  22199666.0594   22199666.5284   22199669.2384  -13930912.99047 -10840025.82847
      1339.9414       1044.1094         47.4004         44.5004
  21237730.4464   21237730.7334   21237733.7664  -17014559.97948 -13009574.59447
     -2155.5744      -1679.6694         49.3004         46.3004
  23365316.4844   23365315.3494   23365319.8894   -6374655.25647  -4952012.72746
     -2868.0244      -2234.8384         42.3004         39.7004
  23596485.8824   23596484.7904   23596489.3744   -6518155.51547  -5052788.84846
      3515.7054       2739.5084         42.3004         39.5004
  20360847.6084   20360847.4504   20360851.7954  -23703637.50648 -18443771.88547
      1982.0144       1544.4234         50.0004         47.0004
  21025837.3774   21025837.1544   21025841.8094  -19880149.07648 -15477103.64447
       997.5864        777.3404         49.5004         46.5004
  23859725.4904   23859725.6304   23859727.1974   -3329846.14046  -2587646.03346
      1037.4384        808.3864         38.7004         36.7004
  22963717.8384   22963716.7894   22963720.7694   -6286679.90447  -4889818.67946
      -820.5054       -639.3454         42.2004         39.3004
 10  1  4  0 58  0.0000000  0  8G17G15G28G12G 9G27G22G18
  22192069.3914   22192069.0974   22192071.7404  -13970841.29547 -10871138.77247
      1321.9214       1030.0654         47.5004         44.5004
  21250079.9744   21250080.3714   21250083.6044  -16949662.34848 -12959005.01947
     -2170.9484      -1691.6474         49.3004         46.1004
  23381705.4754   23381706.0874   23381709.8194   -6288522.17247  -4884896.03246
     -2874.2164      -2239.6624         42.3004         39.7004
  23576435.0144   23576433.4044   23576437.9904   -6623531.56147  -5134900.08346
      3509.2944       2734.5294         42.3004         39.9004
  20349572.0264   20349572.2294   20349576.2344  -23762891.04148 -18489943.46947
      1968.2004       1533.6604         50.2004         47.0004
  21020168.3984   21020168.4394   21020172.8584  -19909940.78948 -15500317.95347
       988.5454        770.2994         49.5004         46.6004
  23853853.8644   23853855.7064   23853856.9954   -3360698.28746  -2611686.68746
      1019.3594        794.3044         39.4004         37.4004
  22968453.3394   22968453.1164   22968455.0694   -6261793.37847  -4870426.60846
      -838.6394       -653.4834         42.2004         39.5004
 10  1  4  0 58 30.0000000  0  8G17G15G28G12G 9G27G22G18
  22184573.1554   22184573.3804   22184577.4494  -14010227.98547 -10901829.68947
      1303.8374       1015.9774         47.5004         44.7004
  21262516.0424   21262516.9894   21262520.9364  -16884303.72148 -12908076.22047
     -2186.3024      -1703.6074         49.3004         46.1004
  23398133.3314   23398131.3174   23398135.6454   -6202203.05847  -4817634.38546
     -2880.3624      -2244.4464         42.3004         39.3004
  23556416.9514   23556418.0454   23556421.5254   -6728713.83347  -5216860.33646
      3502.8144       2729.4734         42.5004         39.7004
  20338375.4514   20338375.3894   20338379.6424  -23821729.22548 -18535791.38947
      1954.3284       1522.8534         50.2004         47.0004
  21014551.0774   21014550.8304   21014555.3954  -19939461.26548 -15523320.91347
       979.4984        763.2464         49.6004         46.6004
  23848090.0174   23848087.0314   23848087.8464   -3391013.65146  -2635309.08046
      1001.5374        780.4154         39.9004         37.4004
  22973289.8164   22973291.0394   22973295.9574   -6236362.96247  -4850610.74446
      -856.7364       -667.5884         42.2004         39.5004
 10  1  4  0 59  0.0000000  0  8G17G15G28G12G 9G27G22G18
  22177181.4184   22177182.4634   22177185.4824  -14049071.12047 -10932097.06047
      1285.7094       1001.8504         47.7004         44.9004
  21275042.8594   21275042.6824   21275045.8864  -16818485.32048 -12856789.16047
     -2201.5934      -1715.5264         49.1004         46.1004
  23414594.0914   23414593.2264   23414596.6934   -6115699.71547  -4750229.21046
     -2886.4814      -2249.2124         42.2004         39.5004
  23536441.2384   23536440.1924   23536443.5904   -6833700.72447  -5298668.32346
      3496.2734       2724.3604         42.5004         40.0004
  20327258.7234   20327258.3204   20327262.3874  -23880150.78248 -18581314.67347
      1940.4154       1512.0154         50.2004         47.2004
  21008984.8964   21008984.8124   21008989.4884  -19968709.89148 -15546112.04547
       970.4144        756.1634         49.5004         46.6004
  23842416.3784   23842418.6134   23842421.2994   -3420791.19146  -2658512.31846
       983.5924        766.4304         39.7004         37.3004
  22978234.8594   22978233.9394   22978237.9484   -6210390.04547  -4830372.12446
      -874.8344       -681.6904         42.2004         39.3004
 10  1  4  0 59 30.0000000  0  8G17G15G28G12G 9G27G22G18
  22169894.1384   22169894.1304   22169897.2254  -14087369.32247 -10961939.79447
      1267.4854        987.6574         47.7004         44.7004
  21287653.3954   21287654.2054   21287657.1904  -16752208.78948 -12805145.11847
     -2216.8474      -1727.4164         49.1004         45.9004
  23431089.0664   23431089.5314   23431091.8474   -6029014.01947  -4682681.96846
     -2892.4874      -2253.9034         42.5004         40.0004
  23516499.1414   23516499.1644   23516501.7804   -6938490.33147  -5380322.57546
      3489.6994       2719.2494         42.9004         40.0004
  20316220.9334   20316220.9194   20316224.6384  -23938154.08748 -18626512.03747
      1926.4534       1501.1284         50.2004         47.2004
  21003470.6464   21003470.7954   21003475.4924  -19997686.25548 -15568691.02647
       961.3264        749.0844         49.5004         46.6004
  23836857.6434   23836857.1884   23836856.4004   -3450029.79546  -2681295.71846
       965.6514        752.4434         39.2004         36.4004
  22983279.5644   22983280.6744   22983283.3974   -6183875.69147  -4809711.60346
      -892.8274       -695.7074         42.2004         39.5004
                            4  7
RINEX FILE SPLICE                                           COMMENT
teqc  2009Mar23     root                20100104 02:00:00UTCCOMMENT
BIT 2 OF LLI FLAGS DATA COLLECTED UNDER A/S CONDITION       COMMENT
Forced Modulo Decimation to 30 seconds                      COMMENT
 SNR is mapped to RINEX snr flag value [0-9]                COMMENT
  L1 & L2: min(max(int(snr_dBHz/6), 0), 9)                  COMMENT
pseudorange smoothing corrections not applied               COMMENT
 10  1  4  1  0  0.0000000  0  7G15G28G12G 9G27G22G18
  21300352.6494   21300352.9974   21300357.1054  -16685475.68548 -12753145.30247
     -2232.0244      -1739.2404         48.9004         45.9004
  23447619.4784   23447619.4474   23447621.2824   -5942147.71647  -4614993.91746
     -2898.5274      -2258.5974         42.3004         39.3004
  23496594.7924   23496594.9654   23496599.8654   -7043081.28147  -5461822.01146
      3483.0234       2714.0584         42.7004         39.9004
  20305263.2134   20305262.7314   20305266.8174  -23995737.67248 -18671382.35747
      1912.4494       1490.2254         50.2004         47.2004
  20998008.6544   20998008.8904   20998013.3034  -20026389.86948 -15591057.47047
       952.2094        741.9834         49.6004         46.6004
  23831392.3544   23831392.8754   23831397.2414   -3478728.57246  -2703658.39346
       947.5434        738.3514         38.5004         36.4004
  22988427.7374   22988428.9274   22988432.8754   -6156821.27547  -4788630.27946
      -910.8204       -709.7254         42.5004         40.0004
 10  1  4  1  0 30.0000000  0  8G17G15G28G12G 9G27G22G18
  22155631.1524   22155631.1214   22155633.8754  -14162324.13547 -11020346.10547
      1230.9394        959.1744         47.7004         44.9004
  21313138.9614   21313138.9114   21313142.6744  -16618287.46748 -12700790.85147
     -2247.1874      -1751.0534         48.9004         45.9004
  23464183.6104   23464183.8374   23464186.3374   -5855102.62347  -4547166.59446
     -2904.4594      -2263.2044         42.2004         39.5004
  23476728.6094   23476730.0584   23476734.4864   -7147471.65647  -5543165.20046
      3476.3384       2708.8434         42.3004         39.5004
  20294384.7014   20294385.1574   20294389.1954  -24052899.97948 -18715924.41047
      1898.3754       1479.2534         50.2004         47.2004
  20992599.0014   20992598.8204   20992603.1354  -20054819.89548 -15613210.73547
       943.0854        734.8714         49.6004         46.6004
  23826033.9664   23826033.9214   23826037.9754   -3506886.53946  -2725599.73846
       929.5564        724.3264         38.7004         36.6004
  22993679.4324   22993678.3354   22993683.3764   -6129228.06147  -4767129.11046
      -928.7694       -723.6984         42.5004         39.9004
 10  1  4  1  1  0.0000000  0  8G17G15G28G12G 9G27G22G18
  22148654.8884   22148654.8514   22148658.4824  -14198977.75947 -11048907.37947
      1212.6094        944.8894         47.7004         44.7004
  21326011.0974   21326010.7774   21326014.0364  -16550645.54548 -12648082.87647
     -2262.2754      -1762.8144         48.9004         45.8004
  23480781.1214   23480780.6154   23480784.4644   -5767880.50146  -4479201.31346
     -2910.3294      -2267.7774         41.8004         38.8004
  23456903.7004   23456904.3194   23456908.0474   -7251659.94747  -5624350.88746
      3469.5354       2703.5334         42.7004         39.9004
  20283588.6644   20283588.0404   20283591.9194  -24109639.67448 -18760137.16547
      1884.2704       1468.2574         50.3004         47.3004
  20987241.4904   20987241.2014   20987244.8364  -20082975.91248 -15635150.48447
       933.9654        727.7664         49.6004         46.6004
  23820783.0284   23820782.9314   23820782.6524   -3534502.84046  -2747118.98546
       911.4974        710.2544         39.4004         37.3004
  22999032.5034   22999032.1044   22999036.2634   -6101097.52747  -4745209.22446
      -946.6254       -737.6234         42.5004         39.9004
 10  1  4  1  1 30.0000000  0  8G17G15G28G12G 9G27G22G18
  22141786.4814   22141786.3544   22141788.6094  -14235080.46747 -11077039.35347
      1194.2074        930.5484         47.9004         45.1004
  21338967.8894   21338968.1364   21338971.5914  -16482552.04848 -12595023.00547
     -2277.3114      -1774.5314         48.8004         45.6004
  23497412.9064   23497412.3324   23497415.9784   -5680483.10946  -4411099.47446
     -2916.1854      -2272.3354         41.6004         39.0004
  23437116.9364   23437117.0054   23437120.2144   -7355644.67447  -5705377.95346
      3462.7204       2698.2274         42.9004         40.6004
  20272871.4114   20272871.5154   20272875.7464  -24165955.31648 -18804019.46247
      1870.0944       1457.2164         50.3004         47.3004
  20981934.8024   20981935.1784   20981939.3934  -20110857.31848 -15656876.24347
       924.7804        720.6124         49.6004         46.6004
  23815630.3524   23815629.4894   23815629.8874   -3561577.45546  -2768216.11746
       893.4344        696.1784         39.6004         37.3004
  23004489.5714   23004487.3664   23004490.4454   -6072430.88247  -4722871.60046
      -964.4934       -751.5554         42.5004         39.5004
 10  1  4  1  2  0.0000000  0  8G17G15G28G12G 9G27G22G18
  22135019.7544   22135020.4574   22135023.4244  -14270630.45347 -11104740.63847
      1175.7694        916.1814         47.9004         44.7004
  21352012.1464   21352012.3404   21352015.0464  -16414008.00048 -12541612.07447
     -2292.2934      -1786.1954         48.8004         45.8004
  23514076.6454   23514075.4914   23514078.0704   -5592912.48946  -4342862.61646
     -2921.8964      -2276.8104         41.8004         39.0004
  23417367.7094   23417366.9994   23417371.8574   -7459423.90347  -5786244.89846
      3455.8604       2692.8984         43.2004         40.4004
  20262236.0844   20262235.7224   20262240.1004  -24221845.30148 -18847570.09247
      1855.8784       1446.1434         50.5004         47.5004
  20976682.1004   20976681.7204   20976686.6194  -20138463.49748 -15678387.55447
       915.6204        713.4734         49.6004         46.6004
  23810581.3254   23810580.9934   23810582.7254   -3588109.22046  -2788890.18546
       875.4104        682.1364         39.7004         37.4004
  23010043.7284   23010044.5394   23010047.9174   -6043230.09347  -4700117.76246
      -982.2544       -765.4054         42.2004         39.2004
 10  1  4  1  2 30.0000000  0  8G17G15G28G12G 9G27G22G18
  22128360.8204   22128360.7684   22128364.0044  -14305626.53247 -11132010.28047
      1157.2824        901.7784         47.7004         44.7004
  21365140.2234   21365140.7964   21365144.8294  -16345015.35148 -12487851.56947
     -2307.2164      -1797.8284         48.8004         45.9004
  23530772.0544   23530772.7724   23530775.6444   -5505170.44346  -4274492.19546
     -2927.5864      -2281.2444         41.5004         38.6004
  23397658.7834   23397658.6284   23397663.2484   -7562996.20747  -5866950.59446
      3448.9334       2687.4704         43.2004         40.6004
  20251681.8264   20251681.6194   20251685.7334  -24277308.29648 -18890788.00347
      1841.6434       1435.0504         50.5004         47.5004
  20971481.3654   20971481.1054   20971485.4604  -20165794.08548 -15699684.12047
       906.4094        706.2904         49.6004         46.6004
  23805635.2594   23805633.9114   23805635.5914   -3614097.30346  -2809140.64946
       857.3314        668.0524         39.0004         36.2004
  23015700.5754   23015702.2904   23015706.4874   -6013496.12746  -4676948.43146
     -1000.0014       -779.2194         41.8004         39.3004
 10  1  4  1  3  0.0000000  0  8G17G15G28G12G 9G27G22G18
  22121807.5124   22121807.3464   22121811.1604  -14340067.22647 -11158847.17447
      1138.7404        887.3274         47.9004         45.1004
  21378354.4774   21378354.1324   21378358.1574  -16275575.73648 -12433742.78347
     -2322.1164      -1809.4394         48.6004         45.4004
  23547501.2044   23547501.8434   23547504.1864   -5417258.39846  -4205989.32546
     -2933.1874      -2285.6074         41.5004         38.8004
  23377989.8014   23377989.3494   23377993.6364   -7666359.84847  -5947493.68946
      3441.9654       2682.0614         43.2004         40.6004
  20241209.8394   20241209.0214   20241212.8924  -24332342.96948 -18933672.16647
      1827.3184       1423.8864         50.3004         47.3004
  20966333.2714   20966332.9674   20966336.9204  -20192848.30148 -15720765.33147
       897.1824        699.1054         49.6004         46.6004
  23800792.1694   23800791.6304   23800795.8674   -3639540.84946  -2828966.81545
       839.0684        653.8244         38.3004         35.7004
  23021463.3454   23021462.4404   23021465.5614   -5983230.34347  -4653364.75346
     -1017.7124       -793.0174         42.3004         39.9004
 10  1  4  1  3 30.0000000  0  8G17G15G28G12G 9G27G22G18
  22115358.5734   22115359.7054   22115363.0894  -14373950.91948 -11185250.03447
      1120.1434        872.8444         48.1004         45.1004
  21391653.1714   21391653.3604   21391657.0924  -16205690.35448 -12379286.65247
     -2336.9214      -1820.9834         48.6004         45.6004
  23564261.5664   23564262.4714   23564265.5274   -5329178.43046  -4137355.59346
     -2938.7414      -2289.9294         41.8004         39.0004
  23358358.3924   23358359.2304   23358362.9994   -7769513.29947  -6027873.01946
      3434.9304       2676.5544         43.0004         40.0004
  20230818.2074   20230818.2014   20230822.2684  -24386947.41548 -18976221.07547
      1812.9634       1412.6994         50.5004         47.5004
  20961237.3654   20961237.3054   20961241.3114  -20219625.63448 -15741630.78447
       887.9734        691.9364         49.6004         46.6004
  23796057.7534   23796053.5754   23796055.5794   -3664439.15246  -2848368.06445
       820.8424        639.6154         38.0004         35.7004
  23027321.3604   23027320.6954   23027324.8474   -5952434.05847  -4629367.68746
     -1035.3774       -806.7794         42.2004         39.2004
 10  1  4  1  4  0.0000000  0  8G17G15G28G12G 9G27G22G18
  22109017.2984   22109017.6274   22109020.8364  -14407276.45347 -11211217.97747
      1101.5264        858.3314         47.9004         44.9004
  21405035.7344   21405036.0844   21405040.0944  -16135361.12548 -12324484.64847
     -2351.6634      -1832.4614         48.6004         45.4004
  23581056.7274   23581056.0134   23581058.5874   -5240932.11546  -4068592.25846
     -2944.2894      -2294.2544         41.8004         39.2004
  23338770.1094   23338770.2644   23338774.8384   -7872454.83747  -6108087.21646
      3427.8504       2671.0524         43.0004         40.4004
  20220510.3844   20220509.5904   20220513.5854  -24441120.48548 -19018433.84747
      1798.5654       1401.4794         50.5004         47.5004
  20956194.6154   20956194.2414   20956198.6434  -20246125.64448 -15762280.14847
       878.7024        684.7044         49.6004         46.6004
  23791418.3344   23791419.9984   23791422.0494   -3688791.76346  -2867344.19245
       802.6244        625.4264         38.0004         35.9004
  23033283.3024   23033283.2544   23033286.5804   -5921108.90146  -4604958.47746
     -1053.0034       -820.5174         41.8004         39.2004
 10  1  4  1  4 30.0000000  0  9G17G15G28G12G26G 9G27G22G18
  22102783.0404   22102782.6304   22102785.1424  -14440042.49847 -11236749.95647
      1082.8484        843.7744         47.7004         44.5004
  21418503.3834   21418503.7484   21418507.4484  -16064589.73348 -12269338.11447
     -2366.3944      -1843.9474         48.4004         45.4004
  23597880.8504   23597880.5124   23597883.5174   -5152521.27546  -3999700.70646
     -2949.7304      -2298.4834         41.8004         39.0004
  23319222.6884   23319222.9704   23319225.4024   -7975183.13047  -6188135.22346
      3420.7104       2665.4844         43.0004         40.4004
  23284997.3244                   23284999.1814    -287538.22045   -205686.67046
      3542.9534       2760.7394         34.9004         37.1004
  20210283.2294   20210283.1874   20210287.0094  -24494860.82548 -19060309.43247
      1784.1084       1390.2184         50.7004         47.5004
  20951204.5614   20951204.2914   20951208.8174  -20272347.71148 -15782712.93147
       869.4384        677.4834         49.6004         46.6004
  23786892.8864   23786892.5504   23786892.4614   -3712597.82846  -2885894.38246
       784.3424        611.1744         38.7004         36.7004
  23039345.7804   23039344.4704   23039347.2204   -5889256.50447  -4580138.45746
     -1070.5404       -834.1814         42.0004         39.3004
 10  1  4  1  5  0.0000000  0  9G17G15G28G12G26G 9G27G22G18
  22096653.8514   22096653.9724   22096657.3084  -14472247.56347 -11261844.79247
      1064.1244        829.1874         47.7004         44.7004
  21432055.2644   21432055.2484   21432058.4004  -15993377.85548 -12213848.34447
     -2381.0224      -1855.3454         48.4004         45.6004
  23614735.0554   23614735.2354   23614738.0584   -5063947.58146  -3930682.26146
     -2955.1554      -2302.7124         41.6004         39.0004
  23299715.3674   23299715.0144   23299717.8054   -8077696.26147  -6268015.57046
      3413.4974       2659.8644         43.2004         40.7004
  23264798.8974   23264796.7694   23264799.0194    -393688.69246   -288401.35446
      3533.7714       2753.5884         38.7004         36.7004
  20200139.4304   20200139.1474   20200142.8644  -24548166.68748 -19101846.44547
      1769.5994       1378.9084         50.5004         47.3004
  20946267.9384   20946267.6394   20946272.1454  -20298291.19548 -15802928.64047
       860.1404        670.2414         49.6004         46.6004
  23782465.3024   23782463.8884   23782465.7924   -3735856.78646  -2904018.23946
       766.2044        597.0444         39.0004         36.6004
  23045506.0894   23045505.3484   23045509.1414   -5856878.25047  -4554908.67346
     -1088.0424       -847.8244         42.0004         39.0004
 10  1  4  1  5 30.0000000  0  9G17G15G28G12G26G 9G27G22G18
  22090632.1434   22090632.3324   22090635.7374  -14503890.50347 -11286501.61947
      1045.3874        814.5894         47.7004         44.7004
  21445688.9824   21445689.3734   21445693.7764  -15921727.16748 -12158016.64347
     -2395.6524      -1866.7424         48.6004         45.6004
  23631621.7794   23631621.2944   23631623.6764   -4975212.98446  -3861538.40446
     -2960.4654      -2306.8644         41.6004         38.8004
  23280248.0714   23280247.3424   23280252.1124   -8179992.45947  -6347726.89246
      3406.2604       2654.2274         43.6004         40.7004
  23244651.3314   23244648.8994   23244652.4534    -499562.34946   -370900.29446
      3524.4524       2746.3254         39.2004         36.9004
  20190078.2534   20190078.1184   20190082.2174  -24601036.66148 -19143043.80447
      1755.0544       1367.5704         50.5004         47.5004
  20941384.0974   20941383.9144   20941388.3714  -20323955.29648 -15822926.63947
       850.7914        662.9544         49.6004         46.8004
  23778142.3134   23778142.1794   23778145.0204   -3758567.74546  -2921715.09146
       747.9644        582.8274         38.7004         36.4004
  23051768.0834   23051766.6904   23051770.3844   -5823975.71146  -4529270.32646
     -1105.5024       -861.4314         41.6004         39.0004
 10  1  4  1  6  0.0000000  0  9G17G15G28G12G26G 9G27G22G18
  22084719.5794   22084719.5764   22084721.5844  -14534970.03447 -11310719.43647
      1026.5764        799.9284         47.9004         45.1004
  21459406.4244   21459407.4324   21459411.1074  -15849639.07448 -12101844.11747
     -2410.2164      -1878.0864         48.6004         45.6004
  23648537.8524   23648537.3014   23648538.8274   -4886319.22146  -3792270.54046
     -2965.7064      -2310.9404         41.5004         38.6004
  23260821.2774   23260822.1964   23260827.1714   -8282070.49247  -6427268.22346
      3398.9194       2648.5014         43.6004         40.7004
  23224556.7964   23224556.3734   23224558.7484    -605156.48346   -453181.42546
      3515.0934       2739.0374         39.2004         36.7004
  20180100.8854   20180100.6824   20180104.7484  -24653469.48448 -19183900.53047
      1740.4514       1356.1954         50.5004         47.5004
  20936553.7604   20936553.3824   20936557.8354  -20349339.45048 -15842706.51147
       841.4574        655.6824         49.6004         46.8004
  23773928.3114   23773926.8344   23773926.6134   -3780730.32446  -2938984.58246
       729.5594        568.4854         38.5004         36.0004
  23058127.5134   23058127.8994   23058130.8234   -5790550.34547  -4503224.61346
     -1122.8734       -874.9584         42.0004         39.3004
 10  1  4  1  6 30.0000000  0  9G17G15G28G12G26G 9G27G22G18
  22078911.5534   22078911.4614   22078914.6384  -14565484.62647 -11334497.03447
      1007.7184        785.2354         47.9004         44.7004
  21473208.5394   21473208.4984   21473211.8624  -15777115.53548 -12045332.27347
     -2424.6764      -1889.3594         48.6004         45.6004
  23665480.8614   23665481.3014   23665485.6684   -4797267.84146  -3722879.88346
     -2970.9554      -2315.0164         40.8004         38.1004
  23241439.9864   23241440.5414   23241443.9484   -8383928.52047  -6506638.10546
      3391.5624       2642.7774         43.9004         41.1004
  23204516.9624   23204514.9854   23204518.8134    -710468.16546   -535242.48046
      3505.6604       2731.6824         39.2004         36.7004
  20170207.2384   20170206.5414   20170210.1374  -24705463.80048 -19224415.55947
      1725.8124       1344.7864         50.5004         47.5004
  20931776.2494   20931776.3874   20931780.7804  -20374443.22548 -15862267.89347
       832.0984        648.3864         49.6004         46.8004
  23769811.1484   23769810.9524   23769815.8924   -3802343.79046  -2955826.21345
       711.3074        554.2654         37.5004         35.0004
  23064589.1334   23064587.1884   23064591.4954   -5756603.77147  -4476772.78946
     -1140.2124       -888.4574         42.2004         39.5004
 10  1  4  1  7  0.0000000  0  9G17G15G28G12G26G 9G27G22G18
  22073212.7554   22073212.5904   22073215.4464  -14595433.05247 -11357833.45947
       988.8454        770.5214         47.7004         44.7004
  21487091.2684   21487091.7274   21487095.4394  -15704158.35148 -11988482.53847
     -2439.1344      -1900.6194         48.6004         45.6004
  23682455.6954   23682456.4444   23682460.0644   -4708060.68646  -3653367.81446
     -2976.1444      -2319.0704         40.4004         37.4004
  23222098.9474   23222099.4024   23222103.7324   -8485565.00247  -6585835.33546
      3384.1464       2637.0104         43.7004         40.9004
  23184527.7264   23184527.8594   23184533.1144    -815494.57046   -617081.26446
      3496.0924       2724.2274         39.6004         37.3004
  20160396.3574   20160395.9614   20160399.7544  -24757017.86648 -19264587.55147
      1711.1044       1333.3284         50.5004         47.3004
  20927053.4794   20927053.1824   20927057.0904  -20399266.16448 -15881610.45347
       822.7364        641.0924         49.8004         47.0004
  23765803.8504   23765802.1964   23765805.4534   -3823407.92146  -2972239.80445
       693.0164        540.0104         36.6004         34.5004
  23071146.5724   23071146.7364   23071149.8854   -5722137.89647  -4449916.27546
     -1157.4774       -901.9274         42.0004         39.2004
 10  1  4  1  7 30.0000000  0  9G17G15G28G12G26G 9G27G22G18
  22067620.4374   22067620.9534   22067625.3044  -14624814.29347 -11380727.92647
       969.8674        755.7434         47.7004         44.7004
  21501057.5554   21501057.1174   21501061.0844  -15630769.20348 -11931296.21347
     -2453.5064      -1911.8254         48.6004         45.6004
  23699461.3414   23699462.4984   23699466.2114   -4618699.67846  -3583735.84646
     -2981.2414      -2323.0474         40.4004         37.8004
  23202800.7554   23202800.9774   23202804.9094   -8586978.27547  -6664858.66546
      3376.6924       2631.1914         43.9004         41.2004
  23164598.8094   23164597.4004   23164601.6984    -920232.84346   -698695.48246
      3486.4314       2716.7014         40.1004         37.8004
  20150670.3354   20150669.9044   20150673.5634  -24808130.21748 -19304415.34147
      1696.3794       1321.8514         50.5004         47.5004
  20922382.6104   20922382.8794   20922386.8534  -20423807.45848 -15900733.54147
       813.3234        633.7574         49.8004         46.8004
  23761899.7904   23761901.6134   23761903.9624   -3843922.15446  -2988224.93545
       674.6094        525.6704         36.6004         35.0004
  23077803.6634   23077803.7724   23077805.6604   -5687153.85046  -4422656.04246
     -1174.7074       -915.3674         41.6004         38.8004
 10  1  4  1  8  0.0000000  0  9G17G15G28G12G26G 9G27G22G18
  22062138.0714   22062138.7434   22062141.7964  -14653627.24047 -11403179.57347
       950.9314        740.9824         47.9004         45.1004
  21515104.4574   21515104.4384   21515108.1704  -15556949.52448 -11873774.39047
     -2467.8064      -1922.9594         48.6004         45.6004
  23716497.8524   23716496.8544   23716501.3694   -4529186.54646  -3513985.37446
     -2986.2944      -2326.9824         40.9004         38.8004
  23183545.4594   23183546.8744   23183550.1974   -8688166.74147  -6743706.81346
      3369.1684       2625.3214         43.9004         41.1004
  23144721.8774   23144722.2944   23144725.7764   -1024680.09546   -780082.99546
      3476.6974       2709.1204         40.1004         37.6004
  20141027.5984   20141027.4304   20141031.3404  -24858799.76548 -19343898.08947
      1681.5834       1310.3254         50.5004         47.5004
  20917765.5644   20917766.0684   20917770.2704  -20448066.67248 -15919636.82647
       803.9204        626.4314         49.8004         46.8004
  23758099.4534   23758100.3334   23758103.8964   -3863885.62846  -3003780.94545
       656.2544        511.3664         36.4004         34.6004
  23084559.0894   23084558.6834   23084561.3124   -5651653.43646  -4394993.40246
     -1191.9444       -928.7604         41.3004         38.5004
 10  1  4  1  8 30.0000000  0  9G17G15G28G12G26G 9G27G22G18
  22056765.3664   22056764.8354   22056766.4774  -14681870.42848 -11425187.24247
       931.9344        726.1744         48.1004         45.1004
  21529233.6194   21529233.9564   21529237.6334  -15482701.22348 -11815918.59447
     -2482.0674      -1934.0814         48.6004         45.8004
  23733559.6954   23733558.9354   23733562.9494   -4439522.71046  -3444117.46846
     -2991.2994      -2330.8894         41.1004         38.3004
  23164332.9454   23164333.4254   23164337.2294   -8789129.04147  -6822378.72746
      3361.6024       2619.4264         43.9004         40.9004
  23124902.9164   23124900.8364   23124905.3184   -1128833.32946   -861241.37246
      3466.8654       2701.4554         39.7004         36.9004
  20131470.3914   20131469.7584   20131473.8514  -24909025.16748 -19383034.75947
      1666.7554       1298.7714         50.5004         47.5004
  20913204.1234   20913203.5424   20913208.0364  -20472043.34848 -15938319.94947
       794.5054        619.0954         49.6004         46.8004
  23754408.2124   23754408.2534   23754409.4304   -3883297.78846  -3018907.28345
       637.8534        497.0284         36.8004         35.2004
  23091413.3034   23091412.3654   23091415.1854   -5615638.25946  -4366929.67246
     -1209.0424       -942.0834         41.5004         39.0004
 10  1  4  1  9  0.0000000  0  9G17G15G28G12G26G 9G27G22G18
  22051498.6464   22051498.3894   22051502.2544  -14709542.84548 -11446750.13647
       912.8894        711.3444         48.2004         45.2004
  21543443.5244   21543444.2114   21543447.6774  -15408026.11348 -11757730.20847
     -2496.2674      -1945.1474         48.8004         45.6004
  23750650.5224   23750649.6514   23750654.0104   -4349710.03946  -3374133.54046
     -2996.2314      -2334.7214         41.1004         38.3004
  23145163.3824   23145164.1034   23145168.8634   -8889863.35647  -6900872.98646
      3353.9834       2613.4824         43.7004         40.9004
  23105138.3484   23105138.6204   23105143.3334   -1232689.69146   -942168.41946
      3456.9314       2693.7124         39.7004         37.4004
  20121997.2534   20121997.0424   20122000.7594  -24958804.84948 -19421824.11647
      1651.8704       1287.1734         50.5004         47.5004
  20908694.6324   20908694.7784   20908699.8234  -20495736.83148 -15956782.40947
       785.0664        611.7404         49.8004         47.0004
  23750815.9684   23750817.9634   23750817.6624   -3902158.56946  -3033603.98945
       619.5194        482.7464         36.8004         34.6004
  23098364.9404   23098364.1884   23098368.0434   -5579110.00446  -4338466.12746
     -1226.1794       -955.4604         41.8004         39.5004
 10  1  4  1  9 30.0000000  0  9G17G15G28G12G26G 9G27G22G18
  22046340.8534   22046341.1394   22046345.1894  -14736643.25948 -11467867.33747
       893.8044        696.4674         48.2004         45.2004
  21557733.8054   21557735.0274   21557738.3654  -15332925.93148 -11699210.60847
     -2510.4024      -1956.1564         48.6004         45.4004
  23767769.1144   23767768.0764   23767773.7114   -4259750.16046  -3304034.97646
     -3001.0884      -2338.5164         40.8004         37.9004
  23126039.6364   23126039.6074   23126042.3924   -8990368.30147  -6979188.50446
      3346.2834       2607.4894         43.7004         41.1004
  23085434.7814   23085433.1784   23085436.9244   -1336246.35246  -1022861.93446
      3446.8434       2685.8544         40.3004         37.9004
  20112609.3174   20112609.4034   20112613.3994  -25008137.30748 -19460264.98147
      1636.9584       1275.5474         50.5004         47.5004
  20904240.8084   20904240.5164   20904244.8714  -20519146.52048 -15975023.73047
       775.6094        604.3684         50.0004         47.2004
  23747334.1324   23747332.0764   23747338.8204   -3920467.23646  -3047870.45845
       601.0384        468.3464         36.8004         34.8004
  23105412.8724   23105411.6134   23105414.8534   -5542070.49146  -4309604.18046
     -1243.1584       -968.7114         41.8004         39.0004
 10  1  4  1 10  0.0000000  0  9G17G15G28G12G26G 9G27G22G18
  22041293.3034   22041293.7354   22041296.6034  -14763170.61948 -11488537.99147
       874.6834        681.5624         48.4004         45.4004
  21572106.4724   21572106.5394   21572109.5004  -15257402.73548 -11640361.36847
     -2524.4724      -1967.1214         48.6004         45.4004
  23784913.4104   23784914.1424   23784918.8474   -4169644.95946  -3233823.13446
     -3005.9254      -2342.2714         40.4004         37.6004
  23106956.9164   23106957.0694   23106960.8124   -9090642.25447  -7057324.02246
      3338.5934       2601.5034         43.9004         41.1004
  23065785.5984   23065784.7364   23065787.5324   -1439500.51646  -1103319.76846
      3436.6854       2677.9364         40.6004         37.9004
  20103306.9534   20103306.9884   20103310.9754  -25057021.60248 -19498356.63847
      1621.9794       1263.8804         50.5004         47.5004
  20899839.6704   20899839.7144   20899844.2724  -20542272.05948 -15993043.63047
       766.1154        596.9774         50.0004         47.2004
  23743955.7214   23743955.0924   23743957.2604   -3938223.58346  -3061706.60345
       582.6704        454.0294         36.8004         34.6004
  23112555.8814   23112555.7844   23112559.8534   -5504521.59246  -4280345.32946
     -1260.1254       -981.9184         41.5004         38.3004
 10  1  4  1 10 30.0000000  0  9G17G15G28G12G26G 9G27G22G18
  22036355.2024   22036354.8574   22036357.5864  -14789123.91948 -11508761.32647
       855.5294        666.6474         48.2004         45.1004
  21586557.8934   21586558.1574   21586562.5084  -15181458.10848 -11581183.71947
     -2538.4944      -1978.0484         48.6004         45.6004
  23802088.2474   23802087.0624   23802092.7944   -4079396.12746  -3163499.38046
     -3010.6814      -2345.9864         40.3004         37.8004
  23087919.5864   23087920.0394   23087923.9114   -9190683.70647  -7135278.40146
      3330.7914       2595.4214         43.7004         40.9004
  23046192.7474   23046192.6184   23046197.7854   -1542449.38546  -1183539.70646
      3426.5374       2670.0274         40.4004         37.8004
  20094090.8004   20094090.4674   20094094.0424  -25105456.15848 -19536097.85247
      1606.9684       1252.1884         50.5004         47.5004
  20895493.7644   20895493.4484   20895497.5024  -20565112.55448 -16010841.42047
       756.5884        589.5504         50.0004         47.0004
  23740684.0004   23740682.8624   23740684.5624   -3955427.13146  -3075111.94045
       564.2224        439.6544         37.1004         35.3004
  23119799.7914   23119799.1154   23119801.6964   -5466464.62146  -4250690.56846
     -1276.9774       -995.0484         41.3004         38.8004
 10  1  4  1 11  0.0000000  0  9G17G15G28G12G26G 9G27G22G18
  22031524.2994   22031524.9894   22031528.8344  -14814501.93148 -11528536.39847
       836.3134        651.6734         48.1004         45.1004
  21601089.5924   21601090.1884   21601093.5944  -15105093.99048 -11521679.22147
     -2552.4534      -1988.9214         48.6004         45.6004
  23819290.2044   23819289.1564   23819294.2304   -3989005.11146  -3093064.83746
     -3015.4054      -2349.6614         40.4004         37.9004
  23068925.8634   23068927.5404   23068931.4874   -9290490.96347  -7213050.25946
      3322.9344       2589.2904         43.9004         41.2004
  23026661.5964   23026662.5624   23026665.5354   -1645089.64946  -1263519.11646
      3416.1754       2661.9554         40.8004         38.1004
  20084959.9204   20084959.8064   20084963.2134  -25153439.36348 -19573487.36747
      1591.8884       1240.4314         50.7004         47.7004
  20891201.4004   20891201.3204   20891205.6614  -20587667.36548 -16028416.59647
       747.0614        582.1314         49.8004         47.0004
  23737513.9334   23737514.3214   23737515.9344   -3972077.04846  -3088085.94145
       545.7784        425.2844         37.6004         35.5004
  23127138.7084   23127137.8744   23127142.2314   -5427901.80746  -4220641.66746
     -1293.8474      -1008.1814         41.6004         39.0004
 10  1  4  1 11 30.0000000  0  9G17G15G28G12G26G 9G27G22G18
  22026805.4954   22026805.7114   22026808.6644  -14839303.65248 -11547862.39247
       817.1144        636.7114         48.1004         45.1004
  21615701.2094   21615701.0904   21615704.1044  -15028311.64648 -11461848.84047
     -2566.3614      -1999.7604         48.4004         45.2004
  23836517.2334   23836516.8744   23836521.7274   -3898473.80546  -3022520.96046
     -3020.0324      -2353.2684         40.3004         37.6004
  23049980.2184   23049979.5524   23049983.9734   -9390062.08247  -7290638.11146
      3315.1094       2583.2024         44.1004         41.4004
  23007187.1254   23007188.3454   23007191.9454   -1747418.62946  -1343256.03246
      3405.7464       2653.8284         40.3004         37.4004
  20075915.1964   20075914.9094   20075919.0054  -25200969.86148 -19610524.11947
      1576.7934       1228.6684         50.7004         47.7004
  20886963.7444   20886963.4604   20886968.1704  -20609936.04448 -16045768.81047
       737.5184        574.6914         50.0004         47.2004
  23734451.4794   23734449.7624   23734452.9544   -3988173.38246  -3100628.57346
       527.3234        410.8964         38.2004         36.4004
  23134573.0494   23134571.2864   23134574.7374   -5388834.30646  -4190199.49846
     -1310.6254      -1021.2664         41.8004         39.2004
 10  1  4  1 12  0.0000000  0  9G17G15G28G12G26G 9G27G22G18
  22022194.2264   22022195.1064   22022198.5384  -14863528.37848 -11566738.80047
       797.8674        621.7214         48.1004         44.9004
  21630390.3814   21630391.0344   21630395.0304  -14951113.32348 -11401694.30147
     -2580.1984      -2010.5444         48.2004         45.2004
  23853771.6914   23853771.6594   23853774.8744   -3807804.01946  -2951869.17446
     -3024.6304      -2356.8464         39.7004         36.9004
  23031077.4844   23031076.8554   23031080.4424   -9489396.05447  -7368041.21446
      3307.1494       2576.9974         44.4004         41.6004
  22987775.5154   22987775.0394   22987779.7424   -1849433.27346  -1422747.96446
      3395.1954       2645.6044         39.9004         37.6004
  20066956.0494   20066956.3424   20066960.4074  -25248046.22148 -19647206.99147
      1561.6324       1216.8564         50.7004         47.7004
  20882780.2974   20882780.5694   20882785.3464  -20631917.76648 -16062897.42547
       727.9284        567.2144         50.0004         47.2004
  23731494.6594   23731494.5774   23731494.0254   -4003715.80746  -3112739.58946
       508.8234        396.4854         38.9004         36.6004
  23142101.9494   23142101.9234   23142105.0754   -5349263.98747  -4159365.47546
     -1327.3814      -1034.3214         42.0004         39.5004
 10  1  4  1 12 30.0000000  0  9G17G15G28G12G26G 9G27G22G18
  22017696.2164   22017696.4814   22017699.2714  -14887174.60948 -11585164.42047
       778.5484        606.6654         48.1004         45.2004
  21645160.1934   21645160.7824   21645164.7384  -14873500.84448 -11341217.03547
     -2593.9564      -2021.2614         48.2004         45.2004
  23871051.1784   23871051.7994   23871053.4114   -3716997.41446  -2881110.82946
     -3029.1804      -2360.4074         39.2004         36.6004
  23012218.7184   23012219.2934   23012221.8614   -9588491.20947  -7445258.20446
      3299.1244       2570.7424         44.1004         41.1004
  22968422.6644   22968422.8614   22968428.1054   -1951130.89146  -1501992.87846
      3384.5994       2637.3484         40.6004         38.1004
  20058084.6714   20058084.5374   20058088.4854  -25294666.96448 -19683534.84147
      1546.4284       1205.0104         50.7004         47.7004
  20878652.9324   20878652.3534   20878656.9074  -20653611.88848 -16079801.93547
       718.3104        559.7174         50.0004         47.2004
  23728641.1304   23728640.6504   23728642.3824   -4018703.99546  -3124418.68646
       490.3544        382.0944         39.0004         36.9004
  23149725.6934   23149725.9784   23149730.5254   -5309192.93746  -4128141.33946
     -1344.0094      -1047.2784         41.6004         38.6004
 10  1  4  1 13  0.0000000  0  9G17G15G28G12G26G 9G27G22G18
  22013306.0644   22013306.1444   22013310.3874  -14910241.66048 -11603138.73847
       759.2134        591.5944         48.1004         45.1004
  21660008.6124   21660008.6934   21660011.3834  -14795476.20348 -11280418.62247
     -2607.6944      -2031.9724         48.2004         45.2004
  23888358.1044   23888356.9644   23888357.9494   -3626055.59046  -2810247.07446
     -3033.6304      -2363.8794         39.2004         36.9004
  22993408.2944   22993407.3704   22993411.6914   -9687346.03147  -7522287.90046
      3291.1244       2564.5074         44.1004         41.4004
  22949129.5934   22949130.6634   22949136.0544   -2052508.32846  -1580988.27546
      3373.8814       2628.9984         40.4004         37.6004
  20049299.4274   20049299.7404   20049303.8324  -25340831.05048 -19719506.85647
      1531.1654       1193.1144         50.5004         47.5004
  20874578.9384   20874578.7304   20874583.4154  -20675018.21548 -16096482.18647
       708.7354        552.2624         50.0004         47.0004
  23725893.6834   23725894.4974   23725896.2744   -4033137.63546  -3135665.72246
       471.8914        367.7104         39.2004         36.9004
  23157448.0214   23157446.3234   23157450.1334   -5268623.14446  -4096528.52746
     -1360.6384      -1060.2224         41.5004         38.5004
 10  1  4  1 13 30.0000000  0  9G17G15G28G12G26G 9G27G22G18
  22009026.7734   22009027.6004   22009030.4104  -14932728.47948 -11620660.92747
       739.8554        576.5104         48.1004         45.1004
  21674933.4194   21674933.2694   21674936.9124  -14717041.12248 -11219300.38347
     -2621.3274      -2042.5954         48.2004         45.1004
  23905690.7234   23905688.9364   23905690.9444   -3534980.20446  -2739279.24946
     -3038.0544      -2367.3124         39.4004         37.3004
  22974642.3734   22974642.1744   22974646.8214   -9785959.13547  -7599129.23846
      3283.0754       2558.2524         44.4004         41.6004
  22929901.8344   22929902.0704   22929906.5324   -2153563.15746  -1659732.26946
      3363.0764       2620.5804         40.4004         38.1004
  20040602.0164   20040602.3604   20040606.2314  -25386537.15848 -19755122.01447
      1515.8904       1181.2124         50.7004         47.7004
  20870560.9624   20870560.5704   20870564.8694  -20696136.00648 -16112937.61047
       699.1184        544.7664         50.0004         47.2004
  23723252.1304   23723253.4304   23723253.8884   -4047016.34346  -3146480.34046
       453.3864        353.2904         39.0004         36.7004
  23165261.6164   23165261.7224   23165264.9394   -5227556.32046  -4064528.42446
     -1377.1764      -1073.1184         41.1004         38.6004
 10  1  4  1 14  0.0000000  0  9G17G15G28G12G26G 9G27G22G18
  22004857.6624   22004858.4174   22004862.3024  -14954634.07448 -11637730.20547
       720.4864        561.4154         48.1004         45.1004
  21689936.1134   21689937.0774   21689941.2344  -14638197.44248 -11157863.75747
     -2634.9084      -2053.1814         48.1004         45.1004
  23923045.1664   23923043.7864   23923047.9654   -3443772.92846  -2668208.65946
     -3042.4004      -2370.6924         39.7004         37.4004
  22955924.2284   22955924.1944   22955927.5574   -9884329.06547  -7675781.10446
      3274.9064       2551.8684         44.4004         41.6004
  22910734.9344   22910734.9734   22910738.2334   -2254291.92646  -1738222.25346
      3352.0664       2611.9994         41.3004         38.8004
  20031992.8154   20031992.4624   20031995.9754  -25431783.92248 -19790379.24347
      1500.5404       1169.2544         50.8004         47.8004
  20866597.0384   20866596.9214   20866601.0894  -20716964.69248 -16129167.75347
       689.4694        537.2444         50.0004         47.2004
  23720715.9694   23720716.2904   23720719.3234   -4060339.85246  -3156862.29046
       434.9374        338.9104         39.0004         36.6004
  23173171.9464   23173171.2344   23173173.7574   -5185994.24446  -4032142.44146
     -1393.6574      -1085.9524         41.3004         39.0004
 10  1  4  1 14 30.0000000  0  9G17G15G28G12G26G 9G27G22G18
  22000801.0614   22000801.0034   22000804.1414  -14975957.57148 -11654345.89947
       701.0774        546.2914         48.1004         45.1004
  21705019.1244   21705018.8354   21705022.2044  -14558946.79048 -11096110.01347
     -2648.4384      -2063.7184         48.1004         45.1004
  23940425.0724   23940424.5344   23940428.5934   -3352435.40946  -2597036.57846
     -3046.7134      -2374.0644         39.7004         37.1004
  22937249.9344   22937250.4114   22937255.0434   -9982453.47547  -7752241.68146
      3266.7224       2545.5024         44.6004         41.8004
  22891629.6044   22891629.1754   22891632.0704   -2354691.88846  -1816455.96846
      3341.1754       2603.5074         41.3004         38.5004
  20023469.9504   20023469.6984   20023473.9844  -25476569.79048 -19825277.32647
      1485.1804       1157.2844         50.8004         47.7004
  20862688.0594   20862688.2854   20862692.6574  -20737503.63948 -16145172.13047
       679.7914        529.7104         50.0004         47.2004
  23718290.0374   23718288.1934   23718290.5104   -4073107.63046  -3166811.21746
       416.3654        324.4384         39.4004         37.3004
  23181173.1524   23181172.2744   23181177.6264   -5143938.75346  -3999371.93546
     -1410.0534      -1098.7394         41.5004         38.8004
 10  1  4  1 15  0.0000000  0  9G17G15G28G12G26G 9G27G22G18
  21996853.8354   21996854.3384   21996857.3184  -14996698.20448 -11670507.41647
       681.6164        531.1274         48.1004         45.1004
  21720175.8474   21720175.9174   21720179.8984  -14479291.38147 -11034040.87547
     -2661.8974      -2074.2074         47.9004         44.9004
  23957830.6344   23957829.9394   23957835.9364   -3260969.21446  -2525764.24046
     -3051.0404      -2377.4314         39.4004         36.9004
  22918624.3844   22918623.8714   22918629.4384  -10080331.35247  -7828510.13946
      3258.4794       2539.0854         44.6004         41.8004
  22872587.0494   22872587.1254   22872589.6404   -2454760.11946  -1894431.23646
      3330.0224       2594.8254         41.3004         38.6004
  20015035.5714   20015035.3634   20015039.1454  -25520893.46448 -19859815.24847
      1469.7484       1145.2584         50.8004         47.8004
  20858834.8954   20858834.9324   20858839.6874  -20757752.32148 -16160950.32347
       670.0924        522.1494         50.0004         47.2004
  23715963.4294   23715964.2854   23715965.9494   -4085319.75246  -3176327.15446
       397.8204        309.9914         40.1004         37.6004
  23189271.8154   23189271.3664   23189273.9064   -5101391.63846  -3966218.35046
     -1426.4054      -1111.4844         41.8004         39.2004
 10  1  4  1 15 30.0000000  0  9G17G15G28G12G26G 9G27G22G18
  21993018.5134   21993018.4764   21993021.9504  -15016855.03848 -11686214.02747
       662.1624        515.9604         48.2004         45.2004
  21735410.3654   21735410.6824   21735414.2894  -14399233.05247 -10971657.77147
     -2675.3454      -2084.6824         47.9004         44.9004
  23975260.4134   23975260.2854   23975262.6974   -3169376.11646  -2454393.02546
     -3055.2194      -2380.6864         39.4004         36.9004
  22900047.1124   22900047.1314   22900051.1884  -10177961.13747  -7904585.27846
      3250.1754       2532.5954         44.8004         41.9004
  22853606.3394   22853607.0554   22853610.9594   -2554493.81946  -1972145.77346
      3318.8874       2586.1454         41.3004         38.6004
  20006688.7204   20006688.9174   20006692.8604  -25564753.98248 -19893992.27747
      1454.2814       1133.2044         50.8004         47.8004
  20855036.9534   20855037.0924   20855041.6034  -20777710.14648 -16176501.88247
       660.3774        514.5844         50.2004         47.2004
  23713748.9344   23713746.9184   23713746.6854   -4096976.48646  -3185410.35446
       379.2864        295.5424         39.6004         36.7004
  23197459.6164   23197460.1034   23197464.5984   -5058355.03946  -3932683.37246
     -1442.6774      -1124.1714         41.8004         39.2004
 10  1  4  1 16  0.0000000  0  9G17G15G28G12G26G 9G27G22G18
  21989293.8394   21989294.2644   21989297.6504  -15036427.07948 -11701464.94247
       642.6444        500.7684         48.4004         45.4004
  21750721.9784   21750721.7684   21750724.7644  -14318773.87647 -10908962.32847
     -2688.6324      -2095.0454         47.9004         45.1004
  23992714.9394   23992713.7744   23992716.3674   -3077657.93046  -2382924.30146
     -3059.3614      -2383.9194         39.0004         36.7004
  22881518.5024   22881517.8804   22881519.8174  -10275341.38447  -7980465.97747
      3241.8234       2526.1024         44.9004         42.3004
  22834690.7964   22834692.7364   22834695.4444   -2653890.06346  -2049597.39846
      3307.5884       2577.3444         41.3004         38.6004
  19998431.1374   19998430.7704   19998434.8484  -25608149.55848 -19927807.00247
      1438.7414       1121.0924         50.8004         47.8004
  20851295.6054   20851295.1344   20851299.2264  -20797376.70548 -16191826.47347
       650.6964        507.0334         50.2004         47.3004
  23711629.7404   23711631.7744   23711634.5464   -4108077.17846  -3194060.29245
       360.7844        281.1344         38.5004         35.9004
  23205743.6234   23205743.3764   23205746.2224   -5014830.85146  -3898768.46046
     -1458.9184      -1136.8234         41.6004         38.6004
 10  1  4  1 16 30.0000000  0  9G17G15G28G12G26G 9G27G22G18
  21985681.2934   21985681.1314   21985684.4054  -15055413.90148 -11716259.85447
       623.1324        485.5564         48.4004         45.4004
  21766108.4674   21766108.8514   21766112.6884  -14237915.55948 -10845955.85547
     -2701.9044      -2105.3854         48.1004         45.2004
  24010191.8634   24010190.0384   24010192.2834   -2985815.99946  -2311359.17246
     -3063.4434      -2387.1064         38.9004         36.4004
  22863033.1844   22863033.1224   22863036.2614  -10372470.55947  -8056151.01447
      3233.4334       2519.5694         44.9004         42.1004
  22815841.9614   22815843.7464   22815846.9164   -2752945.81746  -2126783.70146
      3296.1524       2568.4314         41.1004         38.6004
  19990261.9904   19990261.8034   19990265.5294  -25651078.85448 -19961258.40547
      1423.1974       1108.9834         50.8004         47.8004
  20847608.0704   20847608.0314   20847612.7364  -20816751.26548 -16206923.53747
       640.9484        499.4374         50.2004         47.2004
  23709630.6834   23709628.4494   23709627.8334   -4118621.49046  -3202276.67045
       342.2354        266.6764         38.0004         35.5004
  23214118.4164   23214117.6434   23214120.9544   -4970821.15846  -3864475.23546
     -1475.0544      -1149.3944         41.3004         38.6004
 10  1  4  1 17  0.0000000  0  9G17G15G28G12G26G 9G27G22G18
  21982180.0314   21982179.8474   21982182.8604  -15073814.31248 -11730597.83947
       603.5484        470.3004         48.4004         45.4004
  21781570.2474   21781571.1774   21781575.4904  -14156660.29448 -10782640.08747
     -2715.0954      -2115.6514         48.2004         45.4004
  24027693.3224   24027690.8144   24027692.5164   -2893852.24446  -2239699.11846
     -3067.4714      -2390.2284         38.7004         36.4004
  22844598.2774   22844598.1494   22844602.3124  -10469347.21147  -8131639.31147
      3224.9854       2512.9764         45.1004         42.3004
  22797059.8994   22797058.7194   22797063.3984   -2851658.32646  -2203702.51046
      3284.6044       2559.4314         41.6004         39.2004
  19982181.0324   19982181.2874   19982185.2874  -25693540.91548 -19994345.73447
      1407.5954       1096.8324         50.7004         47.7004
  20843976.9734   20843976.7794   20843981.2024  -20835833.25348 -16221792.62147
       631.1614        491.8154         50.2004         47.2004
  23707726.2474   23707725.6304   23707726.6144   -4128609.94146  -3210059.90645
       323.6594        252.2024         37.1004         35.0004
  23222583.6034   23222584.7454   23222588.7694   -4926327.82146  -3829805.15846
     -1491.1624      -1161.9444         41.5004         38.8004
 10  1  4  1 17 30.0000000  0  9G17G15G28G12G26G 9G27G22G18
  21978790.5624   21978789.9854   21978792.9654  -15091627.74348 -11744478.41347
       583.9754        455.0424         48.4004         45.4004
  21797108.7324   21797108.8664   21797111.7824  -14075009.83148 -10719016.35347
     -2728.2344      -2125.8954         48.2004         45.1004
  24045215.5104   24045214.5034   24045216.0924   -2801768.35146  -2167945.47946
     -3071.4484      -2393.3294         38.3004         36.0004
  22826212.6884   22826212.0414   22826215.7964  -10565969.68147  -8206929.54147
      3216.4714       2506.3494         45.3004         42.5004
  22778338.7814   22778340.4804   22778344.2704   -2950024.43046  -2280351.41346
      3273.0364       2550.4164         41.8004         39.2004
  19974191.0324   19974190.4914   19974194.1964  -25735534.40648 -20027067.92747
      1391.9504       1084.6354         50.7004         47.8004
  20840400.9384   20840401.2234   20840405.7574  -20854622.04848 -16236433.24447
       621.4124        484.2174         50.2004         47.2004
  23705930.1804   23705931.9294   23705934.2814   -4138041.84646  -3217409.46145
       305.2314        237.8434         36.4004         34.5004
  23231142.7754   23231141.9264   23231146.1274   -4881352.92046  -3794759.82646
     -1507.1804      -1174.4284         41.5004         38.8004
 10  1  4  1 18  0.0000000  0  9G17G15G28G12G26G 9G27G22G18
  21975511.8184   21975511.9584   21975515.3544  -15108853.37448 -11757900.97547
       564.3564        439.7594         48.4004         45.6004
  21812720.5164   21812721.1934   21812724.6004  -13992966.27748 -10655086.30847
     -2741.3234      -2136.0944         48.1004         45.1004
  24062760.3134   24062758.7804   24062762.9744   -2709565.56346  -2096099.17046
     -3075.3614      -2396.3794         38.5004         36.4004
  22807874.3214   22807873.3434   22807878.1574  -10662336.75947  -8282020.76347
      3207.9524       2499.7094         45.3004         42.5004
  22759689.6764   22759688.7254   22759692.1284   -3048041.48646  -2356728.32446
      3261.4144       2541.3724         41.8004         39.3004
  19966288.9294   19966288.7584   19966292.7914  -25777057.75048 -20059423.77247
      1376.2644       1072.4114         50.8004         47.8004
  20836882.4194   20836882.0734   20836886.2734  -20873117.09348 -16250844.97147
       611.6244        476.5924         50.2004         47.3004
  23704242.5144   23704242.0964   23704243.1064   -4146917.51146  -3224325.51145
       286.5184        223.2564         37.1004         35.2004
  23239792.0544   23239792.6494   23239796.6264   -4835898.24546  -3759340.65846
     -1523.1444      -1186.8684         41.5004         39.0004
 10  1  4  1 18 30.0000000  0  9G17G15G28G12G26G 9G27G22G18
  21972345.3094   21972345.5244   21972348.8934  -15125490.91948 -11770865.27847
       544.7584        424.4904         48.4004         45.4004
  21828405.8004   21828406.9814   21828411.9874  -13910531.25148 -10590851.23147
     -2754.3594      -2146.2504         48.1004         45.1004
  24080327.8454   24080326.1054   24080331.8474   -2617245.71446  -2024161.62946
     -3079.2524      -2399.4044         38.7004         36.2004
  22789585.2754   22789585.5424   22789587.9534  -10758446.64647  -8356911.58247
      3199.3494       2493.0024         45.5004         42.8004
  22741104.7864   22741103.9054   22741107.8804   -3145706.54647  -2432830.96846
      3249.6544       2532.1924         42.3004         39.9004
  19958476.6924   19958476.6994   19958480.9384  -25818110.07748 -20091412.59747
      1360.5394       1060.1604         50.8004         47.8004
  20833419.2604   20833418.5594   20833422.6714  -20891317.91148 -16265027.42647
       601.7894        468.9294         50.2004         47.3004
  23702661.0884   23702660.4824   23702660.9984   -4155235.79646  -3230807.29545
       267.9804        208.8214         37.6004         35.7004
  23248534.0024   23248533.4484   23248536.6504   -4789965.93546  -3723549.28546
     -1538.9924      -1199.2094         41.5004         39.0004
 10  1  4  1 19  0.0000000  0  9G17G15G28G12G26G 9G27G22G18
  21969291.7634   21969291.6974   21969295.3524  -15141538.89948 -11783370.18747
       525.0924        409.1604         48.4004         45.4004
  21844168.9374   21844168.8744   21844171.8204  -13827707.20048 -10526313.02647
     -2767.2864      -2156.3254         48.1004         44.9004
  24097916.9784   24097916.8414   24097920.1144   -2524810.19646  -1952133.98446
     -3083.1234      -2402.4364         38.5004         36.0004
  22771344.2824   22771344.2624   22771348.8154  -10854298.02847  -8431600.93247
      3190.7044       2486.2604         45.5004         42.5004
  22722587.0754   22722586.7804   22722590.3764   -3243016.36647  -2508656.77846
      3237.7244       2522.9014         42.5004         39.9004
  19950755.2474   19950754.5674   19950758.4454  -25858689.75048 -20123033.11847
      1344.7564       1047.8644         50.8004         47.7004
  20830010.8304   20830011.0554   20830015.3644  -20909223.60948 -16278979.92047
       591.9294        461.2424         50.2004         47.3004
  23701183.9084   23701183.4464   23701185.4844   -4162997.87246  -3236855.64946
       249.4574        194.3794         38.3004         36.4004
  23257364.9264   23257364.7784   23257368.7824   -4743558.11246  -3687387.38846
     -1554.8264      -1211.5514         41.6004         39.0004
 10  1  4  1 19 30.0000000  0  9G17G15G28G12G26G 9G27G22G18
  21966350.4644   21966350.6314   21966353.6584  -15156996.99248 -11795415.44947
       505.4344        393.8384         48.6004         45.6004
  21860002.9324   21860003.6564   21860006.5904  -13744495.66048 -10461472.85547
     -2780.1614      -2166.3614         48.1004         45.1004
  24115530.0194   24115529.0224   24115531.2874   -2432261.04146  -1880017.74245
     -3086.9164      -2405.3864         38.0004         35.5004
  22753154.4854   22753154.2824   22753157.6974  -10949889.40547  -8506087.69247
      3182.0254       2479.5014         45.5004         42.5004
  22704136.7094   22704137.1504   22704140.9574   -3339968.36947  -2584203.80646
      3225.7554       2513.5744         42.7004         39.9004
  19943122.0774   19943122.6144   19943126.5734  -25898795.55348 -20154284.39547
      1328.9484       1035.5454         50.8004         47.8004
  20826660.3794   20826659.8974   20826664.6154  -20926833.61748 -16292702.00747
       582.0514        453.5484         50.2004         47.3004
  23699814.2054   23699812.4984   23699813.3334   -4170203.75046  -3242470.63046
       230.9254        179.9444         38.7004         36.4004
  23266285.8894   23266285.8244   23266289.3614   -4696676.58946  -3650856.39546
     -1570.5864      -1223.8574         41.5004         38.6004
 10  1  4  1 20  0.0000000  0  9G17G15G28G12G26G 9G27G22G18
  21963519.7604   21963520.4354   21963524.2094  -15171864.51348 -11807000.51247
       485.7384        378.4934         48.4004         45.4004
  21875911.5304   21875911.8224   21875915.5694  -13660898.81348 -10396332.46247
     -2792.9624      -2176.3334         48.2004         45.2004
  24133160.3304   24133159.9834   24133162.1134   -2339599.54346  -1807814.00145
     -3090.5724      -2408.2214         37.6004         35.2004
  22735014.2284   22735013.8014   22735017.3644  -11045219.26747  -8580370.68247
      3173.2734       2472.6794         45.5004         42.6004
  22685755.4574   22685756.1154   22685760.5904   -3436559.33347  -2659469.50846
      3213.6624       2504.1554         42.5004         39.7004
  19935581.4594   19935581.3074   19935585.1894  -25938426.11448 -20185165.34547
      1313.0864       1023.1814         50.8004         47.8004
  20823365.6224   20823365.2394   20823369.8144  -20944147.40848 -16306193.26947
       572.1724        445.8454         50.2004         47.3004
  23698544.9294   23698546.1574   23698546.3904   -4176853.43246  -3247652.21246
       212.3524        165.4684         38.2004         36.0004
  23275296.6184   23275294.9354   23275299.4234   -4649323.47446  -3613957.90446
     -1586.2624      -1236.0394         40.9004         37.9004
 10  1  4  1 20 30.0000000  0  9G17G15G28G12G26G 9G27G22G18
  21960804.2474   21960804.4134   21960807.8894  -15186141.13048 -11818125.14247
       466.0054        363.1224         48.6004         45.6004
  21891892.3464   21891892.4154   21891895.7294  -13576918.55248 -10330893.30247
     -2805.7054      -2186.2584         48.2004         45.1004
  24150815.4234   24150815.7524   24150817.1044   -2246827.48346  -1735524.09445
     -3094.2104      -2411.0684         37.3004         35.3004
  22716921.3774   22716922.5784   22716926.6284  -11140286.15747  -8654448.75147
      3164.4914       2465.8394         45.6004         42.6004
  22667445.6594   22667444.7684   22667449.3274   -3532786.69947  -2734451.87646
      3201.4934       2494.6754         42.7004         40.0004
  19928130.0104   19928130.3074   19928134.4424  -25977580.40248 -20215675.18447
      1297.1964       1010.8044         50.8004         47.8004
  20820126.9584   20820126.8074   20820131.4784  -20961164.51348 -16319453.35147
       562.2764        438.1364         50.2004         47.3004
  23697387.5514   23697387.5404   23697387.8984   -4182946.07746  -3252399.77245
       193.7034        150.9464         38.0004         35.9004
  23284396.5174   23284395.7504   23284400.3394   -4601501.07646  -3576693.78746
     -1601.8674      -1248.2234         40.8004         38.1004
 10  1  4  1 21  0.0000000  0  9G17G15G28G12G26G 9G27G22G18
  21958200.0494   21958199.9494   21958203.5424  -15199826.10148 -11828788.74547
       446.3004        347.7684         48.6004         45.6004
  21907945.7274   21907945.3024   21907948.7224  -13492557.22047 -10265157.19647
     -2818.3624      -2196.1254         47.9004         44.5004
  24168490.1814   24168491.2444   24168493.2084   -2153946.37846  -1663149.22845
     -3097.8234      -2413.8854         37.6004         35.9004
  22698882.3274   22698882.7974   22698886.4954  -11235088.44947  -8728320.64747
      3155.6334       2458.9424         45.6004         42.6004
  22649203.7654   22649203.8384   22649207.0484   -3628647.21047  -2809148.39246
      3189.2294       2485.1204         42.7004         39.9004
  19920770.5264   19920770.4454   19920774.3904  -26016257.13048 -20245812.90847
      1281.2694        998.3974         50.8004         47.8004
  20816945.4954   20816945.4374   20816949.5214  -20977884.29548 -16332481.75547
       552.3544        430.4124         50.2004         47.3004
  23696334.1744   23696333.8014   23696334.4474   -4188482.38646  -3256713.78745
       175.2424        136.5584         37.6004         35.9004
  23293586.0134   23293585.5174   23293589.1424   -4553211.40946  -3539065.51346
     -1617.4104      -1260.3234         40.4004         37.8004
 10  1  4  1 21 30.0000000  0  9G17G15G28G12G26G 9G27G22G18
  21955708.8304   21955709.4414   21955712.2394  -15212918.55548 -11838990.65047
       426.5304        332.3584         48.6004         45.8004
  21924070.4144   21924071.1734   21924075.0914  -13407816.55947 -10199125.52047
     -2830.9964      -2205.9714         47.7004         44.7004
  24186186.3154   24186186.2184   24186189.4174   -2060957.63046  -1590690.47746
     -3101.3964      -2416.6724         38.2004         36.2004
  22680893.3254   22680893.0394   22680896.7284  -11329624.76947  -8801985.28047
      3146.7284       2451.9804         45.8004         42.8004
  22631031.7914   22631032.3364   22631036.3194   -3724138.06147  -2883556.84746
      3176.9334       2475.5354         42.7004         39.7004
  19913501.9804   19913501.9104   19913505.9994  -26054454.93648 -20275577.43448
      1265.2634        985.9184         51.0004         48.0004
  20813820.6644   20813820.5714   20813824.8114  -20994306.00148 -16345277.89047
       542.4144        422.6634         50.3004         47.3004
  23695384.0224   23695383.2724   23695387.9514   -4193462.53546  -3260594.44745
       156.7664        122.1534         37.6004         35.7004
  23302862.4814   23302861.8044   23302868.7784   -4504456.48246  -3501074.70046
     -1632.8754      -1272.3724         40.6004         38.1004
 10  1  4  1 22  0.0000000  0  9G17G15G28G12G26G 9G27G22G18
  21953330.1084   21953330.2944   21953334.1494  -15225417.97048 -11848730.44447
       406.7404        316.9414         48.8004         45.8004
  21940268.1204   21940268.3314   21940271.8474  -13322699.31747 -10132800.41047
     -2843.5264      -2215.7254         47.5004         44.5004
  24203899.3274   24203899.1564   24203903.9964   -1967862.97346  -1518149.20145
     -3104.8544      -2419.3694         37.8004         35.3004
  22662952.8564   22662953.3344   22662957.8764  -11423893.62747  -8875441.49847
      3137.7974       2445.0404         45.6004         42.6004
  22612929.8824   22612931.1264   22612935.4514   -3819256.34347  -2957675.00046
      3164.3264       2465.7064         42.5004         39.9004
  19906324.4664   19906324.4094   19906328.4194  -26092172.80648 -20304967.97748
      1249.2574        973.4434         51.0004         48.0004
  20810752.5814   20810752.3644   20810756.7414  -21010429.24348 -16357841.45047
       532.4494        414.8984         50.3004         47.3004
  23694542.4144   23694543.0384   23694546.6794   -4197886.30346  -3264041.60046
       138.2234        107.7154         38.0004         36.0004
  23312231.9624   23312231.1564   23312234.1584   -4455238.49546  -3462723.11046
     -1648.3224      -1284.3954         41.3004         39.0004
 10  1  4  1 22 30.0000000  0  9G17G15G28G12G26G 9G27G22G18
  21951064.3434   21951064.9134   21951068.0494  -15237324.10448 -11858007.93847
       386.9584        301.5214         48.8004         45.8004
  21956536.5024   21956536.9824   21956540.2284  -13237206.21947 -10066182.40747
     -2855.9924      -2225.4474         47.4004         44.2004
  24221635.7564   24221636.3544   24221638.3114   -1874663.79746  -1445526.49945
     -3108.3704      -2422.0984         37.5004         35.0004
  22645065.4694   22645065.7084   22645070.5164  -11517893.64947  -8948688.25047
      3128.8234       2438.0424         45.6004         42.8004
  22594902.1984   22594902.0284   22594906.8214   -3913999.22547  -3031500.64046
      3151.7584       2455.9134         42.7004         40.0004
  19899238.8234   19899238.6464   19899242.3894  -26129409.44048 -20333983.53248
      1233.1814        960.9174         51.0004         48.0004
  20807741.7584   20807741.3234   20807745.6204  -21026253.29748 -16370171.88747
       522.4834        407.1244         50.3004         47.5004
  23693807.9894   23693808.2374   23693808.2494   -4201754.01746  -3267055.45446
       119.6914         93.2664         38.2004         36.4004
  23321683.9174   23321682.2074   23321687.0824   -4405559.73146  -3424012.46246
     -1663.5754      -1296.3034         41.3004         38.5004
 10  1  4  1 23  0.0000000  0  9G17G15G28G12G26G 9G27G22G18
  21948911.4034   21948911.8094   21948915.0954  -15248636.31048 -11866822.63347
       367.1604        286.0974         48.6004         45.6004
  21972876.9874   21972876.8814   21972880.9044  -13151339.95847  -9999273.62747
     -2868.3954      -2235.1124         47.4004         44.5004
  24239391.2044   24239391.2104   24239393.9584   -1781362.07646  -1372823.88145
     -3111.7674      -2424.7664         37.5004         35.3004
  22627229.2534   22627229.1534   22627234.6824  -11611623.63547  -9021724.57347
      3119.8254       2431.0204         45.8004         43.0004
  22576943.8124   22576945.0074   22576949.2064   -4008363.59247  -3105031.33146
      3139.1474       2446.0864         42.7004         40.0004
  19892244.2834   19892244.3644   19892248.2224  -26166163.65948 -20362623.19048
      1217.0934        948.3854         51.0004         48.0004
  20804787.5214   20804787.2034   20804791.2114  -21041777.76148 -16382268.87547
       512.4764        399.3304         50.3004         47.5004
  23693176.4594   23693176.3254   23693180.2134   -4205065.69846  -3269635.99246
       101.1144         78.7914         38.7004         36.6004
  23331225.1314   23331225.3024   23331227.7824   -4355422.35546  -3384944.43346
     -1678.9144      -1308.2454         40.9004         38.1004
 10  1  4  1 23 30.0000000  0  9G17G15G28G12G26G 9G27G22G18
  21946871.7114   21946872.4814   21946875.7314  -15259354.00048 -11875174.06447
       347.3204        270.6294         48.6004         45.6004
  21989287.4194   21989287.4074   21989290.1704  -13065102.59247  -9932075.68147
     -2880.7784      -2244.7594         47.5004         44.4004
  24257164.1594   24257163.3444   24257167.7244   -1687959.24046  -1300042.40645
     -3115.0504      -2427.3114         37.3004         35.0004
  22609443.6924   22609444.9484   22609449.0304  -11705081.87047  -9094549.12347
      3110.7744       2423.9834         45.8004         42.6004
  22559059.4704   22559060.2164   22559065.2994   -4102346.59747  -3178264.85146
      3126.4494       2436.1994         42.5004         39.9004
  19885342.6934   19885342.5844   19885346.2464  -26202434.03148 -20390885.81348
      1200.9294        935.7884         51.0004         48.0004
  20801890.2734   20801889.8934   20801894.0434  -21057001.98848 -16394131.90947
       502.4614        391.5314         50.3004         47.5004
  23692653.6474   23692654.0354   23692655.3854   -4207821.58746  -3271783.43846
        82.6224         64.3824         39.0004         37.3004
  23340851.5394   23340851.8444   23340856.2214   -4304828.37646  -3345520.61646
     -1694.0294      -1320.0164         41.1004         38.5004
 10  1  4  1 24  0.0000000  0  9G17G15G28G12G26G 9G27G22G18
  21944946.5134   21944946.6154   21944949.1474  -15269476.77848 -11883061.93747
       327.4854        255.1794         48.8004         45.8004
  22005768.3864   22005768.6474   22005771.5044  -12978496.30947  -9864590.27447
     -2892.9964      -2254.2824         47.4004         44.4004
  24274956.1504   24274956.4854   24274962.1484   -1594456.74946  -1227183.35045
     -3118.4464      -2429.9594         37.5004         35.3004
  22591712.5874   22591713.1334   22591716.8444  -11798266.81747  -9167160.74847
      3101.5664       2416.8054         46.0004         43.2004
  22541248.9694   22541250.1554   22541253.4214   -4195945.43147  -3251199.00946
      3113.4754       2426.0884         42.7004         40.4004
  19878532.8834   19878532.5304   19878536.5554  -26238219.35348 -20418770.48048
      1184.7364        923.1694         51.0004         48.0004
  20799050.2164   20799050.0314   20799054.3624  -21071925.42248 -16405760.55647
       492.4224        383.7044         50.3004         47.5004
  23692231.7594   23692232.3544   23692236.1094   -4210022.29046  -3273498.25446
        64.0884         49.9364         39.6004         37.4004
  23350566.5704   23350567.3444   23350568.7894   -4253780.05346  -3305742.77646
     -1709.1914      -1331.8434         40.6004         37.8004
 10  1  4  1 24 30.0000000  0  9G17G15G28G12G26G 9G27G22G18
  21943132.8524   21943132.9964   21943136.4954  -15279004.44248 -11890486.07547
       307.6774        239.7454         48.8004         45.6004
  22022318.3194   22022318.5784   22022322.1514  -12891523.08747  -9796818.94547
     -2905.1974      -2263.7934         47.4004         44.5004
  24292770.3314   24292768.7094   24292770.6494   -1500856.18246  -1154247.82345
     -3121.6424      -2432.4494         37.3004         35.3004
  22574031.5264   22574032.0684   22574036.8274  -11891177.20047  -9239558.40847
      3092.3574       2409.6184         46.2004         43.3004
  22523512.2274   22523511.4454   22523516.3694   -4289157.08747  -3323831.48346
      3100.5794       2416.0374         43.0004         40.2004
  19871815.3134   19871815.1504   19871819.4824  -26273518.28448 -20446276.14248
      1168.5204        910.5364         51.0004         48.0004
  20796267.8764   20796267.5284   20796272.1194  -21086547.36148 -16417154.27747
       482.3684        375.8724         50.3004         47.5004
  23691922.4664   23691922.5584   23691923.9734   -4211667.40946  -3274780.17746
        45.5174         35.4664         40.4004         38.5004
  23360366.8254   23360366.3304   23360370.8674   -4202279.60946  -3265612.61546
     -1724.1784      -1343.5064         40.6004         38.1004
 10  1  4  1 25  0.0000000  0  9G17G15G28G12G26G 9G27G22G18
  21941433.7994   21941433.4964   21941436.7034  -15287936.54648 -11897446.14447
       287.8034        224.2624         48.6004         45.6004
  22038937.7904   22038938.0484   22038942.3664  -12804185.59447  -9728763.77147
     -2917.2714      -2273.2034         47.4004         44.5004
  24310598.4314   24310598.6124   24310601.1244   -1407159.06446  -1081237.11945
     -3124.8344      -2434.9374         37.5004         35.3004
  22556404.7284   22556404.8454   22556409.1694  -11983811.45847  -9311740.89847
      3083.1554       2402.4504         46.3004         43.3004
  22505849.3254   22505848.5184   22505853.0404   -4381978.71347  -3396160.01446
      3087.4974       2405.8304         43.0004         40.2004
  19865190.9934   19865190.6554   19865194.8854  -26308330.15648 -20473402.27148
      1152.2634        897.8684         51.0004         48.0004
  20793542.1324   20793542.2614   20793546.9834  -21100867.34348 -16428312.70647
       472.2794        368.0084         50.3004         47.3004
  23691714.1334   23691713.3624   23691714.9454   -4212757.48646  -3275629.57746
        27.0914         21.1104         40.8004         38.3004
  23370253.0054   23370251.8164   23370256.8364   -4150329.36946  -3225131.97846
     -1739.1214      -1355.1634         40.4004         37.8004
 10  1  4  1 25 30.0000000  0  9G17G15G28G12G26G 9G27G22G18
  21939846.9324   21939847.3034   21939849.5514  -15296272.44748 -11903941.64347
       267.9054        208.7504         48.6004         45.6004
  22055627.6324   22055627.1264   22055631.4614  -12716485.25247  -9660425.85547
     -2929.3884      -2282.6394         47.4004         44.5004
  24328444.0164   24328444.0654   24328449.6044   -1313366.83846  -1008152.28345
     -3128.0554      -2437.4474         37.3004         35.0004
  22538829.4494   22538829.4014   22538834.3274  -12076168.34947  -9383707.26647
      3073.9124       2395.2464         46.2004         43.3004
  22488261.2874   22488260.6844   22488264.3244   -4474407.38647  -3468182.37246
      3074.4184       2395.6514         43.0004         40.6004
  19858658.9554   19858659.3044   19858663.1994  -26342653.48748 -20500147.72748
      1135.9484        885.1524         51.0004         48.0004
  20790875.1834   20790874.9564   20790879.6024  -21114884.72148 -16439235.33747
       462.1834        360.1424         50.3004         47.5004
  23691612.7664   23691611.9134   23691614.5324   -4213292.60246  -3276046.57446
         8.5744          6.6804         41.1004         38.5004
  23380224.0334   23380223.5634   23380226.8994   -4097931.67346  -3184302.66046
     -1754.0404      -1366.7894         40.3004         37.4004
 10  1  4  1 26  0.0000000  0  9G17G15G28G12G26G 9G27G22G18
  21938375.0294   21938374.7554   21938377.0614  -15304011.85348 -11909972.33547
       248.0384        193.2764         48.8004         45.8004
  22072384.9304   22072385.4544   22072387.9674  -12628423.97347  -9591806.68347
     -2941.3734      -2291.9804         47.5004         44.4004
  24346312.0504   24346312.2794   24346317.7064   -1219481.23646   -934994.73645
     -3131.0684      -2439.7884         37.1004         35.0004
  22521307.3384   22521307.7674   22521312.3154  -12168246.52947  -9455456.48147
      3064.5834       2387.9864         46.0004         43.2004
  22470745.4374   22470746.9594   22470750.8124   -4566440.07847  -3539896.18146
      3061.1254       2385.2894         43.2004         40.4004
  19852220.9644   19852220.7034   19852225.1134  -26376487.20948 -20526511.66148
      1119.6174        872.4284         51.0004         48.0004
  20788265.0974   20788265.2194   20788269.7784  -21128598.90248 -16449921.70947
       452.0744        352.2654         50.3004         47.3004
  23691614.9924   23691615.1324   23691617.1324   -4213273.04346  -3276031.35846
        -9.8954         -7.7094         41.3004         38.8004
  23390279.8004   23390278.7744   23390282.2924   -4045088.52746  -3143126.28646
     -1768.8804      -1378.3494         39.9004         37.4004
 10  1  4  1 26 30.0000000  0  9G17G15G28G12G26G 9G27G22G18
  21937014.9434   21937014.9974   21937018.5814  -15311154.44248 -11915537.97147
       228.1344        177.7664         48.8004         45.8004
  22089210.8614   22089210.9104   22089214.8284  -12540004.00747  -9522908.01947
     -2953.2784      -2301.2534         47.5004         44.7004
  24364198.0494   24364197.4024   24364200.1054   -1125503.64846   -861765.45645
     -3134.1394      -2442.1884         37.1004         35.2004
  22503839.4684   22503839.1754   22503843.2694  -12260044.39047  -9526987.24547
      3055.2034       2380.6624         46.2004         43.3004
  22453307.8604   22453309.1414   22453314.2864   -4658073.97047  -3611299.22746
      3047.7914       2374.8824         43.2004         40.4004
  19845875.7334   19845875.9524   19845880.1714  -26409830.31848 -20552493.30248
      1103.2314        859.6594         51.0004         48.0004
  20785713.6554   20785713.2164   20785717.6674  -21142009.23148 -16460371.31447
       441.9374        344.3634         50.3004         47.5004
  23691723.6854   23691724.7404   23691727.4084   -4212699.44146  -3275584.37846
       -28.3954        -22.1284         41.5004         39.0004
  23400419.1534   23400419.9204   23400422.9674   -3991802.40146  -3101604.67946
     -1783.5324      -1389.7654         40.3004         37.8004
 10  1  4  1 27  0.0000000  0  9G17G15G28G12G26G 9G27G22G18
  21935768.8224   21935769.4584   21935772.7814  -15317699.93848 -11920638.33747
       208.2274        162.2514         48.8004         45.8004
  22106103.9454   22106104.2564   22106107.0874  -12451227.77747  -9453731.71647
     -2965.1084      -2310.4814         47.4004         44.4004
  24382098.2734   24382097.5514   24382099.3714   -1031435.99446   -788466.01545
     -3137.1114      -2444.5004         37.3004         35.2004
  22486424.7084   22486424.2864   22486428.1384  -12351560.79147  -9598298.68347
      3045.8444       2373.3864         46.3004         43.5004
  22435949.4474   22435949.2444   22435953.1044   -4749306.11247  -3682389.21246
      3034.3044       2364.3924         43.0004         40.4004
  19839625.2664   19839624.7774   19839628.5114  -26442681.55948 -20578091.66748
      1086.8094        846.8604         51.0004         48.2004
  20783219.5684   20783219.6064   20783223.9014  -21155115.41148 -16470583.92047
       431.7884        336.4584         50.3004         47.5004
  23691938.5714   23691938.2684   23691940.9884   -4211571.73146  -3274705.66046
       -46.8494        -36.4994         41.1004         38.3004
  23410644.2414   23410643.0084   23410646.9904   -3938075.90446  -3059739.93946
     -1798.2574      -1401.2384         40.6004         38.1004
 10  1  4  1 27 30.0000000  0  9G17G15G28G12G26G 9G27G22G18
  21934637.3554   21934637.6304   21934640.2584  -15323648.15248 -11925273.30447
       188.3154        146.7384         48.8004         45.6004
  22123064.7614   22123065.0764   22123068.6114  -12362097.40347  -9384279.48747
     -2976.9234      -2319.6784         47.4004         44.4004
  24400012.8394   24400013.4274   24400016.1624    -937279.48646   -715097.24945
     -3139.9914      -2446.7604         37.0004         34.8004
  22469063.7184   22469063.8144   22469066.9114  -12442794.22347  -9669389.62147
      3036.3794       2366.0174         46.5004         43.7004
  22418665.4814   22418665.2294   22418668.6574   -4840133.67947  -3753163.96046
      3020.7984       2353.8724         43.0004         40.2004
  19833467.6354   19833466.9594   19833471.0684  -26475039.76148 -20603305.85548
      1070.3644        834.0484         51.0004         48.0004
  20780783.4194   20780783.2144   20780787.9744  -21167916.89348 -16480559.10247
       421.6294        328.5414         50.3004         47.5004
  23692256.9974   23692259.6804   23692261.2334   -4209890.68846  -3273395.75946
       -65.2374        -50.8324         40.8004         38.5004
  23420951.3084   23420951.0974   23420954.4234   -3883910.72946  -3017533.36746
     -1812.7624      -1412.5344         40.4004         37.4004
 10  1  4  1 28  0.0000000  0  9G17G15G28G12G26G 9G27G22G18
  21933619.5234   21933619.8234   21933622.0074  -15328998.49648 -11929442.38247
       168.3704        131.2014         48.6004         45.6004
  22140092.9344   22140093.3174   22140096.5824  -12272615.16947  -9314553.08747
     -2988.5734      -2328.7654         47.5004         44.5004
  24417948.5954   24417947.6514   24417950.6914    -843035.31446   -641660.21245
     -3142.8964      -2449.0034         37.0004         35.0004
  22451755.4754   22451756.4414   22451760.4544  -12533743.04547  -9740258.80847
      3026.8794       2358.5944         46.7004         43.9004
  22401457.4504   22401457.6494   22401463.2094   -4930553.76347  -3823621.19146
      3007.1424       2343.2114         43.2004         40.4004
  19827403.5364   19827403.3934   19827407.5464  -26506903.66448 -20628134.87148
      1053.8964        821.2174         51.0004         48.2004
  20778405.2254   20778405.4334   20778409.8774  -21180412.90848 -16490296.25547
       411.4444        320.6054         50.5004         47.7004
  23692686.5204   23692685.5234   23692687.2684   -4207656.45146  -3271654.82346
       -83.7114        -65.2314         40.9004         38.5004
  23431339.7734   23431340.5664   23431345.1804   -3829309.38346  -2974986.93746
     -1827.3264      -1423.8894         40.1004         37.3004
 10  1  4  1 28 30.0000000  0  9G17G15G28G12G26G 9G27G22G18
  21932715.5344   21932715.0844   21932718.5714  -15333750.91648 -11933145.55247
       148.4474        115.6634         48.8004         45.8004
  22157187.4674   22157187.4254   22157191.2744  -12182782.72547  -9244553.78347
     -3000.2454      -2337.8504         47.5004         44.4004
  24435898.8974   24435900.2974   24435901.6814    -748705.40846   -568156.38445
     -3145.7584      -2451.2404         37.1004         35.2004
  22434503.2574   22434503.5774   22434508.1674  -12624406.22447  -9810905.39947
      3017.3244       2351.1514         46.7004         43.9004
  22384330.6034   22384329.8904   22384335.1284   -5020563.36747  -3893758.53246
      2993.4884       2332.5784         43.2004         40.6004
  19821434.5584   19821434.1644   19821438.2984  -26538271.97548 -20652577.70948
      1037.3424        808.3174         51.0004         48.2004
  20776086.7284   20776086.1074   20776090.2034  -21192602.83948 -16499794.90047
       401.2134        312.6354         50.5004         47.7004
  23693216.1144   23693215.9934   23693217.3134   -4204869.37846  -3269483.10046
      -102.1004        -79.5574         40.6004         37.9004
  23441814.1624   23441813.7744   23441816.9704   -3774274.18046  -2932102.42546
     -1841.7104      -1435.0944         39.7004         37.3004
 10  1  4  1 29  0.0000000  0  9G17G15G28G12G26G 9G27G22G18
  21931925.5864   21931925.2074   21931927.9204  -15337905.26048 -11936382.71147
       128.4864        100.1224         48.9004         45.9004
  22174348.3364   22174348.8364   22174352.5364  -12092602.18047  -9174283.23047
     -3011.7814      -2346.8424         47.7004         44.9004
  24453865.2334   24453865.5304   24453867.7704    -654290.97646   -494586.72945
     -3148.5494      -2453.4144         37.0004         35.2004
  22417305.4474   22417304.8474   22417309.2864  -12714781.98147  -9881328.05647
      3007.6674       2343.6284         46.5004         43.2004
  22367280.1504   22367279.7994   22367283.6364   -5110159.69947  -3963573.84246
      2979.6374       2321.8004         42.9004         39.9004
  19815559.8664   19815559.8574   19815563.8044  -26569143.70848 -20676633.61248
      1020.7714        795.4054         51.2004         48.2004
  20773825.2224   20773824.9454   20773829.1074  -21204485.95448 -16509054.47347
       390.9774        304.6614         50.5004         47.7004
  23693850.7744   23693849.6744   23693851.8614   -4201529.74346  -3266880.83546
      -120.5154        -93.9074         40.1004         37.4004
  23452368.7744   23452368.9624   23452372.7444   -3718807.67846  -2888881.81246
     -1856.0694      -1446.2854         40.4004         38.1004
 10  1  4  1 29 30.0000000  0  9G17G15G28G12G26G 9G27G22G18
  21931248.5054   21931247.5364   21931250.7174  -15341461.20948 -11939153.55647
       108.5584         84.5934         48.9004         45.8004
  22191575.0544   22191575.0604   22191578.3324  -12002076.31047  -9103743.58947
     -3023.2824      -2355.8034         47.7004         44.5004
  24471845.8534   24471845.6504   24471851.4674    -559793.66446   -420952.47945
     -3151.2554      -2455.5214         37.1004         35.0004
  22400161.7264   22400162.2434   22400165.3804  -12804869.21447  -9951525.88047
      2998.0644       2336.1534         46.2004         43.2004
  22350308.7854   22350309.4444   22350314.1244   -5199339.77947  -4033064.81246
      2965.7444       2310.9774         43.0004         40.6004
  19809780.3804   19809780.3164   19809783.9094  -26599517.55648 -20700301.53848
      1004.1554        782.4594         51.2004         48.4004
  20771622.3474   20771622.0664   20771626.2434  -21216061.69648 -16518074.52447
       380.7274        296.6714         50.5004         47.7004
  23694592.2064   23694590.2664   23694593.4854   -4197638.21546  -3263848.44646
      -138.9234       -108.2494         39.9004         37.8004
  23463005.9754   23463005.6314   23463008.0064   -3662911.92546  -2845326.74246
     -1870.3014      -1457.3764         40.4004         37.8004
 10  1  4  1 30  0.0000000  0  9G17G15G28G12G26G 9G27G22G18
  21930684.2734   21930685.0924   21930688.5254  -15344418.61248 -11941458.02447
        88.6044         69.0384         48.8004         45.9004
  22208867.0434   22208867.6584   22208870.7184  -11911206.65347  -9032936.07347
     -3034.6964      -2364.6934         47.7004         44.9004
  24489844.5274   24489844.2834   24489847.2854    -465215.09046   -347254.95645
     -3153.8354      -2457.5334         36.6004         34.5004
  22383074.3994   22383074.6134   22383077.2164  -12894666.63147 -10021497.84847
      2988.3814       2328.6014         46.2004         43.2004
  22333418.5944   22333419.6794   22333424.3864   -5288100.65447  -4102229.12646
      2951.6494       2299.9844         43.6004         41.1004
  19804095.1714   19804094.8614   19804098.9464  -26629392.96148 -20723581.07748
       987.5384        769.5104         51.4004         48.4004
  20769478.0234   20769477.8704   20769481.8674  -21227329.64848 -16526854.75447
       370.4664        288.6754         50.5004         47.7004
  23695435.6794   23695436.8194   23695438.3614   -4193195.15646  -3260386.30446
      -157.2684       -122.5414         39.9004         37.6004
  23473724.0464   23473724.1904   23473726.9614   -3606589.36746  -2801439.11146
     -1884.4944      -1468.4264         40.4004         37.8004
 10  1  4  1 30 30.0000000  0  9G17G15G28G12G26G 9G27G22G18
  21930236.7784   21930236.1024   21930238.9484  -15346777.48348 -11943296.09947
        68.6564         53.5024         48.8004         45.8004
  22226223.6884   22226224.0044   22226226.7974  -11819995.87247  -8961862.73047
     -3046.0414      -2373.5394         47.5004         44.2004
  24507858.6314   24507858.4584   24507860.5664    -370556.93446   -273495.42945
     -3156.5454      -2459.6494         36.3004         34.3004
  22366042.4354   22366042.6654   22366045.6924  -12984172.71247 -10091242.80347
      2978.6474       2321.0294         46.5004         43.7004
  22316608.3074   22316609.1614   22316613.8664   -5376439.59147  -4171064.66146
      2937.5914       2289.0274         43.7004         41.1004
  19798504.8204   19798504.5384   19798508.5914  -26658768.76848 -20746471.31448
       970.8594        756.5134         51.2004         48.2004
  20767392.3994   20767392.4884   20767396.4274  -21238289.20048 -16535394.66847
       360.1614        280.6504         50.5004         47.7004
  23696385.8784   23696386.0064   23696388.0044   -4188201.09346  -3256494.85046
      -175.6774       -136.8864         40.3004         37.9004
  23484519.2574   23484521.8804   23484525.4444   -3549842.83146  -2757221.07746
     -1898.5974      -1479.4134         40.1004         37.4004
 10  1  4  1 31  0.0000000  0  9G17G15G28G12G26G 9G27G22G18
  21929901.4864   21929901.4174   21929904.4684  -15348537.69448 -11944667.67347
        48.6734         37.9264         48.8004         45.9004
  22243645.1324   22243644.7284   22243648.6644  -11728445.87347  -8890525.06847
     -3057.3304      -2382.3394         47.4004         44.4004
  24525888.0224   24525886.9224   24525888.7354    -275820.12946   -199674.59345
     -3159.2134      -2461.7284         36.3004         34.8004
  22349065.4184   22349065.7374   22349069.6414  -13073386.47947 -10160759.98747
      2968.8954       2313.4314         46.7004         43.9004
  22299879.9914   22299880.3944   22299883.9334   -5464353.77347  -4239569.20246
      2923.3704       2277.9514         43.9004         41.2004
  19793009.3814   19793009.6034   19793013.7894  -26687643.75148 -20768971.30348
       954.1374        743.4854         51.2004         48.2004
  20765365.9984   20765365.5444   20765369.6214  -21248939.91148 -16543693.92647
       349.8634        272.6214         50.7004         47.7004
  23697443.5804   23697441.8414   23697444.4824   -4182656.59246  -3252174.46946
      -193.9504       -151.1364         40.6004         38.3004
  23495401.5734   23495401.3474   23495405.4284   -3492674.19946  -2712674.14446
     -1912.6354      -1490.3754         40.1004         37.4004
 10  1  4  1 31 30.0000000  0  9G17G15G28G12G26G 9G27G22G18
  21929680.1494   21929679.9994   21929683.0034  -15349698.94748 -11945572.53347
        28.7214         22.3814         48.8004         45.6004
  22261129.8134   22261130.8554   22261134.1624  -11636558.96747  -8818924.88747
     -3068.5104      -2391.0474         47.4004         44.4004
  24543930.6164   24543928.0384   24543931.7104    -181006.17846   -125793.58145
     -3161.7934      -2463.7344         36.4004         34.3004
  22332143.4764   22332143.8804   22332148.6624  -13162306.21047 -10230048.05047
      2959.0804       2305.7804         46.9004         43.9004
  22283232.3464   22283231.4704   22283235.0114   -5551840.26347  -4307740.49146
      2909.0464       2266.7844         43.9004         40.9004
  19787610.6634   19787610.5794   19787614.9964  -26716016.74948 -20791080.13048
       937.3704        730.4204         51.2004         48.4004
  20763398.0344   20763397.6544   20763401.6834  -21259281.04948 -16551751.95947
       339.5354        264.5744         50.5004         47.7004
  23698600.0554   23698601.7164   23698603.3934   -4176562.38146  -3247425.68446
      -212.2904       -165.4274         40.4004         37.9004
  23506360.2864   23506359.1744   23506363.8644   -3435086.34546  -2667800.57746
     -1926.5814      -1501.2264         40.3004         37.9004
 10  1  4  1 32  0.0000000  0  9G17G15G28G12G26G 9G27G22G18
  21929573.8584   21929573.5934   21929576.7084  -15350261.32848 -11946010.74447
         8.7574          6.8214         48.9004         45.9004
  22278679.4364   22278679.8664   22278683.7664  -11544337.48047  -8747063.98447
     -3079.6174      -2399.6974         47.4004         44.2004
  24561987.0694   24561986.1614   24561989.0704     -86116.86446    -51853.84045
     -3164.2474      -2465.6524         36.3004         34.5004
  22315279.1484   22315278.9934   22315283.9314  -13250930.66847 -10299106.02447
      2949.1994       2298.0824         46.9004         43.9004
  22266665.6244   22266666.2744   22266670.4064   -5638896.15447  -4375576.23246
      2894.6704       2255.5914         44.1004         41.4004
  19782307.1384   19782307.0444   19782311.7304  -26743886.53948 -20812796.84948
       920.5754        717.3324         51.4004         48.4004
  20761489.0444   20761488.6914   20761492.9264  -21269311.96648 -16559568.25847
       329.1844        256.5074         50.5004         47.7004
  23699863.7164   23699865.2924   23699868.3084   -4169918.76546  -3242248.82446
      -230.5974       -179.6844         40.6004         38.1004
  23517397.9654   23517398.3554   23517400.9434   -3377081.43846  -2622601.99846
     -1940.3934      -1511.9974         40.4004         37.8004
 10  1  4  1 32 30.0000000  0  9G17G15G28G12G26G 9G27G22G18
  21929580.4224   21929580.4524   21929583.2094  -15350224.54448 -11945982.07847
       -11.2084         -8.7374         48.9004         45.8004
  22296290.8034   22296291.8914   22296295.7034  -11451783.41347  -8674943.93747
     -3090.6564      -2408.3014         47.2004         44.2004
  24580054.9704   24580056.4754   24580059.6774       8846.51046     22143.62345
     -3166.6424      -2467.5024         36.1004         34.3004
  22298471.0854   22298470.9914   22298475.2744  -13339258.42747 -10367932.80547
      2939.3034       2290.3594         46.9004         43.9004
  22250181.4714   22250181.7424   22250185.5234   -5725518.47147  -4443074.13146
      2880.1524       2244.2714         44.1004         41.2004
  19777099.8644   19777099.4814   19777103.8034  -26771252.44948 -20834120.94048
       903.7904        704.2504         51.4004         48.4004
  20759639.1784   20759639.0434   20759643.0814  -21279032.23548 -16567142.50547
       318.8144        248.4314         50.5004         47.7004
  23701234.9324   23701234.1664   23701235.2304   -4162726.41046  -3236644.39946
      -248.8674       -193.9284         40.3004         37.6004
  23528516.8424   23528514.4594   23528518.1304   -3318661.83146  -2577080.31746
     -1954.2484      -1522.7894         40.3004         37.4004
 10  1  4  1 33  0.0000000  0  9G17G15G28G12G26G 9G27G22G18
  21929700.4004   21929700.9094   21929704.4244  -15349588.70048 -11945486.60247
       -31.1994        -24.3124         48.6004         45.6004
  22313967.8334   22313967.8694   22313970.9054  -11358898.90147  -8602566.41547
     -3101.6284      -2416.8504         47.2004         44.0004
  24598140.0064   24598139.0764   24598144.9874     103882.41046     96197.57745
     -3168.9384      -2469.3064         36.4004         34.5004
  22281719.4854   22281719.7614   22281723.1254  -13427288.10247 -10436527.31747
      2929.3214       2282.5884         46.7004         43.9004
  22233780.7454   22233780.4124   22233785.3434   -5811704.63247  -4510232.17646
      2865.5764       2232.9354         44.1004         41.4004
  19771988.1134   19771987.8834   19771992.4704  -26798113.33448 -20855051.50248
       886.9334        691.1194         51.2004         48.4004
  20757848.9844   20757848.5964   20757852.7834  -21288441.09648 -16574474.09547
       308.4244        240.3294         50.5004         47.7004
  23702708.0924   23702707.1594   23702711.1774   -4154985.68846  -3230612.65646
      -267.1094       -208.1344         40.3004         37.6004
  23539711.0714   23539710.4504   23539713.0074   -3259830.22646  -2531237.52946
     -1967.8694      -1533.3964         39.7004         36.9004
 10  1  4  1 33 30.0000000  0  9G17G15G28G12G26G 9G27G22G18
  21929936.5644   21929936.4974   21929939.0504  -15348353.78248 -11944524.30247
       -51.1664        -39.8704         48.8004         45.8004
  22331705.1384   22331705.5904   22331708.9204  -11265686.09247  -8529933.07347
     -3112.5584      -2425.3824         47.0004         44.0004
  24616238.5304   24616238.6574   24616242.8574     198989.59246    170307.05845
     -3171.4194      -2471.2334         36.3004         34.1004
  22265025.0214   22265024.8174   22265028.8684  -13515018.52447 -10504888.65347
      2919.3614       2274.8164         46.9004         44.2004
  22217461.2944   22217463.1924   22217468.8794   -5897451.43147  -4577047.84346
      2850.8924       2221.4744         44.1004         41.4004
  19766973.3064   19766972.8834   19766977.5954  -26824467.96748 -20875587.57848
       870.0454        677.9594         51.4004         48.5004
  20756116.9774   20756117.3524   20756121.7194  -21297538.06348 -16581562.65047
       298.0254        232.2284         50.7004         47.8004
  23704284.1174   23704284.3424   23704286.1364   -4146697.40046  -3224154.27346
      -285.3954       -222.3884         39.7004         36.9004
  23550982.8784   23550981.6854   23550985.7494   -3200588.88546  -2485075.48946
     -1981.5124      -1544.0344         39.4004         37.1004
 10  1  4  1 34  0.0000000  0  9G17G15G28G12G26G 9G27G22G18
  21930284.6964   21930284.8274   21930288.5034  -15346520.06548 -11943095.42647
       -71.1074        -55.4104         48.8004         45.8004
  22349504.9044   22349505.4324   22349508.6144  -11172147.61947  -8457045.95447
     -3123.3764      -2433.7954         46.9004         43.9004
  24634350.5164   24634349.4484   24634352.7624     294166.31145    244470.69945
     -3173.6614      -2472.9874         35.7004         34.0004
  22248387.8244   22248387.8344   22248391.6184  -13602448.37747 -10573015.74547
      2909.2844       2266.9764         47.0004         44.2004
  22201231.4554   22201230.6614   22201234.0234   -5982756.26947  -4643519.17746
      2836.1084       2209.9454         44.1004         41.1004
  19762054.5284   19762054.5934   19762058.7694  -26850315.58548 -20895728.58348
       853.1304        664.7784         51.4004         48.4004
  20754446.0104   20754446.0044   20754450.2204  -21306322.70048 -16588407.82647
       287.6024        224.1054         50.7004         47.7004
  23705966.6394   23705965.1354   23705969.4464   -4137862.21646  -3217269.70746
      -303.6124       -236.5814         39.2004         36.7004
  23562335.4934   23562333.6054   23562336.9744   -3140940.40946  -2438596.20146
     -1995.0274      -1554.5704         39.7004         37.6004
 10  1  4  1 34 30.0000000  0  9G17G15G28G12G26G 9G27G22G18
  21930747.6844   21930748.0454   21930750.9924  -15344087.37948 -11941199.82747
       -91.0944        -70.9794         48.8004         45.6004
  22367367.6604   22367366.6994   22367369.8434  -11078285.30347  -8383906.49747
     -3134.1344      -2442.1944         46.9004         43.9004
  24652473.8784   24652474.9084   24652478.1984     389411.38245    318687.62645
     -3176.0284      -2474.8254         35.6004         34.0004
  22231808.7424   22231808.1564   22231811.8064  -13689576.36147 -10640907.63047
      2899.2234       2259.1214         47.2004         44.4004
  22185082.7874   22185081.8714   22185086.9514   -6067616.31947  -4709643.89246
      2821.2194       2198.3734         44.1004         41.4004
  19757232.7254   19757232.2684   19757236.4664  -26875655.04648 -20915473.62148
       836.1684        651.5594         51.4004         48.2004
  20752834.1194   20752833.8174   20752837.4834  -21314794.52248 -16595009.24447
       277.1614        215.9684         50.5004         47.7004
  23707751.0284   23707751.3634   23707754.4094   -4128480.73446  -3209959.49246
      -321.7934       -250.7444         39.2004         36.7004
  23573762.5274   23573760.6804   23573765.1284   -3080887.59146  -2391801.85646
     -2008.5124      -1565.0704         39.9004         37.6004
 10  1  4  1 35  0.0000000  0  9G17G15G28G12G26G 9G27G22G18
  21931325.0894   21931324.8534   21931328.3564  -15341055.77848 -11938837.51147
      -111.0394        -86.5244         48.8004         45.8004
  22385289.1934   22385288.6694   22385292.4294  -10984101.56047  -8310516.58447
     -3144.7964      -2450.4914         46.9004         43.9004
  24670614.9054   24670610.7794   24670616.9954     484723.32045    392956.68445
     -3178.2664      -2476.5694         35.4004         34.0004
  22215286.8674   22215286.3494   22215290.0534  -13776400.91647 -10708563.07347
      2889.0844       2251.2284         47.5004         44.7004
  22169020.3314   22169021.2334   22169024.0054   -6152028.37947  -4775419.53246
      2806.2864       2186.7054         44.4004         41.9004
  19752507.4294   19752507.4404   19752511.5264  -26900485.38948 -20934821.93448
       819.1584        638.3034         51.2004         48.4004
  20751281.5744   20751281.4934   20751285.2254  -21322952.83548 -16601366.37147
       266.6994        207.8164         50.5004         47.7004
  23709641.2914   23709639.6014   23709642.7134   -4118553.81846  -3202224.21446
      -340.0164       -264.9494         39.2004         36.7004
  23585266.5704   23585266.8024   23585268.9444   -3020432.55546  -2344694.07746
     -2021.8464      -1575.4664         39.9004         37.4004
 10  1  4  1 35 30.0000000  0  9G17G15G28G12G26G 9G27G22G18
  21932015.3254   21932015.7034   21932019.2404  -15337425.49048 -11936008.70447
      -130.9874       -102.0704         48.8004         45.8004
  22403272.2624   22403272.8084   22403275.5244  -10889599.00647  -8236878.24347
     -3155.3674      -2458.7204         46.7004         43.9004
  24688761.1094   24688762.5074   24688766.0324     580100.67345    467276.61445
     -3180.1914      -2478.0674         35.7004         34.1004
  22198821.5754   22198821.5424   22198825.4954  -13862921.09447 -10775981.35147
      2878.8834       2243.2834         47.7004         44.7004
  22153043.4104   22153042.8044   22153046.8164   -6235990.10247  -4840844.24746
      2791.1774       2174.9474         44.8004         41.9004
  19747879.7884   19747879.6344   19747883.4964  -26924805.50948 -20953772.67248
       802.1454        625.0484         51.4004         48.4004
  20749788.9784   20749788.6274   20749792.7624  -21330796.96648 -16607478.67447
       256.2194        199.6504         50.7004         47.8004
  23711632.4354   23711633.6854   23711634.8984   -4108081.84146  -3194064.26546
      -358.1394       -279.0784         39.2004         36.6004
  23596846.0404   23596846.7444   23596850.1304   -2959577.75046  -2297274.82646
     -2035.0974      -1585.7864         39.9004         37.6004
 10  1  4  1 36  0.0000000  0  9G17G15G28G12G26G 9G27G22G18
  21932820.7624   21932820.1974   21932823.3934  -15333196.51148 -11932713.38547
      -150.9424       -117.6214         48.8004         45.8004
  22421315.0574   22421316.2204   22421318.9174  -10794779.27847  -8162992.75347
     -3165.9364      -2466.9684         46.7004         43.7004
  24706924.2994   24706923.0064   24706928.1004     675541.98245    541646.48845
     -3182.5214      -2479.8954         35.7004         34.0004
  22182415.9244   22182415.4824   22182419.8644  -13949135.35247 -10843161.23047
      2868.6844       2235.3424         47.7004         44.9004
  22137151.5364   22137151.7284   22137155.3704   -6319498.34747  -4905915.61146
      2776.0184       2163.1404         44.8004         41.8004
  19743348.9694   19743348.8644   19743352.9304  -26948614.42848 -20972325.08048
       785.1034        611.7724         51.4004         48.4004
  20748355.7474   20748355.7744   20748359.9444  -21338326.44148 -16613345.80047
       245.7254        191.4724         50.7004         47.8004
  23713732.2434   23713728.7184   23713731.5464   -4097065.98346  -3185480.45046
      -376.2594       -293.1864         39.0004         36.7004
  23608502.9064   23608502.9064   23608505.6764   -2898325.88546  -2249546.17446
     -2048.3334      -1596.1044         39.9004         37.6004
 10  1  4  1 36 30.0000000  0  9G17G15G28G12G26G 9G27G22G18
  21933738.3764   21933738.9894   21933741.6144  -15328368.86048 -11928951.56847
      -170.8954       -133.1714         48.6004         45.6004
  22439418.7454   22439419.3634   22439422.6734  -10699644.91747  -8088862.08847
     -3176.3914      -2475.1004         46.9004         43.9004
  24725097.4364   24725100.5934   24725102.4544     771046.02845    616065.24645
     -3184.5724      -2481.4894         35.7004         34.0004
  22166066.9514   22166067.2954   22166071.9534  -14035042.54747 -10910101.84547
      2858.4464       2227.3624         47.7004         44.7004
  22121346.3834   22121346.6814   22121350.3514   -6402550.37147  -4970631.48346
      2760.8234       2151.2864         44.8004         41.8004
  19738915.1204   19738915.2904   19738919.6684  -26971911.37048 -20990478.53948
       767.9994        598.4394         51.4004         48.4004
  20746982.6634   20746982.7494   20746987.1724  -21345540.63248 -16618967.24347
       235.2014        183.2724         50.7004         47.8004
  23715928.8954   23715927.9474   23715931.9324   -4085506.79646  -3176473.31946
      -394.3924       -307.3104         38.9004         36.6004
  23620234.3994   23620232.6594   23620238.3304   -2836679.33346  -2201509.94046
     -2061.4094      -1606.2964         40.1004         37.6004
 10  1  4  1 37  0.0000000  0  9G17G15G28G12G26G 9G27G22G18
  21934771.6284   21934771.6534   21934774.5484  -15322942.89448 -11924723.52947
      -190.8274       -148.6934         48.6004         45.8004
  22457582.5564   22457582.6484   22457585.3934  -10604198.38247  -8014488.17447
     -3186.7314      -2483.1544         46.7004         43.9004
  24743284.8674   24743285.0644   24743286.4844     866611.18345    690531.54045
     -3186.4594      -2482.9534         35.4004         33.8004
  22149779.1984   22149778.8684   22149782.7364  -14120641.57647 -10976802.34147
      2848.1444       2219.3324         47.7004         44.9004
  22105629.8664   22105630.4324   22105633.7354   -6485143.13047  -5034989.48546
      2745.4604       2139.3264         44.8004         41.8004
  19734580.0484   19734579.7654   19734583.9544  -26994695.48948 -21008232.39948
       750.9024        585.1204         51.4004         48.5004
  20745670.5934   20745670.2554   20745674.5064  -21352439.00448 -16624342.60547
       224.6684        175.0724         50.7004         47.8004
  23718232.1004   23718231.8104   23718232.5494   -4073404.97846  -3167043.35846
      -412.4284       -321.3644         39.2004         36.9004
  23632037.4064   23632037.9974   23632042.6674   -2774640.99646  -2153168.42746
     -2074.4704      -1616.4634         39.9004         37.3004
 10  1  4  1 37 30.0000000  0  9G17G15G28G12G26G 9G27G22G18
  21935918.3964   21935918.5004   21935920.9214  -15316918.57148 -11920029.24847
      -210.7794       -164.2434         48.8004         45.8004
  22475803.7374   22475804.3564   22475808.2504  -10508441.58347  -7939872.50347
     -3197.0384      -2491.1964         46.7004         43.7004
  24761482.8094   24761480.7104   24761482.7394     962236.07145    765044.42845
     -3188.3804      -2484.4554         34.9004         33.3004
  22133548.7844   22133549.4154   22133552.8624  -14205930.97447 -11043261.56947
      2837.7994       2211.2714         47.9004         44.9004
  22090002.5944   22090001.0054   22090005.4034   -6567274.21247  -5098987.74846
      2730.0084       2127.2754         44.6004         41.9004
  19730342.9404   19730342.1974   19730346.2804  -27016965.72448 -21025585.83148
       733.7584        571.7564         51.4004         48.5004
  20744417.8594   20744417.5464   20744422.0014  -21359021.23548 -16629471.61447
       214.1344        166.8594         50.7004         47.8004
  23720637.1224   23720636.9214   23720640.7884   -4060761.34046  -3157191.21246
      -430.4964       -335.4434         39.2004         36.7004
  23643917.9834   23643917.6364   23643923.8084   -2712213.33346  -2104523.52246
     -2087.3844      -1626.5514         39.7004         37.4004
 10  1  4  1 38  0.0000000  0  9G17G15G28G12G26G 9G27G22G18
  21937177.9184   21937177.5084   21937181.0744  -15310296.35848 -11914869.06147
      -230.7094       -179.7874         48.8004         45.6004
  22494085.9694   22494085.2524   22494088.3984  -10412376.71247  -7865016.76347
     -3207.2724      -2499.1824         46.7004         43.7004
  24779686.9864   24779687.2634   24779690.1934    1057919.34945    839602.85545
     -3190.4244      -2486.0474         34.3004         32.9004
  22117379.3104   22117378.2184   22117381.5264  -14290909.38347 -11109478.43647
      2827.4144       2203.1724         47.9004         44.9004
  22074458.9964   22074460.1964   22074464.7174   -6648940.58347  -5162623.89447
      2714.4714       2115.1734         44.9004         42.1004
  19726202.3034   19726201.9834   19726206.2204  -27038721.05848 -21042538.03348
       716.5824        558.3714         51.4004         48.4004
  20743225.1964   20743225.4314   20743229.5704  -21365286.63048 -16634353.73447
       203.5484        158.6094         50.7004         47.8004
  23723144.4134   23723145.5874   23723147.5414   -4047576.86146  -3146917.58346
      -448.4474       -349.4364         39.0004         36.6004
  23655871.6474   23655870.1274   23655876.4324   -2649398.75346  -2055577.15546
     -2100.2154      -1636.5324         39.7004         36.9004
 10  1  4  1 38 30.0000000  0  9G17G15G28G12G26G 9G27G22G18
  21938551.2604   21938552.1744   21938554.5984  -15303076.75948 -11909243.40247
      -250.6344       -195.3064         48.6004         45.8004
  22512423.2354   22512423.8214   22512427.7304  -10316006.17247  -7789922.84247
     -3217.4004      -2507.0634         46.7004         43.5004
  24797909.5514   24797910.2164   24797909.6094    1153659.87045    914205.77945
     -3192.2444      -2487.4604         34.0004         32.7004
  22101266.2054   22101266.4114   22101270.0614  -14375575.50947 -11175451.97647
      2816.9814       2195.0494         47.9004         44.9004
  22059010.2084   22059008.9794   22059012.2054   -6730139.50347  -5225895.78447
      2698.7804       2102.9444         45.3004         42.6004
  19722159.9784   19722160.0804   19722164.3314  -27059960.46448 -21059088.22048
       699.3604        544.9574         51.4004         48.4004
  20742093.5724   20742093.6014   20742098.0354  -21371234.38648 -16638988.35048
       192.9524        150.3514         50.8004         48.0004
  23725758.1274   23725756.3654   23725760.1644   -4033852.15446  -3136223.03746
      -466.5284       -363.5254         38.9004         36.6004
  23667899.1864   23667897.5684   23667902.6904   -2586200.09246  -2006331.50946
     -2113.0254      -1646.5114         39.4004         36.7004
 10  1  4  1 39  0.0000000  0  9G17G15G28G12G26G 9G27G22G18
  21940040.0464   21940039.6764   21940042.6214  -15295259.21948 -11903151.78947
      -270.5454       -210.8184         48.8004         45.9004
  22530819.5994   22530820.4364   22530823.3904  -10219332.50847  -7714592.72347
     -3227.4794      -2514.9164         46.5004         43.7004
  24816137.5774   24816135.6874   24816139.9184    1249455.94545    988852.02645
     -3194.1224      -2488.9244         34.0004         32.9004
  22085214.4324   22085214.1624   22085218.2214  -14459928.18547 -11241181.25747
      2806.4944       2186.8764         47.9004         44.9004
  22043646.7274   22043647.0594   22043650.4434   -6810868.08647  -5288801.20147
      2683.1034       2090.7334         45.3004         42.6004
  19718217.2704   19718217.0604   19718220.8914  -27080683.17748 -21075235.78848
       682.1224        531.5244         51.4004         48.5004
  20741023.1154   20741022.6164   20741026.4914  -21376864.01648 -16643375.07748
       182.3444        142.0874         50.8004         48.0004
  23728471.5584   23728472.2384   23728475.1894   -4019588.36146  -3125108.42546
      -484.4434       -377.4964         39.4004         37.1004
  23679993.5004   23679991.7604   23679999.4784   -2522619.80646  -1956788.46445
     -2125.7204      -1656.3924         38.7004         35.9004
 10  1  4  1 39 30.0000000  0  9G17G15G28G12G26G 9G27G22G18
  21941640.2524   21941641.0634   21941643.9034  -15286844.38348 -11896594.77547
      -290.4444       -226.3194         48.8004         45.8004
  22549273.5274   22549273.7654   22549276.6724  -10122357.75647  -7639027.96347
     -3237.4744      -2522.6984         46.5004         43.3004
  24834374.9834   24834376.3884   24834382.0304    1345306.24445   1063540.63245
     -3195.8434      -2490.2684         34.0004         32.9004
  22069223.7274   22069223.2714   22069226.6314  -14543966.14847 -11306665.33547
      2795.9924       2178.6984         47.9004         45.1004
  22028374.3844   22028374.8354   22028378.8314   -6891123.71547  -5351338.06447
      2667.2294       2078.3534         45.5004         42.6004
  19714372.8564   19714372.1974   19714376.0264  -27100888.14648 -21090979.92248
       664.8484        518.0634         51.5004         48.5004
  20740011.5534   20740011.3964   20740015.8524  -21382175.14748 -16647513.62047
       171.7204        133.8084         50.8004         47.8004
  23731289.2434   23731289.1484   23731292.3664   -4004786.14546  -3113574.22146
      -502.3684       -391.4544         39.9004         37.6004
  23692166.5784   23692166.9924   23692170.8324   -2458660.42046  -1906950.02246
     -2138.2744      -1666.1924         38.5004         36.2004
 10  1  4  1 40  0.0000000  0  9G17G15G28G12G26G 9G27G22G18
  21943356.4244   21943356.0154   21943358.6114  -15277832.80648 -11889572.75847
      -310.3424       -241.8274         48.8004         45.8004
  22567784.2184   22567784.4764   22567786.4314  -10025084.46747  -7563230.61247
     -3247.4214      -2530.4494         46.3004         43.2004
  24852626.1744   24852627.3324   24852629.0644    1441209.51445   1138270.44245
     -3197.6244      -2491.6504         33.8004         32.7004
  22053291.4324   22053291.0534   22053294.6214  -14627688.33147 -11371903.32147
      2785.4804       2170.5054         47.9004         44.9004
  22013193.1454   22013192.5784   22013197.0784   -6970903.36147  -5413504.01247
      2651.4074       2066.0414         45.5004         42.6004
  19710625.6634   19710625.9534   19710629.9524  -27120574.50348 -21106319.94348
       647.5674        504.5994         51.5004         48.5004
  20739061.8644   20739061.6374   20739066.0424  -21387167.22748 -16651403.55348
       161.0694        125.5084         50.8004         48.0004
  23734206.5494   23734208.6664   23734209.9424   -3989446.45746  -3101621.23546
      -520.2704       -405.3994         40.1004         37.6004
  23704412.0404   23704410.8314   23704413.8884   -2394324.53746  -1856818.23746
     -2150.7824      -1675.9264         38.9004         36.7004
 10  1  4  1 40 30.0000000  0  9G17G15G28G12G26G 9G27G22G18
  21945184.6914   21945184.6694   21945186.9564  -15268224.64248 -11882085.84847
      -330.2084       -257.3084         48.8004         45.8004
  22586350.7194   22586350.8094   22586354.7084   -9927514.42647  -7487201.99447
     -3257.2294      -2538.1064         46.3004         43.3004
  24870889.0494   24870888.2824   24870890.6834    1537164.35645   1213040.38245
     -3199.3924      -2493.0264         34.0004         32.9004
  22037418.6364   22037419.3924   22037423.3854  -14711093.69448 -11436894.44447
      2774.8584       2162.2194         48.1004         45.2004
  21998102.2664   21998102.9084   21998106.5154   -7050204.50247  -5475297.10247
      2635.4054       2053.5524         45.5004         42.6004
  19706978.9944   19706978.5204   19706982.5524  -27139741.39448 -21121255.18148
       630.2154        491.0764         51.5004         48.5004
  20738173.0154   20738172.7564   20738176.9134  -21391839.41048 -16655044.22048
       150.3794        117.1774         50.8004         48.0004
  23737231.6064   23737229.7954   23737232.3914   -3973570.43646  -3089250.30846
      -538.1394       -419.3264         40.1004         37.6004
  23716723.8554   23716724.4864   23716727.5964   -2329615.09546  -1806395.32846
     -2163.1394      -1685.5694         39.2004         37.1004
 10  1  4  1 41  0.0000000  0  9G17G15G28G12G26G 9G27G22G18
  21947125.7384   21947125.9674   21947129.1964  -15258020.33948 -11874134.44847
      -350.0834       -272.7964         48.9004         45.9004
  22604973.2804   22604973.2024   22604977.5754   -9829650.21047  -7410944.15747
     -3267.0144      -2545.7304         46.2004         43.2004
  24889156.9814   24889154.0754   24889154.5784    1633169.36045   1287849.46445
     -3200.9414      -2494.2364         33.5004         32.7004
  22021608.7194   22021608.7564   22021611.8584  -14794180.45148 -11501637.31747
      2764.2504       2153.9554         48.1004         45.1004
  21983104.9034   21983104.1024   21983107.9914   -7129024.09947  -5536714.98447
      2619.2774       2040.9864         45.6004         42.8004
  19703429.9654   19703430.0484   19703434.2004  -27158387.97848 -21135784.99248
       612.8824        477.5724         51.5004         48.5004
  20737344.8204   20737344.3724   20737348.5194  -21396191.21548 -16658435.23648
       139.7124        108.8634         50.8004         48.0004
  23740351.5024   23740351.5904   23740354.9114   -3957158.84746  -3076462.08846
      -555.9674       -433.2234         40.4004         38.3004
  23729108.5324   23729108.1854   23729114.5124   -2264534.48646  -1755683.19346
     -2175.5414      -1695.2244         39.2004         36.9004
 10  1  4  1 41 30.0000000  0  9G17G15G28G12G26G 9G27G22G18
  21949181.3144   21949181.5924   21949184.5874  -15247220.13448 -11865718.68847
      -369.9504       -288.2784         48.9004         45.9004
  22623651.9524   22623651.8404   22623655.8634   -9731494.69647  -7334459.33647
     -3276.6924      -2553.2634         46.2004         43.0004
  24907429.6734   24907431.4604   24907431.9304    1729223.15445   1362696.59645
     -3202.7454      -2495.6484         33.0004         31.9004
  22005858.0834   22005858.5984   22005861.9454  -14876947.55648 -11566131.13247
      2753.5504       2145.6164         48.1004         44.9004
  21968197.3204   21968197.1484   21968200.8684   -7207359.68947  -5597755.70747
      2603.1044       2028.3904         45.8004         42.8004
  19699980.7984   19699980.7794   19699985.1624  -27176513.37948 -21149908.68248
       595.4834        464.0144         51.5004         48.5004
  20736577.7264   20736577.4534   20736581.6104  -21400222.27348 -16661576.32048
       129.0194        100.5354         50.8004         48.0004
  23743576.8384   23743577.4084   23743579.5124   -3940212.70646  -3063257.31946
      -573.8054       -447.1244         41.3004         39.0004
  23741563.6954   23741563.9444   23741566.9354   -2199085.27146  -1704683.85646
     -2187.7714      -1704.7564         39.4004         36.9004
 10  1  4  1 42  0.0000000  0  9G17G15G28G12G26G 9G27G22G18
  21951349.1524   21951349.1384   21951352.5274  -15235824.41848 -11856838.89947
      -389.7764       -303.7224         48.8004         45.6004
  22642385.3444   22642386.1664   22642389.2224   -9633049.53847  -7257748.83147
     -3286.3254      -2560.7804         46.2004         43.2004
  24925724.9504   24925722.7654   24925720.3084    1825324.37345   1437580.63445
     -3204.1084      -2496.7074         33.1004         32.4004
  21990168.6824   21990169.1014   21990172.5554  -14959393.92747 -11630375.01147
      2742.8774       2137.3074         47.9004         44.9004
  21953383.3024   21953383.2214   21953386.6684   -7285208.43447  -5658417.06247
      2586.7794       2015.6574         45.5004         42.5004
  19696631.5444   19696631.3864   19696635.4044  -27194116.50748 -21163625.41348
       578.0474        450.4274         51.5004         48.5004
  20735871.4004   20735871.2204   20735875.8734  -21403931.93748 -16664466.96848
       118.2944         92.1794         50.8004         48.0004
  23746905.1184   23746904.8404   23746906.3474   -3922733.01746  -3049636.79846
      -591.5544       -460.9504         41.6004         39.3004
  23754089.2854   23754087.4964   23754092.6624   -2133270.23546  -1653399.49946
     -2199.9274      -1714.2214         39.4004         36.7004
 10  1  4  1 42 30.0000000  0  9G17G15G28G12G26G 9G27G22G18
  21953630.7444   21953630.8974   21953634.5074  -15223833.67648 -11847495.46047
      -409.5984       -319.1714         48.6004         45.8004
  22661173.6964   22661174.4294   22661177.7004   -9534317.22847  -7180814.54547
     -3295.8294      -2568.1834         46.0004         43.0004
  24944022.1864   24944020.0414   24944021.5074    1921472.00445   1512500.84445
     -3205.6404      -2497.9104         33.3004         32.6004
  21974541.3904   21974541.0904   21974544.0114  -15041518.59847 -11694368.22247
      2732.1044       2128.9114         47.9004         44.7004
  21938660.9604   21938661.6894   21938665.7284   -7362567.65847  -5718696.96347
      2570.4794       2002.9644         45.3004         42.5004
  19693381.2774   19693381.1344   19693385.0644  -27211196.78948 -21176934.71648
       560.6114        436.8364         51.5004         48.7004
  20735226.8054   20735226.5974   20735231.1564  -21407319.80648 -16667106.87148
       107.5634         83.8184         50.8004         48.0004
  23750330.4444   23750329.5984   23750333.9064   -3904720.77446  -3035601.30546
      -609.3004       -474.7884         41.3004         38.1004
  23766681.5104   23766680.8614   23766683.9204   -2067091.95746  -1601832.05746
     -2212.0314      -1723.6594         38.9004         36.2004
 10  1  4  1 43  0.0000000  0  9G17G15G28G12G26G 9G27G22G18
  21956026.2504   21956026.4624   21956029.4094  -15211248.53648 -11837688.84947
      -429.3984       -334.5984         48.8004         45.9004
  22680015.2454   22680015.7334   22680019.7734   -9435300.03747  -7103658.30447
     -3305.2784      -2575.5434         45.6004         42.8004
  24962321.8794   24962319.2634   24962326.4724    2017664.41745   1587455.90445
     -3207.1584      -2499.0884         33.5004         32.6004
  21958975.5184   21958975.3084   21958978.1114  -15123319.70847 -11758109.28347
      2721.3084       2120.4924         47.9004         44.9004
  21924035.1784   21924033.9514   21924038.6754   -7439434.47547  -5778593.19547
      2553.9414       1990.0804         45.5004         42.6004
  19690231.2524   19690230.9304   19690234.3694  -27227753.47848 -21189836.03348
       543.1604        423.2414         51.7004         48.7004
  20734644.0344   20734643.5414   20734647.6544  -21410385.36948 -16669495.62748
        96.8034         75.4344         51.0004         48.0004
  23753860.2404   23753860.1024   23753862.2384   -3886176.98046  -3021151.60746
      -626.9544       -488.5314         40.3004         37.4004
  23779343.9504   23779343.6154   23779345.8724   -2000553.43946  -1549983.90346
     -2223.8684      -1732.8844         38.3004         36.0004
 10  1  4  1 43 30.0000000  0  9G17G15G28G12G26G 9G27G22G18
  21958534.4504   21958534.1744   21958536.9884  -15198069.36748 -11827419.35647
      -449.1944       -350.0204         48.8004         45.8004
  22698912.0924   22698912.1894   22698915.8334   -9336000.58347  -7026282.12147
     -3314.6794      -2582.8614         45.6004         42.6004
  24980632.6294   24980631.7654   24980634.1264    2113900.36645   1662444.89645
     -3208.5444      -2500.1654         33.3004         32.6004
  21943470.0834   21943470.6314   21943473.5844  -15204796.57647 -11821597.69347
      2710.4704       2112.0524         47.9004         45.1004
  21909500.7684   21909501.2034   21909505.7884   -7515806.18947  -5838103.60347
      2537.4534       1977.2304         45.6004         42.8004
  19687180.2044   19687179.7214   19687183.5634  -27243785.86348 -21202328.80148
       525.6534        409.6024         51.7004         48.7004
  20734121.9284   20734121.4684   20734125.6284  -21413127.98548 -16671632.73648
        86.0214         67.0324         50.8004         48.0004
  23757490.1474   23757489.8314   23757491.0214   -3867102.85846  -3006288.64646
      -644.6344       -502.3194         40.1004         37.6004
  23792071.8464   23792070.9474   23792076.8774   -1933657.34346  -1497857.12646
     -2235.8734      -1742.2354         38.2004         36.0004
 10  1  4  1 44  0.0000000  0  9G17G15G28G12G26G 9G27G22G18
  21961155.1884   21961155.2144   21961158.3794  -15184296.67048 -11816687.37947
      -469.0114       -365.4594         48.8004         45.8004
  22717861.1804   22717861.1324   22717865.4474   -9236420.98047  -6948687.62047
     -3323.9544      -2590.0894         45.6004         42.6004
  24998955.8964   24998958.2424   24998958.3854    2210178.36745   1737466.70045
     -3210.0354      -2501.3264         33.3004         32.2004
  21928027.8564   21928027.7914   21928031.3664  -15285948.11548 -11884832.59947
      2699.6214       2103.6004         48.1004         45.2004
  21895062.6564   21895062.6544   21895066.9764   -7591680.18747  -5897226.19047
      2520.8214       1964.2694         45.8004         43.2004
  19684228.8864   19684228.7974   19684232.8034  -27259293.01448 -21214412.29948
       508.1514        395.9624         51.7004         48.7004
  20733661.1884   20733661.2204   20733665.6414  -21415547.06948 -16673517.74148
        75.2404         58.6274         50.8004         48.0004
  23761220.4724   23761219.8994   23761221.6754   -3847499.19546  -2991013.12946
      -662.2244       -516.0224         40.1004         37.6004
  23804871.0934   23804871.0984   23804874.0394   -1866406.25446  -1445453.77546
     -2247.5684      -1751.3554         38.3004         36.4004
 10  1  4  1 44 30.0000000  0  9G17G15G28G12G26G 9G27G22G18
  21963888.5054   21963888.5344   21963891.8724  -15169930.66348 -11805493.08247
      -488.7704       -380.8654         48.8004         45.8004
  22736864.1784   22736863.4704   22736867.2444   -9136563.53447  -6870876.64347
     -3333.1824      -2597.2744         45.5004         42.6004
  25017287.9474   25017279.3374                    2306497.49345   1812520.56845
     -3211.4004      -2502.3854         32.4004         31.9004
  21912647.4164   21912647.4214   21912651.0624  -15366772.94548 -11947812.93247
      2688.6954       2095.0814         48.2004         45.2004
  21880720.4774   21880720.1534   21880723.8394   -7667053.73947  -5955958.82447
      2504.0864       1951.2394         46.0004         43.2004
  19681378.5494   19681378.2284   19681382.1324  -27274273.97348 -21226085.77248
       490.5954        382.2834         51.7004         48.9004
  20733262.6864   20733262.6074   20733266.8184  -21417642.30448 -16675150.39248
        64.4284         50.2014         51.0004         48.0004
  23765051.3514   23765050.9114   23765053.0654   -3827367.36746  -2975325.98646
      -679.8084       -529.7184         40.4004         37.6004
  23817736.2834   23817735.2084   23817739.6584   -1798802.80846  -1392775.79546
     -2259.2744      -1760.4714         38.9004         36.7004
 10  1  4  1 45  0.0000000  0  9G17G15G28G12G26G 9G27G22G18
  21966734.4564   21966735.0014   21966738.3914  -15154972.27248 -11793837.18247
      -508.4984       -396.2334         48.6004         45.6004
  22755918.0994   22755919.1664   22755923.2384   -9036430.59447  -6792850.98247
     -3342.3484      -2604.4184         45.8004         43.2004
  25035623.8744   25035613.1644                    2402856.23545   1887605.30745
     -3212.5584      -2503.2724         32.3004         31.7004
  21897329.3084   21897328.6684   21897332.2404  -15447269.48348 -12010537.45847
      2677.7334       2086.5384         48.1004         44.9004
  21866473.0324   21866473.1164   21866476.1504   -7741924.09547  -6014299.35947
      2487.3204       1938.1844         46.0004         43.2004
  19678627.5324   19678627.2214   19678631.6274  -27288727.95248 -21237348.61148
       473.0134        368.5834         51.7004         48.7004
  20732925.5934   20732925.4804   20732929.7904  -21419413.06448 -16676530.19948
        53.6214         41.7804         51.0004         48.2004
  23768985.7714   23768984.2674   23768984.9484   -3806708.55346  -2959228.23246
      -697.4244       -543.4444         39.9004         37.3004
  23830666.5244   23830666.6014   23830670.6154   -1730849.85446  -1339825.48046
     -2270.8764      -1769.5144         39.2004         36.9004
 10  1  4  1 45 30.0000000  0  9G17G15G28G12G26G 9G27G22G18
  21969694.3924   21969694.5044   21969698.0144  -15139421.78548 -11781719.90947
      -528.2094       -411.5944         48.8004         45.8004
  22775025.4394   22775024.7834   22775028.7634   -8936024.63247  -6714612.58447
     -3351.4024      -2611.4814         45.6004         42.6004
  25053967.3824   25053967.4854                    2499253.17055   1962719.78155
     -3213.8294      -2504.2814         32.3004         31.7004
  21882074.9354   21882074.4764   21882076.9784  -15527436.97048 -12073005.58247
      2666.7494       2077.9794         48.1004         45.1004
  21852320.9784   21852321.9114   21852325.6134   -7816288.69347  -6072245.79047
      2470.4334       1925.0164         46.0004         43.0004
  19675977.6504   19675977.3204   19675981.5574  -27302654.18748 -21248200.22948
       455.3874        354.8424         51.7004         48.7004
  20732650.5424   20732650.3034   20732654.8024  -21420858.82348 -16677656.75848
        42.7564         33.3124         51.0004         48.2004
  23773011.7404   23773012.1214   23773015.6314   -3785523.61846  -2942720.47245
      -714.8454       -557.0294         38.9004         35.9004
  23843665.1234   23843663.1904   23843666.9844   -1662549.88746  -1286604.79746
     -2282.4264      -1778.5064         39.2004         36.7004
 10  1  4  1 46  0.0000000  0 10G17G14G15G28G12G26G 9G27G22G18
  21972765.6314   21972765.9094   21972768.7354  -15123279.92748 -11769141.82147
      -547.9304       -426.9614         48.8004         45.6004
  24635455.1134   24635453.3144   24635456.5314    -324205.14245   -234158.79045
      3476.0454       2708.6054         35.9004         35.0004
  22794183.1594   22794184.0144   22794186.8154   -8835347.80947  -6636163.10947
     -3360.3794      -2618.4854         45.6004         42.8004
  25072316.1814                                    2595687.09354      4284.14553
     -3215.1104      -2505.3384         26.4004         23.4004
  21866881.4954   21866881.5474   21866884.8624  -15607274.34448 -12135216.47447
      2655.7364       2069.4094         48.2004         45.2004
  21838267.7364   21838267.6614   21838271.1904   -7890144.74247  -6129795.94947
      2453.3504       1911.7084         46.2004         43.3004
  19673427.6884   19673427.7154   19673431.9234  -27316052.01648 -21258640.08848
       437.7914        341.1344         51.7004         48.7004
  20732437.4984   20732437.4224   20732441.5644  -21421978.99648 -16678529.61548
        31.9064         24.8634         51.0004         48.2004
  23777145.5094   23777144.4674   23777146.6274   -3763813.98946  -2925803.91245
      -732.3844       -570.6794         38.0004         35.3004
  23856726.2094   23856726.0474   23856729.9134   -1593905.95646  -1233116.06846
     -2293.8874      -1787.4384         38.7004         36.0004
 10  1  4  1 46 30.0000000  0 10G17G14G15G28G12G26G 9G27G22G18
  21975950.6094   21975950.4474   21975953.0634  -15106547.13348 -11756103.27847
      -567.5854       -442.2714         48.8004         45.6004
  24615627.6364   24615626.5664   24615629.3144    -428398.01446   -315348.05745
      3470.0674       2703.9414         37.0004         35.2004
  22813391.1424   22813392.4304   22813396.4984   -8734402.72047  -6557504.61647
     -3369.2814      -2625.4094         45.6004         42.8004
  25090667.8544                                    2692157.24354     79465.41354
     -3216.3144      -2507.7084         26.4004         27.7004
  21851751.8614   21851751.7254   21851755.2514  -15686780.58148 -12197169.33747
      2644.6594       2060.7804         48.2004         45.2004
  21824310.9084   21824310.0954   21824313.7234   -7963489.74747  -6186947.89647
      2436.2884       1898.4074         46.2004         43.3004
  19670978.9384   19670978.8944   19670983.1654  -27328920.86148 -21268667.75648
       420.1264        327.3714         51.7004         48.7004
  20732286.3354   20732286.2534   20732290.3624  -21422773.00248 -16679148.31348
        21.0284         16.3864         51.0004         48.0004
  23781377.0064   23781375.0204   23781378.9124   -3741580.60746  -2908479.26545
      -749.8164       -584.2734         37.5004         35.0004
  23869854.6194   23869852.5844   23869856.7654   -1524920.71846  -1179361.40245
     -2305.1574      -1796.2214         38.3004         35.9004
 10  1  4  1 47  0.0000000  0 10G17G14G15G28G12G26G 9G27G22G18
  21979246.6264   21979246.9094   21979249.8614  -15089224.32948 -11742604.99547
      -587.2514       -457.5924         48.8004         45.8004
  24595833.3924   24595834.0954   24595834.8604    -532413.11446   -396398.81645
      3464.1634       2699.3444         37.3004         35.3004
  22832651.7704   22832652.3014   22832656.4594   -8633191.72647  -6478638.90847
     -3378.0864      -2632.2804         45.6004         42.6004
  25109034.1114                                    2788660.30754    154707.44354
     -3217.2234      -2508.4094         26.4004         29.8004
  21836685.0914   21836685.0694   21836689.2444  -15765954.05248 -12258862.91347
      2633.5464       2052.1164         48.1004         45.2004
  21810450.7474   21810450.0764   21810454.5454   -8036320.88647  -6243699.43447
      2419.0974       1885.0194         46.2004         43.0004
  19668631.5974   19668630.9954   19668634.9334  -27341259.78648 -21278282.50648
       402.4494        313.5984         51.7004         48.9004
  20732197.2334   20732197.2334   20732201.2884  -21423240.31048 -16679512.44748
        10.1284          7.8894         51.0004         48.0004
  23785708.0434   23785707.5734   23785708.9344   -3718824.92846  -2890747.51145
      -767.3194       -597.9064         36.6004         34.1004
  23883044.8604   23883045.2834   23883049.4154   -1455596.81746  -1125342.78845
     -2316.5024      -1805.0694         38.3004         35.9004
 10  1  4  1 47 30.0000000  0 10G17G14G15G28G12G26G 9G27G22G18
  21982655.9724   21982655.2754   21982657.6454  -15071312.18748 -11728647.46247
      -606.8944       -472.9054         48.6004         45.4004
  24576075.9484   24576076.2044   24576077.7294    -636247.93546   -477309.07445
      3458.0814       2694.6054         37.1004         35.0004
  22851961.2914   22851961.9574   22851966.0644   -8531716.92347  -6399567.63747
     -3386.8644      -2639.1054         45.6004         42.8004
  25127418.483
                                       -24.200         -24.200
  21821682.5334   21821683.0034   21821686.4424  -15844794.01748 -12320296.61347
      2622.4064       2043.4274         48.2004         45.2004
  21796690.1704   21796689.9214   21796693.2404   -8108635.52747  -6300048.50047
      2401.8544       1871.5774         46.0004         43.3004
  19666383.7804   19666383.7314   19666387.9154  -27353067.95848 -21287483.69148
       384.7324        299.7874         51.7004         48.9004
  20732170.4824   20732170.4394   20732174.6394  -21423380.40048 -16679621.61448
         -.7934          -.6254         51.0004         48.2004
  23790132.9854   23790133.5174   23790137.7104   -3695548.02645  -2872609.70745
      -784.6364       -611.4104         35.6004         33.8004
  23896302.6464   23896301.0654   23896303.9774   -1385936.83246  -1071062.34246
     -2327.5584      -1813.6704         38.3004         36.0004
 10  1  4  1 48  0.0000000  0  9G17G14G15G12G26G 9G27G22G18
  21986175.1604   21986175.7084   21986178.7274  -15052811.00748 -11714230.94847
      -626.5274       -488.2104         48.6004         45.8004
  24556349.1744   24556349.9334   24556351.3914    -739900.25846   -558077.09345
      3451.9634       2689.8304         36.6004         34.5004
  22871321.6854   22871321.7794   22871326.8194   -8429980.84147  -6320292.76747
     -3395.5464      -2645.8804         45.6004         43.0004
  21806743.7964   21806743.6124   21806747.1964  -15923299.12048 -12381469.37147
      2611.2424       2034.7324         48.2004         45.1004
  21783027.7194   21783027.8734   21783031.6824   -8180430.98847  -6355993.02447
      2384.5444       1858.0814         46.3004         43.3004
  19664238.6314   19664238.0754   19664242.4054  -27364344.67248 -21296270.72848
       367.0094        285.9844         51.7004         48.9004
  20732206.5674   20732206.1624   20732210.4404  -21423192.76548 -16679475.39548
       -11.7354         -9.1484         51.0004         48.0004
  23794665.5644   23794665.1514   23794667.0254   -3671751.16546  -2854066.68245
      -801.8814       -624.8404         36.1004         34.3004
  23909618.3944   23909616.8214   23909623.4894   -1315943.84546  -1016522.36245
     -2338.6604      -1822.3304         37.8004         35.3004
 10  1  4  1 48 30.0000000  0  9G17G14G15G12G26G 9G27G22G18
  21989808.8934   21989808.3214   21989811.5054  -15033721.75448 -11699356.20147
      -646.1074       -503.4584         48.8004         45.6004
  24536660.7384   24536660.8994   24536663.7374    -843367.03845   -638700.53445
      3445.7584       2685.0084         35.9004         34.0004
  22890730.3444   22890731.2704   22890735.1834   -8327985.85847  -6240816.17847
     -3404.1504      -2652.5874         45.8004         42.6004
  21791867.8724   21791868.0864   21791871.6864  -16001468.32348 -12442380.39147
      2600.0164       2025.9854         48.1004         45.1004
  21769465.3504   21769464.8674   21769468.4644   -8251704.87047  -6411531.11647
      2367.1134       1844.5054         46.3004         43.5004
  19662193.6314   19662193.3524   19662197.5144  -27375089.45748 -21304643.28848
       349.2754        272.1604         51.7004         48.9004
  20732304.8554   20732304.4774   20732308.5274  -21422676.96048 -16679073.47048
       -22.6724        -17.6684         51.0004         48.0004
  23799291.8444   23799292.4714   23799290.7084   -3647435.63146  -2835119.56645
      -819.0814       -638.2474         36.3004         34.5004
  23923003.2844   23923003.2634   23923005.4184   -1245620.44746   -961724.91945
     -2349.5934      -1830.8654         37.8004         35.7004
 10  1  4  1 49  0.0000000  0  9G17G14G15G12G26G 9G27G22G18
  21993552.0984   21993552.5924   21993555.4374  -15014045.01048 -11684023.66947
      -665.6864       -518.7204         48.6004         45.6004
  24517006.1884   24517005.3634   24517008.8194    -946646.00745   -719177.61845
      3439.4734       2680.1114         35.7004         34.0004
  22910189.7344   22910189.1464   22910192.3054   -8225734.22047  -6161139.61047
     -3412.6254      -2659.1804         45.8004         42.6004
  21777057.4754   21777057.3314   21777061.1424  -16079300.42248 -12503028.75947
      2588.7444       2017.2034         48.1004         45.2004
  21756000.8564   21756001.6984   21756005.4254   -8322454.32847  -6466660.55347
      2349.5354       1830.8054         46.5004         43.5004
  19660250.3964   19660250.2214   19660253.9584  -27385301.55048 -21312600.76248
       331.5144        258.3264         51.7004         48.9004
  20732464.9084   20732464.9784   20732469.2084  -21421832.49448 -16678415.44848
       -33.6384        -26.2124         51.0004         48.0004
  23804019.9794   23804017.1474   23804019.4264   -3622602.86146  -2815769.35245
      -836.3454       -651.6914         37.0004         35.2004
  23936444.1774   23936443.4264   23936450.9354   -1174969.59146   -906672.33845
     -2360.4174      -1839.2854         38.0004         35.7004
 10  1  4  1 49 30.0000000  0  9G17G14G15G12G26G 9G27G22G18
  21997408.4064   21997408.2894   21997411.7784  -14993781.54948 -11668233.94247
      -685.2304       -533.9524         48.6004         45.6004
  24497389.1614   24497389.7284   24497391.1064   -1049734.80745   -799506.55045
      3433.0464       2675.0974         35.6004         34.0004
  22929695.2624   22929695.1684   22929698.3674   -8123228.77347  -6081265.22747
     -3421.0534      -2665.7564         45.5004         42.5004
  21762310.0144   21762310.0404   21762314.0334  -16156794.29348 -12563413.55847
      2577.4784       2008.4214         48.1004         45.1004
  21742638.0944   21742638.3234   21742642.2294   -8392676.87447  -6521379.43247
      2331.9214       1817.0744         46.5004         43.3004
  19658408.9144   19658408.5824   19658412.2524  -27394980.21448 -21320142.58248
       313.7264        244.4644         51.9004         48.9004
  20732688.5704   20732688.4984   20732692.5544  -21420658.62548 -16677500.74748
       -44.6324        -34.7794         50.8004         48.0004
  23808840.4854   23808839.8324   23808843.0814   -3597253.96746  -2796016.93145
      -853.5914       -665.1354         37.3004         35.2004
  23949952.4184   23949952.2824   23949958.0884   -1103994.09546   -851366.73046
     -2371.2524      -1847.7374         38.3004         36.2004
 10  1  4  1 50  0.0000000  0 10G17G14G15G12G26G 9G27G22G18G30
  22001375.7734   22001376.2694   22001379.3194  -14972932.11648 -11651987.62547
      -704.6924       -549.1164         48.8004         45.8004
  24477810.0444   24477809.2764   24477811.1534   -1152630.49845   -879685.07845
      3426.5264       2670.0254         35.6004         33.8004
  22949248.6864   22949248.9124   22949253.1614   -8020471.41847  -6001194.58647
     -3429.4224      -2672.2834         45.5004         42.6004
  21747628.3234   21747628.4244   21747632.0144  -16233949.01148 -12623534.08647
      2566.1584       1999.5984         48.1004         45.1004
  21729375.2084   21729375.2644   21729380.3474   -8462370.07347  -6575685.80147
      2314.2884       1803.3294         46.2004         43.0004
  19656667.9204   19656668.1474   19656672.2574  -27404124.79148 -21327268.22248
       295.8974        230.5734         51.9004         48.9004
  20732975.1204   20732974.6104   20732978.8324  -21419155.15648 -16676329.21848
       -55.6164        -43.3374         51.0004         48.0004
  23813764.8394   23813763.5154   23813764.0314   -3571390.52746  -2775863.61445
      -870.6434       -678.4254         37.6004         35.5004
  23963521.5994   23963520.2544   23963524.5144   -1032696.77546   -795810.44146
     -2381.9764      -1856.0774         38.3004         36.0004
  24467951.4384                   24467959.5254    -338328.54745   -217792.89345
      3760.2004       2930.0254         35.4004         35.0004
 10  1  4  1 50 30.0000000  0 10G17G14G15G12G26G 9G27G22G18G30
  22005454.5694   22005454.9524   22005458.4794  -14951497.70148 -11635285.47347
      -724.2594       -564.3664         48.6004         45.6004
  24458264.1674   24458264.7854   24458269.1234   -1255330.90745   -959711.34445
      3420.1034       2665.0124         35.6004         34.0004
  22968850.5064   22968850.5214   22968854.9524   -7917465.11847  -5920929.94447
     -3437.7444      -2678.7584         45.6004         42.6004
  21733012.0774   21733011.5594   21733015.1194  -16310763.58648 -12683389.56447
      2554.8034       1990.7544         48.2004         45.4004
  21716215.1014   21716215.1374   21716220.3024   -8531531.13247  -6629577.52947
      2296.4784       1789.4614         46.2004         43.3004
  19655029.6134   19655029.8034   19655033.5764  -27412734.96048 -21333977.44248
       278.0964        216.6984         51.9004         48.9004
  20733323.8284   20733323.3674   20733327.6704  -21417321.46748 -16674900.36748
       -66.6434        -51.9284         51.0004         48.0004
  23818783.2084   23818782.8984   23818782.6044   -3545013.60146  -2755310.17745
      -887.8604       -691.8394         37.1004         34.8004
  23977148.9624   23977150.0104   23977151.3554    -961080.93546   -740005.93945
     -2392.4644      -1864.2524         38.0004         35.7004
  24446496.4074   24446497.0804   24446501.0604    -451087.87546   -305657.30045
      3757.0104       2927.5464         36.4004         34.8004
 10  1  4  1 51  0.0000000  0 10G17G14G15G12G26G 9G27G22G18G30
  22009645.4394   22009645.3854   22009647.7984  -14929479.02748 -11618128.05247
      -743.6944       -579.4964         48.6004         45.4004
  24438761.7734   24438758.9874   24438765.8404   -1357833.29045  -1039583.30545
      3413.4254       2659.8134         35.7004         34.1004
  22988498.4284   22988499.3474   22988503.9124   -7814211.81747  -5840472.83447
     -3445.8824      -2685.1054         45.5004         42.3004
  21718458.7224   21718459.0534   21718462.6524  -16387236.84548 -12742979.07547
      2543.3934       1981.8724         48.4004         45.4004
  21703156.6574   21703156.2154   21703160.0884   -8600157.52847  -6683052.63947
      2278.5774       1775.5094         46.3004         43.7004
  19653493.1744   19653493.0614   19653496.9994  -27420809.81748 -21340269.53948
       260.2524        202.7984         51.7004         48.9004
  20733735.3194   20733735.4144   20733739.4614  -21415157.02448 -16673213.78648
       -77.6694        -60.5184         50.8004         48.0004
  23823901.7594   23823899.3124   23823900.5614   -3518124.77946  -2734357.92145
      -904.7974       -705.0334         36.4004         34.3004
  23990836.6134   23990835.8884   23990842.1564    -889148.47946   -683954.70445
     -2402.9834      -1872.4554         37.6004         35.3004
  24425059.3814   24425056.1484   24425060.4894    -563751.78246   -393447.31645
      3753.8104       2925.0414         36.6004         34.6004
 10  1  4  1 51 30.0000000  0 10G17G14G15G12G26G 9G27G22G18G30
  22013946.0764   22013945.8014   22013949.8274  -14906877.06048 -11600516.11447
      -763.1394       -594.6564         48.6004         45.6004
  24419289.4174   24419290.4154   24419298.7754   -1460135.27245  -1119299.14545
      3406.5904       2654.4854         35.7004         34.1004
  23008193.4964   23008193.9624   23008197.8184   -7710713.78147  -5759825.04146
     -3453.9674      -2691.4014         45.1004         41.9004
  21703971.9154   21703971.5264   21703975.2844  -16463367.67348 -12802301.75747
      2531.9904       1972.9784         48.4004         45.4004
  21690200.0594   21690199.9284   21690203.1534   -8668246.75747  -6736109.19047
      2260.6504       1761.5484         46.7004         43.9004
  19652058.5094   19652058.2164   19652062.2964  -27428348.61348 -21346143.92148
       242.3434        188.8404         51.7004         48.9004
  20734210.0774   20734210.0614   20734214.4054  -21412661.39248 -16671269.13348
       -88.7234        -69.1374         50.8004         48.0004
  23829112.3404   23829112.4554   23829115.4714   -3490725.46245  -2713007.81545
      -921.8124       -718.2984         35.7004         34.1004
  24004584.9934   24004585.9324   24004588.8024    -816902.69646   -627659.29946
     -2413.4204      -1880.5824         38.2004         36.2004
  24403637.2544   24403637.8074   24403642.8294    -676318.66046   -481161.72145
      3750.5674       2922.5114         37.1004         35.3004
 10  1  4  1 52  0.0000000  0 10G17G14G15G12G26G 9G27G22G18G30
  22018357.8554   22018358.4904   22018360.9074  -14883692.21048 -11582449.98947
      -782.5434       -609.7714         48.6004         45.8004
  24399860.8134   24399861.3324   24399866.4564   -1562234.12545  -1198856.73145
      3399.8644       2649.2384         35.6004         33.8004
  23027934.5934   23027935.1854   23027939.1184   -7606973.55547  -5678988.50247
     -3461.9914      -2697.6604         44.9004         42.1004
  21689549.4574   21689549.8354   21689552.9404  -16539155.13748 -12861356.88247
      2520.4894       1964.0144         48.4004         45.4004
  21677344.5134   21677345.0474   21677348.9234   -8735796.34447  -6788745.23147
      2242.6314       1747.5084         46.7004         43.5004
  19650725.8714   19650725.9714   19650729.7544  -27435350.81248 -21351600.17848
       224.4654        174.9074         51.7004         48.9004
  20734748.5724   20734748.4724   20734752.4694  -21409833.91548 -16669065.90548
       -99.7884        -77.7544         50.8004         48.0004
  23834424.3834   23834422.5104   23834423.8664   -3462816.90646  -2691260.87545
      -938.7884       -731.5254         36.3004         34.6004
  24018393.8514   24018392.3454   24018396.3824    -744346.37846   -571121.96346
     -2423.6094      -1888.5244         38.5004         36.2004
  24382231.9144   24382233.9994   24382239.1804    -788787.15446   -568799.50345
      3747.3134       2919.9814         37.5004         35.3004
 10  1  4  1 52 30.0000000  0 10G17G14G15G12G26G 9G27G22G18G30
  22022880.7384   22022880.7184   22022883.6354  -14859925.78548 -11563930.69347
      -801.9074       -624.8604         48.8004         45.6004
  24380468.1694   24380470.6654   24380477.1674   -1664127.41745  -1278254.13445
      3392.9154       2643.8314         35.4004         34.0004
  23047720.5804   23047720.5164   23047725.4924   -7502993.71747  -5597965.26846
     -3469.9574      -2703.8774         44.8004         41.8004
  21675192.9554   21675193.7004   21675196.7444  -16614597.62248 -12920143.19947
      2508.9744       1955.0474         48.4004         45.4004
  21664594.2674   21664594.3164   21664597.8854   -8802803.74347  -6840958.77247
      2224.5354       1733.4044         46.7004         43.9004
  19649496.0914   19649495.7544   19649499.7434  -27441816.03648 -21356638.00948
       206.5524        160.9484         51.7004         48.9004
  20735349.6484   20735349.4314   20735353.6464  -21406674.22848 -16666603.80248
      -110.8704        -86.3874         50.8004         48.0004
  23839832.0084   23839832.9314   23839836.2454   -3434400.31946  -2669118.17545
      -955.6134       -744.6324         37.5004         35.5004
  24032255.4404   24032256.9224   24032262.1974    -671482.01346   -514344.59545
     -2433.8884      -1896.5264         38.2004         35.7004
  24360853.7324   24360850.7394   24360856.2204    -901155.82546   -656359.46645
      3743.9644       2917.3714         37.5004         35.2004
 10  1  4  1 53  0.0000000  0 10G17G14G15G12G26G 9G27G22G18G30
  22027513.3174   22027514.2614   22027516.8074  -14835578.66448 -11544958.90047
      -821.2344       -639.9244         48.6004         45.6004
  24361123.3374   24361123.0294   24361127.0604   -1765812.55746  -1357489.34445
      3386.0614       2638.4904         36.1004         34.5004
  23067552.8204   23067554.2494   23067557.1494   -7398776.72647  -5516757.25547
     -3477.8204      -2709.9844         44.8004         42.1004
  21660903.1164   21660902.7084   21660906.4454  -16689694.57548 -12978660.26247
      2497.4524       1946.0584         48.6004         45.6004
  21651946.3764   21651946.3544   21651950.2054   -8869266.49647  -6892747.92447
      2206.2854       1719.1764         46.7004         43.7004
  19648367.7144   19648367.6534   19648371.7674  -27447743.74048 -21361256.99648
       188.6084        146.9654         51.7004         48.9004
  20736014.4474   20736014.2504   20736018.4834  -21403181.83148 -16663882.45948
      -121.9794        -95.0494         50.8004         48.0004
  23845336.0454   23845330.4274   23845336.2934   -3405477.82845  -2646581.22045
      -972.6174       -757.8904         35.9004         33.6004
  24046182.1064   24046180.6364   24046186.1264    -598312.87346   -457329.73845
     -2444.0104      -1904.4254         37.8004         35.5004
  24339487.5324   24339487.1644   24339491.5794   -1013423.26346   -743840.52645
      3740.5604       2914.7234         37.5004         35.5004
 10  1  4  1 53 30.0000000  0 10G17G14G15G12G26G 9G27G22G18G30
  22032256.9874   22032257.0504   22032260.3104  -14810651.44648 -11525535.08147
      -840.5744       -654.9904         48.6004         45.6004
  24341813.7354   24341813.3984   24341818.2464   -1867286.83746  -1436560.21045
      3378.9224       2632.9284         37.1004         35.2004
  23087430.4884   23087429.9994   23087433.3474   -7294324.77247  -5435366.12446
     -3485.5964      -2716.0504         44.6004         41.6004
  21646678.6674   21646678.8084   21646682.1034  -16764444.77148 -13036907.14047
      2485.8694       1937.0354         48.6004         45.8004
  21639403.0984   21639402.9054   21639407.3714   -8935181.95547  -6944110.61147
      2188.0074       1704.9394         46.7004         43.7004
  19647342.1434   19647342.2134   19647345.9984  -27453133.16548 -21365456.53548
       170.6774        132.9924         51.7004         48.9004
  20736742.5064   20736742.1024   20736746.7164  -21399356.01348 -16660901.29348
      -133.0854       -103.7044         50.8004         48.0004
  23850941.2564   23850936.6274   23850935.0014   -3376050.41445  -2623650.77145
      -989.2764       -770.8634         34.7004         32.9004
  24060161.4944   24060160.8224   24060165.7274    -524841.58846   -400079.39345
     -2454.0684      -1912.2614         37.5004         35.3004
  24318143.3534   24318145.2234   24318149.2124   -1125588.32946   -831241.86745
      3737.1004       2912.0214         37.8004         35.9004
 10  1  4  1 54  0.0000000  0 10G17G14G15G12G26G 9G27G22G18G30
  22037109.6574   22037110.6154   22037113.6274  -14785145.04248 -11505659.96847
      -859.8634       -670.0244         48.4004         45.2004
  24322544.9164   24322544.8394   24322547.0774   -1968547.79846  -1515464.85945
      3371.7584       2627.3444         37.5004         35.5004
  23107351.8744   23107351.8254   23107355.0204   -7189640.33247  -5353793.84646
     -3493.3354      -2722.0764         44.8004         41.9004
  21632520.9644   21632520.3984   21632523.5264  -16838847.19848 -13094883.02147
      2474.2884       1928.0144         48.8004         45.8004
  21626963.5914   21626963.8584   21626967.9284   -9000547.75447  -6995045.01447
      2169.7194       1690.6884         46.5004         43.3004
  19646419.4704   19646418.9284   19646423.1184  -27457983.74648 -21369236.20348
       152.6924        118.9804         51.7004         48.9004
  20737533.7004   20737533.3764   20737538.1504  -21395196.66048 -16657660.24348
      -144.2094       -112.3694         50.8004         48.0004
  23856631.8784   23856631.2204   23856632.8464   -3346119.52945  -2600328.02045
     -1006.0954       -783.9684         35.0004         33.6004
  24074202.4324   24074200.3764   24074207.5614    -451071.01546   -342595.89645
     -2463.9394      -1919.9434         37.6004         35.7004
  24296817.0764   24296819.7354   24296822.9984   -1237649.48646   -918562.22245
      3733.6024       2909.2944         38.0004         35.7004
 10  1  4  1 54 30.0000000  0 10G17G14G15G12G26G 9G27G22G18G30
  22042075.2344   22042075.1704   22042077.3394  -14759060.73648 -11485334.51047
      -879.0994       -685.0104         48.4004         45.6004
  24303317.0364   24303315.2014   24303318.2494   -2069592.84146  -1594201.27545
      3364.5074       2621.6924         37.5004         35.2004
  23127314.5284   23127315.6584   23127318.8624   -7084725.92447  -5272042.37846
     -3500.9604      -2728.0134         44.6004         41.4004
  21618428.0464   21618428.2794   21618431.4404  -16912900.88348 -13152587.15647
      2462.6274       1918.9314         48.8004         45.8004
  21614630.7624   21614630.6664   21614634.3954   -9065361.31347  -7045549.07247
      2151.1974       1676.2594         46.5004         43.5004
  19645598.6054   19645598.7174   19645602.7634  -27462295.04348 -21372595.65848
       134.7374        104.9914         51.9004         49.1004
  20738388.5734   20738388.6174   20738393.2304  -21390703.20948 -16654158.85348
      -155.3664       -121.0604         50.8004         48.0004
  23862420.7364   23862422.5134   23862423.3144   -3315686.90046  -2576614.30645
     -1022.7934       -796.9854         36.1004         34.6004
  24088296.1084   24088296.1464   24088296.7894    -377004.18746   -284881.49345
     -2473.7674      -1927.6194         37.8004         35.5004
  24275513.8294   24275513.0064   24275518.9124   -1349605.32346  -1005800.50545
      3730.0544       2906.5354         37.5004         35.3004
 10  1  4  1 55  0.0000000  0 10G17G14G15G12G26G 9G27G22G18G30
  22047148.2384   22047148.2264   22047151.6984  -14732399.25348 -11464559.32547
      -898.3054       -699.9774         48.8004         45.8004
  24284131.8084   24284130.3204   24284133.0794   -2170419.53346  -1672767.53145
      3357.2064       2616.0094         37.1004         35.0004
  23147323.3054   23147324.0694   23147327.3214   -6979583.75947  -5190113.41846
     -3508.5114      -2733.9174         44.2004         41.4004
  21604402.6294   21604402.7214   21604406.2584  -16986604.80348 -13210018.75047
      2450.9264       1909.8034         48.8004         45.8004
  21602403.5244   21602403.3744   21602406.1214   -9129620.24247  -7095620.96547
      2132.6864       1661.8414         46.5004         43.9004
  19644881.3564   19644880.8734   19644885.1184  -27466066.24348 -21375534.25148
       116.6924         90.9274         51.9004         48.9004
  20739307.5094   20739307.4414   20739311.7074  -21385875.04648 -16650396.64548
      -166.5344       -129.7744         50.8004         48.0004
  23868307.1314   23868308.1074   23868311.6464   -3284753.79646  -2552510.65245
     -1039.4594       -809.9714         36.4004         34.6004
  24102444.2954   24102445.9144   24102448.5314    -302644.02746   -226938.51145
     -2483.5724      -1935.2534         37.5004         35.2004
  24254228.2934   24254229.4414   24254236.7944   -1461454.47646  -1092955.66545
      3726.4774       2903.7474         37.6004         35.7004
 10  1  4  1 55 30.0000000  0 10G17G14G15G12G26G 9G27G22G18G30
  22052331.7234   22052331.3364   22052334.4424  -14705161.74848 -11443335.29447
      -917.5164       -714.9534         48.6004         45.4004
  24264985.7984   24264985.6854   24264988.5984   -2271025.20046  -1751161.57645
      3349.8284       2610.2574         36.8004         34.8004
  23167373.5564   23167374.2034   23167378.1844   -6874216.41247  -5108009.00546
     -3515.9714      -2739.7194         44.4004         41.4004
  21590443.6214   21590443.8444   21590447.7604  -17059957.86148 -13267176.93947
      2439.2134       1900.6824         48.8004         45.8004
  21590280.9894   21590280.9994   21590284.6404   -9193322.14947  -7145258.80447
      2114.0754       1647.3254         46.9004         43.9004
  19644266.0324   19644266.1324   19644270.3774  -27469296.91848 -21378051.65848
        98.6594         76.8754         51.9004         48.9004
  20740289.8514   20740290.0264   20740294.5444  -21380711.75848 -16646373.30248
      -177.6934       -138.4654         50.8004         48.0004
  23874286.6624   23874288.9574   23874290.5854   -3253321.96446  -2528018.33545
     -1055.9414       -822.8084         36.1004         34.3004
  24116650.8754   24116648.9574   24116654.5214    -227993.67146   -168769.34145
     -2493.1574      -1942.7264         37.1004         34.8004
  24232967.6854   24232967.8324   24232971.6894   -1573195.38546  -1180026.51946
      3722.8664       2900.9344         38.7004         36.7004
 10  1  4  1 56  0.0000000  0 10G17G14G15G12G26G 9G27G22G18G30
  22057624.0674   22057623.9254   22057627.1284  -14677349.27048 -11421663.22447
      -936.6694       -729.8734         48.4004         45.4004
  24245884.4244   24245883.5384   24245886.2974   -2371407.25546  -1829381.39045
      3342.2984       2604.3864         37.3004         35.3004
  23187466.5204   23187467.0424   23187470.5044   -6768626.18247  -5025730.91146
     -3523.3894      -2745.4954         44.1004         41.1004
  21576552.7394   21576552.4334   21576556.0174  -17132958.89248 -13324060.83047
      2427.4914       1891.5504         48.8004         45.6004
  21578266.0264   21578265.2014   21578268.6254   -9256464.38147  -7194460.54547
      2095.3774       1632.7684         46.9004         43.9004
  19643754.8824   19643754.4234   19643758.4224  -27471986.52248 -21380147.45748
        80.6414         62.8344         51.9004         48.9004
  20741336.8214   20741336.6094   20741340.5414  -21375212.92848 -16642088.49948
      -188.8944       -147.1954         50.8004         48.0004
  23880366.0004   23880364.5754   23880367.5174   -3221392.88246  -2503138.54745
     -1072.5764       -835.7674         36.1004         34.3004
  24130912.6634   24130911.2924   24130915.4514    -153055.37946   -110375.94745
     -2502.6654      -1950.1234         37.3004         35.5004
  24211724.6044   24211724.8814   24211726.2104   -1684826.58946  -1267011.86746
      3719.1954       2898.0684         38.3004         36.0004
 10  1  4  1 56 30.0000000  0 10G17G14G15G12G26G 9G27G22G18G30
  22063026.0784   22063026.0324   22063028.3244  -14648962.79148 -11399543.89047
      -955.7594       -744.7484         48.6004         45.6004
  24226825.2264   24226826.0174   24226827.7494   -2471562.91946  -1907424.74445
      3334.7674       2598.5194         37.6004         35.7004
  23207603.8304   23207602.4614   23207606.0294   -6662815.47247  -4943281.03546
     -3530.6504      -2751.1584         44.1004         41.2004
  21562727.6754   21562728.2244   21562730.7754  -17205607.12548 -13380669.80947
      2415.7204       1882.3804         48.6004         45.6004
  21566355.8154   21566356.3304   21566360.8504   -9319044.69347  -7243224.41147
      2076.6024       1618.1254         46.9004         43.9004
  19643345.9094   19643345.4924   19643349.5564  -27474134.95248 -21381821.56048
        62.5854         48.7654         51.9004         49.1004
  20742447.7104   20742447.0274   20742450.8824  -21369377.83548 -16637541.67347
      -200.1164       -155.9384         50.8004         47.8004
  23886535.5934   23886534.9214   23886538.8194   -3188968.22146  -2477872.60845
     -1089.0734       -848.6334         36.6004         35.0004
  24145223.6104   24145225.9504   24145229.7894     -77832.16546    -51760.51345
     -2512.1864      -1957.5444         37.6004         35.7004
  24190503.7064   24190503.6114   24190505.9014   -1796346.68546  -1353910.58046
      3715.4494       2895.1574         38.7004         36.4004
 10  1  4  1 57  0.0000000  0 10G17G14G15G12G26G 9G27G22G18G30
  22068535.3954   22068535.5344   22068539.0004  -14620003.53448 -11376978.22147
      -974.8574       -759.6344         48.4004         45.2004
  24207809.6454   24207810.3634   24207811.4834   -2571489.72946  -1985289.80345
      3327.0104       2592.4744         37.5004         35.0004
  23227779.0504   23227779.3904   23227782.2544   -6556787.15747  -4860661.57546
     -3537.8814      -2756.8014         44.1004         41.2004
  21548970.3004   21548970.5824   21548973.5714  -17277901.72548 -13437003.23647
      2403.9004       1873.1644         48.6004         45.4004
  21554555.0344   21554555.1554   21554559.6664   -9381060.62447  -7291548.52247
      2057.8324       1603.5134         46.9004         44.0004
  19643039.9844   19643039.8054   19643043.6064  -27475741.78148 -21383073.64548
        44.5244         34.6934         51.9004         48.9004
  20743621.0844   20743620.9904   20743625.4874  -21363206.18348 -16632732.59547
      -211.3274       -164.6724         50.8004         47.8004
  23892799.8364   23892799.5174   23892800.1714   -3156049.75846  -2452221.91045
     -1105.5954       -861.4964         37.1004         35.0004
  24159595.9834   24159594.0524   24159598.2574      -2327.07446      7074.54045
     -2521.4964      -1964.7944         38.2004         35.9004
  24169300.7104   24169301.8694   24169307.1464   -1907754.43046  -1440721.78046
      3711.6854       2892.2214         38.9004         36.6004
