     2.11           OBSERVATION DATA    G (GPS)             RINEX VERSION / TYPE
teqc  2009Mar23     root                20100102 01:16:03UTCPGM / RUN BY / DATE
Linux 2.4.20-8|Pentium IV|gcc|Linux|486/DX+                 COMMENT
teqc  2009Mar23     root                20100101 01:00:00UTCCOMMENT
BIT 2 OF LLI FLAGS DATA COLLECTED UNDER A/S CONDITION       COMMENT
PTBB                                                        MARKER NAME
14234M001                                                   MARKER NUMBER
Automatic           BKG/GOWettzell+PTB                      OBSERVER / AGENCY
RT820013901         ASHTECH Z-XII3T     1L01-1D04           REC # / TYPE / VERS
CR15930             ASH700936E      SNOW                    ANT # / TYPE
  3844060.0000   709661.2700  5023129.5100                  APPROX POSITION XYZ
        0.0562        0.0000        0.0000                  ANTENNA: DELTA H/E/N
     1     1                                                WAVELENGTH FACT L1/2
     9    C1    P1    P2    L1    L2    D1    D2    S1    S2# / TYPES OF OBSERV
    30.0000                                                 INTERVAL
Forced Modulo Decimation to 30 seconds                      COMMENT
 SNR is mapped to RINEX snr flag value [0-9]                COMMENT
  L1 & L2: min(max(int(snr_dBHz/6), 0), 9)                  COMMENT
pseudorange smoothing corrections not applied               COMMENT
  2010     1     1     0     0    0.0000000     GPS         TIME OF FIRST OBS
                                                            END OF HEADER
 10  1  1  0  0  0.0000000  0  7G 5G15G 9G17G18G28G 8
  24355909.0284   24355908.5614   24355912.5454    -131624.01646    -78402.95546
     -3718.2674      -2897.3534         39.7004         37.4004
  20458302.5954   20458302.3144   20458305.3464  -21424953.48748 -16677391.98348
       235.3514        183.3924         52.2004         49.4004
  22579666.4914   22579665.4384   22579669.9694  -12486289.41847  -9434983.03246
      3405.3084       2653.4934         43.6004         40.7004
  24074938.9674   24074943.2874   24074946.3944   -3912927.85246  -3024304.05146
      3097.5554       2413.6794         39.7004         37.3004
  23356799.0574   23356797.3794   23356800.8114   -4530279.50046  -3521251.42746
      1766.4544       1376.4554         40.6004         38.3004
  21591102.6094   21591102.3364   21591105.6774  -15534414.99848 -12089815.65847
     -1378.5854      -1074.2184         49.3004         46.5004
  23220626.6674   23220626.5514   23220630.8354   -7494275.07747  -5818986.94046
     -3079.8824      -2399.9084         42.3004         39.2004
 10  1  1  0  0 30.0000000  0  8G27G 5G15G 9G17G18G28G 8
  22264499.9194   22264499.3684   22264502.9214  -14255150.66347 -11093256.78147
      2084.7544       1624.4794         46.9004         44.2004
  24377138.2104   24377140.2074   24377145.6064     -20042.89846      8543.33646
     -3720.4304      -2899.0364         39.6004         36.9004
  20457007.0194   20457007.4364   20457010.5914  -21431757.53348 -16682693.83748
       218.2544        170.0704         52.2004         49.2004
  22560244.6594   22560243.7774   22560248.9504  -12588349.10147  -9514510.02546
      3398.6604       2648.2924         43.7004         41.2004
  24057278.9474   24057277.2294   24057280.6944   -4005760.87846  -3096641.46546
      3091.2984       2408.8084         39.7004         37.3004
  23346760.8554   23346760.5774   23346763.0114   -4583023.67746  -3562350.79046
      1749.9004       1363.5474         40.8004         38.3004
  21599015.7104   21599014.6404   21599018.1654  -15492834.34448 -12057415.14847
     -1393.4414      -1085.7964         49.3004         46.3004
  23238223.2884   23238220.8334   23238227.6514   -7401804.34946  -5746931.82246
     -3084.8534      -2403.7864         41.6004         38.6004
 10  1  1  0  1  0.0000000  0  8G27G 5G15G 9G17G18G28G 8
  22252616.4684   22252616.4934   22252621.0464  -14317591.72947 -11141912.15547
      2077.9374       1619.1774         47.0004         44.0004
  24398384.1034   24398385.8334   24398390.9314      91600.35846     95538.08646
     -3722.4614      -2900.6164         39.6004         37.3004
  20455810.5534   20455810.4394   20455813.1564  -21438047.99948 -16687595.50848
       201.1044        156.7064         52.1004         49.2004
  22540862.1774   22540860.6264   22540865.1234  -12690209.14447  -9593881.46446
      3391.9894       2643.1024         44.1004         41.4004
  24039646.7204   24039647.2934   24039651.8464   -4098404.38546  -3168831.19146
      3084.8604       2403.7854         39.9004         37.6004
  23336819.7984   23336817.8484   23336822.3124   -4635271.41446  -3603063.29346
      1733.3384       1350.6504         40.8004         38.1004
  21607012.4734   21607012.2354   21607014.9414  -15450808.13448 -12024667.44447
     -1408.2874      -1097.3684         49.3004         46.1004
  23255846.2994   23255846.2304   23255850.1534   -7309184.65146  -5674760.63646
     -3089.7854      -2407.6214         41.5004         39.0004
 10  1  1  0  1 30.0000000  0  8G27G 5G15G 9G17G18G28G 8
  22240773.0894   22240773.5514   22240777.4034  -14379828.44647 -11190408.28947
      2071.1624       1613.8954         46.9004         44.0004
  24419642.7754   24419643.7504   24419647.9314     203303.07946    182579.15946
     -3724.3954      -2902.1304         40.3004         37.8004
  20454711.2144   20454711.3314   20454714.1824  -21443823.80248 -16692096.14448
       183.9464        143.3334         52.1004         49.2004
  22521514.8154   22521515.0174   22521519.3564  -12791867.91147  -9673096.08546
      3385.2824       2637.8934         43.9004         40.9004
  24022054.1714   24022055.2294   24022058.9034   -4190855.42646  -3240870.95746
      3078.3984       2398.7524         40.9004         38.6004
  23326970.4384   23326970.1974   23326973.3444   -4687020.93946  -3643387.58946
      1716.6864       1337.6744         40.6004         37.9004
  21615094.5834   21615094.0864   21615097.1754  -15408338.00948 -11991573.83947
     -1423.0584      -1108.8754         49.3004         46.1004
  23273502.5704   23273500.9284   23273504.6804   -7216417.09347  -5602474.27046
     -3094.7044      -2411.4504         42.0004         39.3004
 10  1  1  0  2  0.0000000  0  8G27G 5G15G 9G17G18G28G 8
  22228968.4574   22228968.6804   22228973.2964  -14441860.12747 -11238744.64647
      2064.3204       1608.5604         46.9004         43.9004
  24440910.6814   24440910.9344   24440914.0254     315062.57846    269664.48346
     -3726.2034      -2903.5364         40.1004         37.6004
  20453710.6744   20453710.5164   20453713.6624  -21449084.21848 -16696195.17048
       166.7454        129.9344         52.2004         49.4004
  22502209.7024   22502209.3234   22502213.5794  -12893323.98147  -9752152.74146
      3378.4664       2632.5884         43.9004         41.2004
  24004500.1784   24004499.7874   24004503.0734   -4283110.79346  -3312758.21846
      3071.9184       2393.6984         41.1004         38.5004
  23317218.5684   23317218.5214   23317221.9564   -4738270.29446  -3683322.11646
      1699.9034       1324.5944         40.6004         37.9004
  21623259.5234   21623259.8034   21623263.1114  -15365425.32148 -11958135.37747
     -1437.7944      -1120.3594         49.1004         46.1004
  23291180.9274   23291182.0394   23291185.4144   -7123502.58047  -5530073.33946
     -3099.6094      -2415.2654         42.0004         39.2004
 10  1  1  0  2 30.0000000  0  8G27G 5G15G 9G17G18G28G 8
  22217202.7494   22217202.9004   22217208.2844  -14503686.47947 -11286921.00847
      2057.4524       1603.2014         47.0004         44.0004
  24462187.3564   24462187.2864   24462192.1884     426876.11746    356791.89146
     -3727.9814      -2904.9174         39.7004         37.1004
  20452807.2504   20452807.5164   20452810.8214  -21453828.61648 -16699892.12148
       149.5404        116.5224         52.4004         49.4004
  22482941.6484   22482942.0204   22482945.6754  -12994575.71147  -9831050.15746
      3371.6244       2627.2264         43.9004         41.2004
  23986979.5324   23986981.7234   23986985.2564   -4375167.61946  -3384490.82046
      3065.2714       2388.5254         40.9004         38.3004
  23307562.8704   23307561.8724   23307563.9724   -4789017.78646  -3722865.60546
      1683.1474       1311.5404         40.3004         37.6004
  21631510.4674   21631509.7794   21631513.2714  -15322071.72548 -11924353.35347
     -1452.4484      -1131.7804         49.1004         46.1004
  23308890.9874   23308889.8824   23308895.2414   -7030442.58646  -5457559.08046
     -3104.4154      -2419.0274         41.5004         38.6004
 10  1  1  0  3  0.0000000  0  8G27G 5G15G 9G17G18G28G 8
  22205477.8194   22205477.3144   22205482.1314  -14565307.09747 -11334937.05047
      2050.5844       1597.8554         47.0004         44.2004
  24483472.8274   24483475.1244   24483478.8414     538740.82146    443959.23246
     -3729.6654      -2906.2364         39.6004         37.1004
  20452003.2014   20452003.5074   20452006.1234  -21458056.24048 -16703186.37048
       132.2934        103.0884         52.2004         49.6004
  22463713.5004   22463712.5624   22463716.8944  -13095621.96047  -9909787.46946
      3364.7704       2621.9084         44.1004         41.2004
  23969502.2214   23969502.0354   23969505.9764   -4467023.01246  -3456066.44146
      3058.4404       2383.1954         40.8004         38.5004
  23297999.4524   23297999.3934   23298001.7704   -4839261.63946  -3762016.65046
      1666.3884       1298.4944         39.9004         37.1004
  21639843.1654   21639842.6904   21639846.7824  -15278279.04548 -11890229.17747
     -1467.0524      -1143.1584         49.1004         46.1004
  23326627.7504   23326625.7564   23326630.8794   -6937238.30446  -5384932.36046
     -3109.2144      -2422.7634         41.5004         38.8004
 10  1  1  0  3 30.0000000  0  8G27G 5G15G 9G17G18G28G 8
  22193790.8924   22193790.9234   22193795.2244  -14626721.80447 -11382792.66247
      2043.7264       1592.5134         47.2004         44.4004
  24504772.9734   24504772.2334   24504776.1104     650653.98446    531164.26946
     -3731.2684      -2907.4774         39.4004         36.9004
  20451297.4844   20451297.3814   20451300.1684  -21461766.58048 -16706077.55348
       115.0484         89.6444         52.4004         49.6004
  22444524.0454   22444524.5574   22444528.2704  -13196461.17147  -9988363.47346
      3357.8314       2616.4894         44.1004         41.4004
  23952062.3594   23952062.6264   23952065.1624   -4558674.11346  -3527482.86146
      3051.5744       2377.8484         41.1004         38.8004
  23288535.6444   23288535.8824   23288538.3404   -4889000.51846  -3800774.25046
      1649.4944       1285.3344         39.9004         37.6004
  21648260.1154   21648260.1404   21648263.1024  -15234048.94148 -11855764.15947
     -1481.6194      -1154.5064         49.1004         46.1004
  23344389.6704   23344389.3744   23344393.2224   -6843890.30546  -5312193.70646
     -3113.9444      -2426.4374         41.5004         38.6004
 10  1  1  0  4  0.0000000  0  8G27G 5G15G 9G17G18G28G 8
  22182142.2844   22182142.8074   22182147.3164  -14687929.99547 -11430487.33747
      2036.8304       1587.1394         47.0004         43.9004
  24526078.3534   24526076.0124   24526081.0344     762612.67146    618404.81446
     -3732.6384      -2908.5484         39.2004         36.7004
  20450690.1554   20450689.8764   20450692.9894  -21464958.57648 -16708564.83148
        97.7554         76.1714         52.4004         49.6004
  22425375.1234   22425374.8304   22425379.1494  -13297092.00247 -10066777.05446
      3350.8664       2611.0704         44.1004         41.1004
  23934660.5974   23934660.7734   23934664.1144   -4650117.33046  -3598737.32546
      3044.5354       2372.3644         41.3004         38.6004
  23279169.2554   23279167.0514   23279169.7024   -4938232.46946  -3839136.82846
      1632.5784       1272.1384         40.3004         37.9004
  21656759.6064   21656759.2814   21656762.9694  -15189382.96648 -11820959.50047
     -1496.1134      -1165.8044         48.9004         46.1004
  23362181.1384   23362181.1444   23362183.8954   -6750400.19846  -5239344.30446
     -3118.6924      -2430.1404         41.5004         39.0004
 10  1  1  0  4 30.0000000  0  8G27G 5G15G 9G17G18G28G 8
  22170534.5924   22170534.4794   22170538.9904  -14748931.35847 -11478020.84947
      2029.9374       1581.7774         47.0004         43.9004
  24547391.4054   24547388.8054   24547394.6344     874614.24246    705678.76846
     -3734.1194      -2909.7054         38.9004         36.4004
  20450181.2134   20450181.1854   20450183.9994  -21467632.04648 -16710648.05548
        80.4554         62.6924         52.4004         49.6004
  22406264.0184   22406264.8094   22406268.8514  -13397512.50947 -10145026.78246
      3343.8184       2605.5854         44.1004         41.1004
  23917299.8924   23917299.8974   23917302.9424   -4741350.11246  -3669827.82546
      3037.5214       2366.9034         41.3004         38.6004
  23269894.2394   23269895.1794   23269898.7464   -4986955.88946  -3877103.13446
      1615.6484       1258.9484         40.8004         38.3004
  21665342.1914   21665342.0234   21665345.4834  -15144282.41748 -11785816.21247
     -1510.5814      -1177.0804         49.1004         45.9004
  23379999.2224   23379998.4504   23380001.4644   -6656769.21947  -5166385.12846
     -3123.3654      -2433.7854         42.0004         39.5004
 10  1  1  0  5  0.0000000  0  8G27G 5G15G 9G17G18G28G 8
  22158966.6184   22158966.2364   22158970.1834  -14809725.41047 -11525392.82347
      2023.0164       1576.3764         46.9004         44.0004
  24568708.8094   24568710.7104   24568712.9914     986655.91046    792983.99746
     -3735.3094      -2910.6324         38.5004         36.0004
  20449770.8384   20449771.0434   20449774.0884  -21469786.02048 -16712326.48748
        63.1344         49.1994         52.4004         49.6004
  22387195.7134   22387196.0424   22387199.9304  -13497721.49847 -10223111.69746
      3336.7514       2600.0494         44.2004         41.4004
  23899977.6284   23899979.2794   23899982.5724   -4832369.54846  -3740752.01446
      3030.3944       2361.3414         41.1004         38.6004
  23260721.8474   23260720.7064   23260723.3344   -5035169.26746  -3914672.02046
      1598.6044       1245.6674         41.1004         38.5004
  21674006.8734   21674006.5464   21674010.0794  -15098749.08748 -11750335.69547
     -1524.9734      -1188.2884         48.9004         45.9004
  23397842.4194   23397842.0764   23397846.9604   -6562998.17147  -5093316.79946
     -3128.0274      -2437.4224         42.2004         39.2004
 10  1  1  0  5 30.0000000  0  8G27G 5G15G 9G17G18G28G 8
  22147437.7894   22147436.6164   22147441.6244  -14870311.74447 -11572602.94347
      2016.0474       1570.9464         46.9004         44.0004
  24590037.9924   24590037.8174   24590041.6794    1098735.13146    880318.46245
     -3736.6124      -2911.6584         38.3004         35.9004
  20449460.0764   20449460.1144   20449463.2904  -21471420.05748 -16713599.76348
        45.8014         35.6904         52.2004         49.4004
  22368166.9414   22368167.3374   22368171.1954  -13597717.61547 -10301030.69846
      3329.6434       2594.5454         44.2004         41.6004
  23882699.2594   23882698.8804   23882702.8944   -4923172.67646  -3811507.69846
      3023.0304       2355.5964         41.6004         39.0004
  23251642.7754   23251641.9924   23251646.2394   -5082870.98146  -3951842.15046
      1581.5234       1232.3524         41.1004         38.3004
  21682754.0264   21682753.2424   21682756.6274  -15052784.86348 -11714519.41247
     -1539.3084      -1199.4614         48.8004         45.8004
  23415713.3464   23415714.1354   23415715.7034   -6469088.30046  -5020140.28046
     -3132.6044      -2440.9654         41.8004         38.5004
 10  1  1  0  6  0.0000000  0  8G27G 5G15G 9G17G18G28G 8
  22135947.8734   22135947.1424   22135951.9934  -14930689.72347 -11619650.68547
      2009.0994       1565.5334         47.0004         44.0004
  24611372.9164   24611373.9524   24611377.2244    1210849.02346    967679.90345
     -3737.6884      -2912.4814         37.8004         35.3004
  20449248.3054   20449248.4864   20449251.3884  -21472533.22248 -16714467.16948
        28.4234         22.1444         52.2004         49.4004
  22349179.2734   22349179.1764   22349184.2024  -13697499.38647 -10378782.69746
      3322.4974       2588.9494         44.6004         41.9004
  23865461.6304   23865462.3724   23865465.1764   -5013756.36746  -3882092.40546
      3015.7614       2349.9454         41.8004         39.2004
  23242664.5004   23242663.7414   23242666.7644   -5130059.10646  -3988612.13846
      1564.3524       1218.9704         41.5004         39.0004
  21691582.4884   21691581.7214   21691585.4134  -15006391.20848 -11678368.50147
     -1553.6004      -1210.6034         48.9004         45.9004
  23433607.8724   23433608.7684   23433614.6124   -6375040.44046  -4946856.21746
     -3137.2394      -2444.5884         40.9004         37.9004
 10  1  1  0  6 30.0000000  0  8G27G 5G15G 9G17G18G28G 8
  22124497.3724   22124497.5034   22124502.2624  -14990858.99447 -11666535.82047
      2002.1684       1560.1124         47.0004         44.2004
  24632713.8524   24632712.3434   24632717.9084    1322994.99346   1055066.39645
     -3738.7514      -2913.3154         36.8004         34.3004
  20449135.9474   20449135.7264   20449138.7264  -21473125.21748 -16714928.46848
        11.0254          8.5884         52.2004         49.4004
  22330233.4174   22330233.4664   22330236.4474  -13797065.20547 -10456366.42146
      3315.2664       2583.3244         44.6004         41.9004
  23848266.5964   23848267.8664   23848270.7654   -5104117.51447  -3952503.66646
      3008.4394       2344.2404         42.0004         39.2004
  23233782.6924   23233781.6424   23233785.6234   -5176731.99746  -4024980.62146
      1547.1694       1205.5874         41.6004         39.0004
  21700491.3164   21700491.1604   21700494.5164  -14959569.35148 -11641883.94247
     -1567.8384      -1221.6864         48.8004         45.6004
  23451531.8584   23451533.2204   23451537.1074   -6280855.95246  -4873465.70846
     -3141.7824      -2448.1374         41.1004         38.8004
 10  1  1  0  7  0.0000000  0  8G27G 5G15G 9G17G18G28G 8
  22113087.9974   22113087.5994   22113092.0784  -15050819.28047 -11713258.11847
      1995.1494       1554.6654         47.0004         44.2004
  24654055.0294   24654057.8824   24654062.0964    1435170.17246   1142475.58345
     -3739.6304      -2913.9974         36.3004         34.1004
  20449122.1194   20449122.4944   20449125.2214  -21473195.20548 -16714983.01248
        -6.3664         -4.9634         52.2004         49.4004
  22311327.4804   22311327.3024   22311332.3124  -13896413.85147 -10533780.89946
      3307.9824       2577.6404         44.8004         41.9004
  23831116.7104   23831116.0854   23831117.8504   -5194253.21946  -4022739.27646
      3000.7604       2338.2624         41.8004         39.2004
  23224998.7784   23224998.2564   23225002.7714   -5222888.53047  -4060946.73046
      1529.9354       1192.1544         42.0004         39.3004
  21709483.4174   21709482.6104   21709485.7914  -14912321.69148 -11605067.58147
     -1581.9954      -1232.7244         48.8004         45.8004
  23469479.4994   23469479.8604   23469484.3184   -6186535.91446  -4799969.58546
     -3146.2594      -2451.6344         41.5004         38.6004
 10  1  1  0  7 30.0000000  0  8G27G 5G15G 9G17G18G28G 8
  22101717.4714   22101717.5174   22101721.2594  -15110570.24647 -11759817.30647
      1988.2174       1549.2534         47.0004         44.0004
  24675408.3694   24675408.3854   24675414.2594    1547371.37046   1229905.06445
     -3740.5624      -2914.7154         36.4004         34.6004
  20449208.2334   20449208.3194   20449211.0934  -21472742.99748 -16714630.64648
       -23.7964        -18.5444         52.2004         49.4004
  22292463.7154   22292463.3644   22292467.6034  -13995543.55247 -10611024.81146
      3300.6494       2571.9324         44.8004         41.9004
  23814005.1314   23814004.9174   23814008.3284   -5284160.78546  -4092797.08946
      2993.1334       2332.3184         41.5004         38.6004
  23216314.8584   23216313.5664   23216316.2304   -5268527.07347  -4096509.22746
      1512.6044       1178.6684         42.0004         39.3004
  21718554.5244   21718553.8704   21718557.5474  -14864649.77548 -11567920.63047
     -1596.1214      -1243.7274         48.8004         45.8004
  23487453.8654   23487455.4444   23487458.3254   -6092081.63446  -4726368.88546
     -3150.6584      -2455.0594         41.3004         38.6004
 10  1  1  0  8  0.0000000  0  8G27G 5G15G 9G17G18G28G 8
  22090387.8554   22090387.2754   22090391.5294  -15170111.29247 -11806212.92747
      1981.1864       1543.7774         47.2004         44.2004
  24696761.6524   24696766.4204   24696771.4664    1659596.30446   1317353.06045
     -3741.1884      -2915.2104         36.8004         35.0004
  20449393.6014   20449393.9624   20449396.9444  -21471767.73548 -16713870.71248
       -41.2304        -32.1304         52.2004         49.4004
  22273641.9664   22273641.3144   22273646.4974  -14094452.79347 -10688096.91347
      3293.2824       2566.1834         44.8004         42.1004
  23796939.5364   23796941.4214   23796944.6044   -5373836.93046  -4162674.60046
      2985.3034       2326.2074         41.5004         39.0004
  23207727.5254   23207728.4494   23207730.8944   -5313646.04646  -4131666.83946
      1495.3084       1165.1654         41.6004         38.6004
  21727706.1304   21727706.3174   21727709.7724  -14816555.30048 -11530444.40947
     -1610.1794      -1254.6874         48.8004         45.8004
  23505455.3824   23505454.2304   23505459.0704   -5997493.77946  -4652664.08546
     -3155.1674      -2458.5744         41.3004         38.8004
 10  1  1  0  8 30.0000000  0  8G27G 5G15G 9G17G18G28G 8
  22079096.5704   22079096.9084   22079100.7764  -15229441.97247 -11852444.62847
      1974.1714       1538.3154         47.2004         44.2004
  24718126.8234   24718126.3274   24718131.6124    1771842.64046   1404817.74445
     -3741.8564      -2915.7264         37.0004         34.8004
  20449679.3014   20449679.2834   20449682.0984  -21470269.04748 -16712702.90848
       -58.6884        -45.7314         52.2004         49.4004
  22254861.3804   22254861.3784   22254866.7544  -14193140.32147 -10764996.25146
      3285.8654       2560.4144         44.9004         41.9004
  23779921.0904   23779920.4574   23779925.0744   -5463278.82346  -4232369.58646
      2977.4624       2320.0984         41.6004         38.8004
  23199242.0904   23199241.4594   23199244.2804   -5358243.77846  -4166418.35246
      1477.8734       1151.5774         40.9004         38.1004
  21736938.8884   21736937.8944   21736941.5724  -14768039.95448 -11492640.24147
     -1624.1674      -1265.5854         48.8004         45.6004
  23523480.0094   23523478.5184   23523483.1034   -5902773.54746  -4578856.14646
     -3159.5164      -2461.9604         41.5004         38.8004
 10  1  1  0  9  0.0000000  0  8G27G 5G15G 9G17G18G28G 8
  22067847.3094   22067846.8314   22067851.2774  -15288561.91447 -11898512.12247
      1967.1324       1532.8344         47.2004         44.4004
  24739485.9634   24739488.9754   24739494.4664    1884107.28146   1492296.65945
     -3742.3814      -2916.1394         36.6004         34.6004
  20450063.9194   20450064.0654   20450067.1394  -21468246.37648 -16711126.81248
       -76.1624        -59.3444         52.2004         49.4004
  22236126.2674   22236125.2824   22236129.1164  -14291604.46247 -10841721.54247
      3278.3974       2554.5944         44.9004         42.1004
  23762944.3534   23762944.6614   23762948.1314   -5552483.40046  -4301879.64246
      2969.5614       2313.9484         41.5004         38.6004
  23190853.0314   23190851.4884   23190855.1594   -5402318.82346  -4200762.53346
      1460.4834       1138.0394         40.4004         37.4004
  21746250.7924   21746250.3314   21746253.4004  -14719105.25348 -11454509.30847
     -1638.1324      -1276.4644         48.6004         45.6004
  23541529.1334   23541527.5654   23541531.9594   -5807922.49146  -4504946.23846
     -3163.9014      -2465.3794         40.9004         38.5004
 10  1  1  0  9 30.0000000  0  8G27G 5G15G 9G17G18G28G 8
  22056636.5594   22056636.7794   22056641.1104  -15347470.55847 -11944414.95447
      1960.1014       1527.3534         47.2004         44.2004
  24760854.4084   24760855.6294   24760858.8574    1996387.54546   1579787.78445
     -3742.9004      -2916.5464         36.8004         34.8004
  20450548.7384   20450549.2134   20450551.9044  -21465699.10748 -16709141.93448
       -93.6704        -72.9884         52.2004         49.4004
  22217431.0184   22217431.0404   22217434.5004  -14389844.00547 -10918271.80347
      3270.8774       2548.7484         44.9004         42.3004
  23746016.7304   23746016.8344   23746020.2234   -5641447.78646  -4371202.49346
      2961.3824       2307.5764         41.8004         39.7004
  23182566.1774   23182565.7524   23182570.3674   -5445869.58246  -4234698.22346
      1442.8884       1124.3384         40.1004         37.9004
  21755642.8514   21755641.9044   21755645.3294  -14669752.88448 -11416052.90547
     -1652.0364      -1287.2974         48.8004         45.8004
  23559603.6564   23559602.6774   23559607.2374   -5712941.43946  -4430935.06146
     -3168.1424      -2468.6854         40.9004         38.1004
 10  1  1  0 10  0.0000000  0  8G27G 5G15G 9G17G18G28G 8
  22045466.8914   22045466.8864   22045471.0314  -15406167.70747 -11990152.99547
      1953.0394       1521.8454         47.2004         44.0004
  24782224.2344   24782224.0654   24782227.3974    2108680.50746   1667288.75645
     -3743.2854      -2916.8484         36.8004         34.8004
  20451133.8424   20451133.7574   20451136.3644  -21462626.59948 -16706747.77648
      -111.1604        -86.6174         52.2004         49.4004
  22198780.1054   22198779.2474   22198783.1104  -14487857.25047 -10994645.73747
      3263.3044       2542.8284         45.3004         42.5004
  23729134.0584   23729133.0804   23729136.3274   -5730168.98147  -4440335.86746
      2953.3054       2301.2814         42.0004         39.2004
  23174380.2724   23174378.1544   23174383.4424   -5488894.66346  -4268224.25546
      1425.3744       1110.6884         40.6004         38.3004
  21765113.7354   21765112.8024   21765115.6404  -14619984.65848 -11377272.45647
     -1665.8464      -1298.0634         48.8004         45.8004
  23577700.8674   23577699.6294   23577705.2534   -5617831.16746  -4356823.21246
     -3172.4754      -2472.0584         39.9004         37.1004
 10  1  1  0 10 30.0000000  0  8G27G 5G15G 9G17G18G28G 8
  22034337.9474   22034337.2844   22034342.0114  -15464652.94647 -12035725.90647
      1945.9784       1516.3504         47.0004         44.2004
  24803598.9694   24803598.0444   24803600.7584    2220983.32046   1754797.45445
     -3743.6974      -2917.1684         36.6004         34.5004
  20451817.2524   20451817.7354   20451821.0844  -21459028.76448 -16703944.27348
      -128.7024       -100.2894         52.2004         49.2004
  22180171.8174   22180171.3164   22180175.8574  -14585642.73847 -11070842.19647
      3255.6964       2536.8954         45.3004         42.6004
  23712295.4924   23712298.2034   23712300.9634   -5818644.00047  -4509277.44246
      2945.0464       2294.8294         42.0004         39.3004
  23166292.1784   23166292.5574   23166296.3354   -5531392.69646  -4301339.59246
      1407.7914       1096.9774         41.3004         39.0004
  21774662.5864   21774662.0134   21774665.8084  -14569802.41148 -11338169.40947
     -1679.6144      -1308.7874         48.8004         45.8004
  23595825.7364   23595825.6614   23595829.3934   -5522593.16946  -4282611.74746
     -3176.6894      -2475.3324         39.4004         37.1004
 10  1  1  0 11  0.0000000  0  8G27G 5G15G 9G17G18G28G 8
  22023248.6004   22023248.7924   22023252.3624  -15522925.62847 -12081133.18747
      1938.8684       1510.8054         47.2004         44.2004
  24824971.0314   24824968.5214   24824972.0504    2333293.57245   1842311.94845
     -3743.6564      -2917.1294         35.7004         33.6004
  20452602.4504   20452602.7654   20452606.0674  -21454904.94348 -16700730.91848
      -146.2474       -113.9594         52.2004         49.4004
  22161606.5854   22161606.9694   22161610.5024  -14683199.04847 -11146860.08147
      3248.0144       2530.9124         45.5004         42.6004
  23695509.1084   23695508.4174   23695511.4524   -5906869.99147  -4578024.96446
      2936.6754       2288.3214         42.0004         39.3004
  23158306.5964   23158306.3104   23158308.7154   -5573362.54646  -4334043.38146
      1390.1544       1083.2474         41.8004         39.5004
  21784290.6674   21784289.6014   21784292.7084  -14519207.83248 -11298745.05547
     -1693.3584      -1319.5024         48.8004         45.6004
  23613972.3214   23613971.9384   23613977.7664   -5427228.56746  -4208301.70746
     -3180.8974      -2478.6214         39.9004         37.8004
 10  1  1  0 11 30.0000000  0  8G27G 5G15G 9G17G18G28G 8
  22012200.8424   22012200.4314   22012204.9104  -15580985.40747 -12126374.57747
      1931.7684       1505.2714         47.2004         44.4004
  24846336.1904   24846340.0134   24846343.8574    2445608.70545   1929830.23745
     -3743.8544      -2917.2974         34.9004         33.3004
  20453487.4044   20453487.7074   20453490.6494  -21450254.80148 -16697107.43348
      -163.7944       -127.6314         52.2004         49.4004
  22143087.2424   22143087.3404   22143090.7404  -14780524.77147 -11222698.27147
      3240.3224       2524.9244         45.5004         42.6004
  23678764.9544   23678768.0564   23678770.5014   -5994843.86847  -4646576.01646
      2928.2104       2281.7324         42.2004         39.7004
  23150420.3234   23150418.2234   23150421.8464   -5614802.74446  -4366334.44646
      1372.4674       1069.4664         41.6004         38.6004
  21793996.1084   21793995.3794   21793998.3454  -14468202.50348 -11259000.64047
     -1707.0024      -1330.1334         48.6004         45.4004
  23632145.9044   23632143.8554   23632147.9194   -5331737.76246  -4133893.31246
     -3185.1704      -2481.9354         40.3004         38.1004
 10  1  1  0 12  0.0000000  0  8G27G 5G15G 9G17G18G28G 8
  22001192.8094   22001192.5074   22001196.6364  -15638831.85247 -12171449.72347
      1924.6424       1499.7294         47.4004         44.5004
  24867708.8674   24867710.8654   24867717.9924    2557926.10545   2017350.31645
     -3744.0044      -2917.4074         34.9004         33.3004
  20454473.0474   20454472.8734   20454475.8284  -21445077.64748 -16693073.30048
      -181.3634       -141.3214         52.1004         49.2004
  22124610.6064   22124610.1974   22124613.9194  -14877617.97047 -11298355.29647
      3232.5604       2518.8834         45.5004         42.6004
  23662075.5294   23662075.7324   23662077.9464   -6082562.73047  -4714928.35346
      2919.7154       2275.1054         42.0004         39.2004
  23142634.8384   23142634.9704   23142638.1484   -5655711.56846  -4398211.46546
      1354.7634       1055.6684         41.5004         39.0004
  21803779.9924   21803779.3134   21803782.1754  -14416788.29648 -11218937.61247
     -1720.6124      -1340.7304         48.4004         45.4004
  23650338.4144   23650338.7974   23650343.4004   -5236122.45546  -4059387.93746
     -3189.2614      -2485.1284         40.1004         37.6004
 10  1  1  0 12 30.0000000  0  8G27G 5G15G 9G17G18G28G 8
  21990225.8774   21990225.7894   21990230.1204  -15696464.51447 -12216358.28847
      1917.5274       1494.1724         47.5004         44.7004
  24889086.6414   24889086.7714   24889091.6344    2670242.81745   2104869.89745
     -3743.9994      -2917.4034         34.7004         33.3004
  20455558.2474   20455558.4494   20455561.3964  -21439373.16648 -16688628.24848
      -198.9474       -155.0284         52.1004         49.2004
  22106179.1174   22106179.0314   22106182.7964  -14974477.11947 -11373829.94147
      3224.7144       2512.7704         45.5004         42.6004
  23645430.5914   23645431.4474   23645433.8874   -6170023.44546  -4783079.54746
      2911.0224       2268.3394         41.8004         39.2004
  23134952.3634   23134951.0294   23134954.9214   -5696087.40946  -4429673.15346
      1336.9384       1041.7764         41.8004         39.5004
  21813640.5574   21813640.2504   21813643.8344  -14364966.89448 -11178557.29747
     -1734.1204      -1351.2684         48.4004         45.4004
  23668557.5694   23668555.9244   23668561.4324   -5140383.18346  -3984785.90446
     -3193.4534      -2488.4124         39.6004         36.9004
 10  1  1  0 13  0.0000000  0  8G27G 5G15G 9G17G18G28G 8
  21979299.6754   21979298.8524   21979303.4564  -15753883.10647 -12261100.04247
      1910.3824       1488.6114         47.5004         44.5004
  24910456.6104   24910461.7444   24910460.6934    2782556.21845   2192386.76945
     -3743.8004      -2917.2494         34.2004         32.7004
  20456744.5924   20456744.5794   20456747.4764  -21433141.02048 -16683772.04448
      -216.5334       -168.7274         52.1004         49.4004
  22087791.4134   22087791.2794   22087795.4854  -15071101.03647 -11449121.28747
      3216.8584       2506.6394         45.3004         42.3004
  23628837.7294   23628838.7114   23628842.0474   -6257223.37947  -4851027.51546
      2902.2804       2261.4984         42.2004         39.5004
  23127371.1884   23127370.0314   23127373.0864   -5735929.10647  -4460718.62146
      1319.1464       1027.9094         42.2004         39.7004
  21823579.8934   21823579.2244   21823582.4704  -14312740.35848 -11137861.29547
     -1747.6304      -1361.7854         48.4004         45.4004
  23686797.9784   23686798.3584   23686803.1824   -5044521.63646  -3910088.63846
     -3197.4254      -2491.5184         39.6004         37.4004
 10  1  1  0 13 30.0000000  0  8G27G 5G15G 9G17G18G28G 8
  21968413.4464   21968413.0564   21968417.1984  -15811087.08847 -12305674.57247
      1903.2204       1483.0204         47.5004         44.4004
  24931828.0234   24931827.7134   24931835.0194    2894863.65955   2279899.02055
     -3743.7704      -2917.2324         33.3004         32.0004
  20458030.6604   20458030.9194   20458034.0004  -21426380.92248 -16678504.44848
      -234.1474       -182.4534         52.2004         49.4004
  22069449.6834   22069449.7724   22069454.3864  -15167488.38047 -11524228.28347
      3208.9684       2500.4894         45.3004         42.5004
  23612293.5914   23612293.6294   23612299.1664   -6344159.35547  -4918769.81946
      2893.4544       2254.6354         42.0004         38.6004
  23119892.3774   23119891.6794   23119893.9404   -5775235.32947  -4491346.87246
      1301.3064       1013.9984         42.7004         40.2004
  21833595.0614   21833594.7304   21833597.3874  -14260110.24148 -11096850.80147
     -1761.0544      -1372.2484         48.4004         45.4004
  23705064.3844   23705063.5104   23705068.1864   -4948538.89646  -3835296.92546
     -3201.4424      -2494.6324         40.1004         37.9004
 10  1  1  0 14  0.0000000  0  7G27G15G 9G17G18G28G 8
  21957569.3284   21957568.2094   21957572.9294  -15868075.89947 -12350081.42847
      1896.0354       1477.4304         47.4004         44.2004
  20459416.8274   20459417.7274   20459420.8854  -21419092.44248 -16672825.12248
      -251.7644       -196.1844         52.2004         49.2004
  22051152.7474   22051152.4104   22051157.2614  -15263637.15547 -11599149.41647
      3200.9634       2494.2504         45.1004         42.3004
  23595801.2824   23595801.6384   23595805.9104   -6430828.44646  -4986304.15646
      2884.4904       2247.6684         41.8004         39.0004
  23112512.8144   23112512.7844   23112516.4514   -5814005.09347  -4521557.09746
      1283.3524       1000.0294         42.7004         39.7004
  21843686.6694   21843686.1504   21843689.1184  -14207078.33348 -11055527.22747
     -1774.4114      -1382.6604         48.4004         45.2004
  23723352.6254   23723352.1234   23723357.6214   -4852435.82246  -3760411.48646
     -3205.4534      -2497.7574         40.8004         38.6004
 10  1  1  0 14 30.0000000  0  7G27G15G 9G17G18G28G 8
  21946764.7564   21946765.2124   21946768.8934  -15924849.03547 -12394320.23347
      1888.8264       1471.8024         47.4004         44.4004
  20460905.3494   20460905.2884   20460908.4444  -21411275.20648 -16666733.77148
      -269.3674       -209.8994         52.1004         49.2004
  22032902.5504   22032902.1294   22032906.9924  -15359546.25647 -11673883.75547
      3192.9474       2488.0104         45.3004         42.5004
  23579361.0874   23579360.2544   23579364.8274   -6517227.85146  -5053628.34446
      2875.4854       2240.6324         41.6004         39.2004
  23105238.1654   23105237.3844   23105240.3754   -5852236.61547  -4551347.91346
      1265.4134        986.0154         42.3004         39.5004
  21853853.8594   21853853.5134   21853856.8904  -14153646.37748 -11013891.93847
     -1787.7124      -1393.0214         48.2004         45.2004
  23741663.9884   23741662.2024   23741666.2924   -4756213.16946  -3685432.82846
     -3209.3204      -2500.7854         40.8004         37.9004
 10  1  1  0 15  0.0000000  0  7G27G15G 9G17G18G28G 8
  21936002.5674   21936002.6214   21936006.8774  -15981406.37247 -12438390.87747
      1881.6364       1466.2014         47.4004         44.5004
  20462493.0124   20462493.3754   20462496.8404  -21402928.87048 -16660230.14848
      -287.0434       -223.6694         52.1004         49.4004
  22014696.9124   22014697.0194   22014701.6654  -15455213.96147 -11748429.99547
      3184.9034       2481.7354         45.6004         42.8004
  23562972.4994   23562972.5904   23562973.5864   -6603354.48246  -5120739.99246
      2866.2894       2233.4634         41.8004         39.2004
  23098066.0274   23098064.4844   23098068.0914   -5889929.07947  -4580718.66346
      1247.4434        972.0334         42.0004         39.2004
  21864097.8644   21864097.2984   21864100.1344  -14099816.16048 -10971946.31347
     -1800.9634      -1403.3534         48.2004         45.2004
  23759996.1424   23759995.4674   23759999.3204   -4659872.27446  -3610361.99546
     -3213.3304      -2503.9064         40.3004         37.6004
 10  1  1  0 15 30.0000000  0  7G27G15G 9G17G18G28G 8
  21925282.3694   21925281.3574   21925285.5694  -16037747.53547 -12482293.08247
      1874.4284       1460.5964         47.5004         44.7004
  20464182.4084   20464182.6314   20464185.8714  -21394053.00148 -16653313.89348
      -304.6924       -237.4234         52.2004         49.4004
  21996538.7354   21996538.4284   21996542.4554  -15550638.84147 -11822787.02047
      3176.7484       2475.3824         45.5004         42.5004
  23546632.0814   23546633.7154   23546637.6874   -6689205.57346  -5187636.90946
      2857.0444       2226.2624         41.6004         38.8004
  23090994.9604   23090995.1764   23090997.5944   -5927080.83246  -4609668.07346
      1229.3564        957.9264         41.8004         38.8004
  21874416.3794   21874416.2034   21874419.7164  -14045589.28848 -10929691.60347
     -1814.1654      -1413.6424         48.4004         45.4004
  23778349.4024   23778350.5874   23778355.7804   -4563413.95346  -3535199.69146
     -3217.2424      -2506.9414         40.1004         37.6004
 10  1  1  0 16  0.0000000  0  7G27G15G 9G17G18G28G 8
  21914601.6274   21914601.5954   21914605.0274  -16093871.87647 -12526026.33347
      1867.1894       1454.9564         47.7004         44.7004
  20465971.7214   20465972.4504   20465975.8634  -21384647.31448 -16645984.79548
      -322.3614       -251.1874         52.2004         49.4004
  21978426.4534   21978425.7434   21978430.4084  -15645819.53247 -11896953.78747
      3168.6124       2469.0414         45.5004         42.6004
  23530349.1004   23530349.5564   23530352.8924   -6774777.95246  -5254316.70546
      2847.7924       2219.0454         41.5004         38.5004
  23084028.9414   23084027.4394   23084032.5754   -5963690.81646  -4638195.31846
      1211.2784        943.8504         41.6004         39.0004
  21884810.6784   21884810.4104   21884813.4204  -13990967.92248 -10887129.49547
     -1827.2894      -1423.8624         48.4004         45.2004
  23796730.7664   23796728.9074   23796733.0924   -4466839.18946  -3459946.67446
     -3221.0914      -2509.9214         40.3004         37.9004
 10  1  1  0 16 30.0000000  0  7G27G15G 9G17G18G28G 8
  21903962.9434   21903962.2804   21903966.8044  -16149778.98347 -12569590.31247
      1859.9484       1449.3094         47.7004         44.7004
  20467863.0444   20467863.3734   20467866.3824  -21374711.58048 -16638242.67548
      -340.0324       -264.9584         52.2004         49.4004
  21960360.3074   21960360.4744   21960364.0914  -15740754.59947 -11970929.16647
      3160.4204       2462.6654         45.5004         42.5004
  23514118.6414   23514120.3994   23514123.9294   -6860068.75446  -5320777.06846
      2838.3134       2211.6724         41.8004         39.5004
  23077166.7544   23077165.3964   23077168.0974   -5999757.64147  -4666299.36246
      1193.1704        929.7584         42.2004         39.7004
  21895280.1894   21895279.4324   21895282.4284  -13935953.63148 -10844261.19947
     -1840.3524      -1434.0434         48.4004         45.4004
  23815129.7004   23815128.5964   23815132.6884   -4370149.55046  -3384604.11146
     -3224.8834      -2512.9044         40.3004         37.4004
 10  1  1  0 17  0.0000000  0  7G27G15G 9G17G18G28G 8
  21893365.8544   21893365.0874   21893369.5424  -16205468.64547 -12612984.84647
      1852.6854       1443.6514         47.9004         44.9004
  20469854.1474   20469854.6794   20469857.8784  -21364245.66048 -16630087.42348
      -357.7104       -278.7314         52.1004         49.2004
  21942342.6254   21942342.0104   21942346.1284  -15835442.41147 -12044711.85147
      3152.1214       2456.1984         45.6004         42.8004
  23497947.4804   23497944.9914   23497947.8034   -6945075.51947  -5387016.09346
      2828.7694       2204.2344         42.2004         39.7004
  23070406.7544   23070405.8574   23070408.3114   -6035280.31747  -4693979.36446
      1175.0104        915.6024         42.3004         39.7004
  21905823.2194   21905822.6744   21905825.6014  -13880548.38048 -10801088.27747
     -1853.3414      -1444.1674         48.4004         45.4004
  23833548.3574   23833548.1244   23833554.5884   -4273345.75346  -3309172.63246
     -3228.7024      -2515.8694         39.4004         36.7004
 10  1  1  0 17 30.0000000  0  7G27G15G 9G17G18G28G 8
  21882809.7284   21882809.5764   21882813.4164  -16260940.29747 -12656209.49747
      1845.4194       1437.9854         47.9004         45.1004
  20471947.1134   20471947.5524   20471950.5414  -21353249.12748 -16621518.70448
      -375.3834       -292.5064         52.1004         49.2004
  21924369.9354   21924370.3874   21924375.7084  -15929881.31247 -12118300.60147
      3143.7524       2449.6814         45.6004         42.8004
  23481821.8104   23481822.4284   23481826.1684   -7029794.96247  -5453031.22446
      2819.1744       2196.7654         42.3004         39.7004
  23063750.4284   23063750.7294   23063753.6954   -6070257.52747  -4721234.33546
      1156.8144        901.3974         42.5004         39.9004
  21916439.7214   21916439.8784   21916442.7134  -13824754.08248 -10757612.18947
     -1866.2564      -1454.2244         48.2004         45.2004
  23851992.0274   23851991.8534   23851994.8254   -4176429.06846  -3233653.13446
     -3232.4154      -2518.7694         38.9004         36.6004
 10  1  1  0 18  0.0000000  0  7G27G15G 9G17G18G28G 8
  21872295.0744   21872295.4274   21872299.0024  -16316193.56347 -12699263.97947
      1838.1484       1432.3264         47.9004         45.1004
  20474140.8794   20474141.0494   20474144.1494  -21341721.99248 -16612536.52948
      -393.0864       -306.3014         52.1004         49.2004
  21906449.1314   21906447.5544   21906451.3714  -16024069.70347 -12191694.14647
      3135.4244       2443.1854         45.8004         43.0004
  23465756.8174   23465755.9074   23465759.8054   -7114224.06847  -5518820.13846
      2809.4644       2189.2004         42.3004         39.5004
  23057199.1204   23057197.8064   23057201.0954   -6104688.28947  -4748063.49746
      1138.5774        887.2274         42.7004         40.0004
  21927130.9404   21927130.3634   21927134.2404  -13768572.57248 -10713834.38847
     -1879.1654      -1464.2814         48.2004         45.2004
  23870456.8934   23870457.5434   23870461.3594   -4079400.27846  -3158046.32946
     -3236.2464      -2521.7454         38.7004         36.2004
 10  1  1  0 18 30.0000000  0  7G27G15G 9G17G18G28G 8
  21861823.1474   21861822.4434   21861826.4924  -16371228.02247 -12742147.96547
      1830.8164       1426.6064         47.9004         44.9004
  20476435.5674   20476435.6344   20476438.6444  -21329663.84148 -16603140.57648
      -410.8034       -320.1054         52.1004         49.2004
  21888572.0754   21888571.8324   21888575.5574  -16118006.03747 -12264891.28647
      3126.9914       2436.6114         45.8004         42.8004
  23449744.5964   23449744.8184   23449749.0744   -7198360.04047  -5584380.66546
      2799.6184       2181.5164         42.2004         39.3004
  23050749.6614   23050750.1104   23050753.0344   -6138571.41347  -4774465.93146
      1120.3024        872.9604         42.9004         40.0004
  21937895.4084   21937894.8554   21937898.2024  -13712005.50848 -10669756.15947
     -1891.9594      -1474.2524         48.2004         45.1004
  23888940.7044   23888940.8164   23888945.2734   -3982260.01346  -3082352.61545
     -3239.8314      -2524.5344         38.2004         35.7004
 10  1  1  0 19  0.0000000  0  7G27G15G 9G17G18G28G 8
  21851391.4104   21851391.0674   21851395.5814  -16426042.98847 -12784860.92047
      1823.4854       1420.8984         47.9004         44.9004
  20478831.1584   20478831.4074   20478834.3554  -21317074.40448 -16593330.63448
      -428.5124       -333.9064         52.1004         49.2004
  21870744.9364   21870744.3054   21870748.8324  -16211688.75147 -12337890.80347
      3118.5044       2430.0054         45.8004         43.0004
  23433791.7394   23433791.3364   23433795.0024   -7282200.05547  -5649710.53246
      2789.7174       2173.8194         42.7004         40.0004
  23044405.9884   23044406.0934   23044409.2324   -6171905.51647  -4800440.56746
      1102.0104        858.7074         42.9004         40.2004
  21948733.0544   21948733.0414   21948735.6114  -13655054.32748 -10625378.61147
     -1904.7654      -1484.2284         48.1004         45.2004
  23907448.3504   23907448.0674   23907452.1074   -3885010.04046  -3006573.44046
     -3243.5324      -2527.4204         38.2004         36.0004
 10  1  1  0 19 30.0000000  0  7G27G15G 9G17G18G28G 8
  21841001.8284   21841002.4624   21841005.9414  -16480638.13647 -12827402.58147
      1816.1654       1415.1984         47.7004         44.9004
  20481328.0404   20481328.0714   20481331.2814  -21303953.67448 -16583106.69648
      -446.2274       -347.7114         52.1004         49.2004
  21852967.1384   21852966.4034   21852969.9124  -16305116.46147 -12410691.57747
      3109.9904       2423.3624         46.2004         43.3004
  23417894.9684   23417894.7954   23417897.6364   -7365741.19647  -5714807.52746
      2779.6634       2165.9674         42.9004         40.0004
  23038169.4724   23038168.4114   23038172.2434   -6204689.49547  -4825986.52246
      1083.6224        844.3554         42.9004         39.9004
  21959642.5554   21959642.8594   21959645.3484  -13597721.48548 -10580703.67047
     -1917.4314      -1494.1044         48.1004         44.9004
  23925973.7724   23925972.5714   23925978.7184   -3787651.30746  -2930709.52145
     -3247.1254      -2530.2194         38.0004         35.7004
 10  1  1  0 20  0.0000000  0  7G27G15G 9G17G18G28G 8
  21830655.7084   21830655.1144   21830659.2574  -16535012.88747 -12869772.50247
      1808.7924       1409.4514         47.9004         44.9004
  20483925.6254   20483926.0754   20483929.4574  -21290301.34848 -16572468.52648
      -463.9464       -361.5164         52.1004         49.2004
  21835236.3364   21835236.3904   21835240.0694  -16398287.86347 -12483292.66347
      3101.4224       2416.6944         46.3004         43.5004
  23402054.7624   23402054.7064   23402056.6254   -7448980.68447  -5779669.44046
      2769.5524       2158.0784         42.7004         40.2004
  23032033.8664   23032033.7104   23032037.7754   -6236922.61647  -4851103.21746
      1065.1724        829.9924         42.7004         40.0004
  21970626.1714   21970624.9964   21970627.7364  -13540008.73747 -10535732.69847
     -1930.0464      -1503.9304         47.9004         44.9004
  23944522.1764   23944520.4964   23944525.8434   -3690184.54046  -2854761.35345
     -3250.6774      -2533.0084         37.6004         35.2004
 10  1  1  0 20 30.0000000  0  7G27G15G 9G17G18G28G 8
  21820349.7584   21820349.3434   21820353.9244  -16589166.90047 -12911970.42347
      1801.4474       1403.7274         47.9004         44.9004
  20486625.1204   20486625.0374   20486628.4884  -21276117.43948 -16561416.13848
      -481.6684       -375.3254         52.1004         49.2004
  21817555.7344   21817555.0474   21817559.5934  -16491201.06847 -12555692.54647
      3092.8004       2409.9744         46.5004         43.5004
  23386272.8224   23386272.0814   23386275.6864   -7531915.60647  -5844294.06446
      2759.3764       2150.1484         42.9004         40.0004
  23026006.0344   23026004.9284   23026009.3894   -6268603.46947  -4875789.62246
      1046.7844        815.6864         42.9004         40.0004
  21981679.2224   21981679.0224   21981682.4094  -13481917.81047 -10490467.04247
     -1942.6294      -1513.7354         47.9004         44.9004
  23963087.0464   23963087.6104   23963092.7304   -3592610.73646  -2778729.85945
     -3254.2314      -2535.7584         37.1004         35.0004
 10  1  1  0 21  0.0000000  0  7G27G15G 9G17G18G28G 8
  21810086.6334   21810086.5484   21810091.2994  -16643099.82847 -12953996.06447
      1794.0714       1397.9744         47.9004         45.1004
  20489425.3134   20489425.4064   20489428.4654  -21261401.66248 -16549949.31148
      -499.3854       -389.1324         52.1004         49.2004
  21799924.1544   21799924.0004   21799928.8904  -16583854.61047 -12627890.12647
      3084.1204       2403.2164         46.5004         43.7004
  23370547.4984   23370548.2964   23370551.8474   -7614542.76947  -5908678.86446
      2749.0584       2142.1094         42.9004         40.0004
  23020081.3804   23020081.5304   23020086.3354   -6299730.91247  -4900044.78546
      1028.4014        801.3654         42.7004         40.0004
  21992805.5334   21992805.1174   21992808.0604  -13423450.55147 -10444908.14247
     -1955.1634      -1523.4994         47.9004         44.9004
  23981678.1944   23981678.0284   23981683.7174   -3494930.96446  -2702615.75345
     -3257.6644      -2538.4354         37.1004         35.0004
 10  1  1  0 21 30.0000000  0  7G27G15G 9G17G18G28G 8
  21799866.6274   21799865.6374   21799870.3764  -16696811.03148 -12995848.93447
      1786.6734       1392.2184         48.1004         45.2004
  20492326.9934   20492327.1954   20492330.0394  -21246153.68748 -16538067.78048
      -517.1404       -402.9664         52.1004         49.2004
  21782341.5504   21782342.0044   21782346.6504  -16676246.78147 -12699884.01947
      3075.3904       2396.3994         46.7004         43.7004
  23354882.6234   23354884.7424   23354887.7824   -7696858.95947  -5972821.37146
      2738.6634       2134.0174         42.9004         40.0004
  23014265.9804   23014265.1374   23014267.3944   -6330304.28847  -4923868.19646
      1009.8484        786.9034         42.9004         40.0004
  22004002.8594   22004002.5414   22004005.6594  -13364608.85847 -10399057.46347
     -1967.6144      -1533.2074         47.9004         44.7004
  24000288.9924   24000284.4564   24000289.3164   -3397146.66046  -2626420.23345
     -3261.2004      -2541.1964         36.8004         34.6004
 10  1  1  0 22  0.0000000  0  7G27G15G 9G17G18G28G 8
  21789686.7614   21789686.7304   21789691.5104  -16750300.18048 -13037528.76147
      1779.2754       1386.4514         48.1004         45.1004
  20495329.6054   20495329.9144   20495333.1254  -21230373.62848 -16525771.64048
      -534.8704       -416.7844         52.1004         49.2004
  21764809.3934   21764809.4344   21764815.3484  -16768376.62847 -12771673.49547
      3066.6174       2389.5604         46.7004         43.7004
  23339280.1354   23339278.9864   23339283.2684   -7778861.69747  -6036719.59046
      2728.1134       2125.7904         42.9004         39.9004
  23008553.4444   23008552.6414   23008555.4024   -6360322.45447  -4947258.98646
       991.3424        772.4724         42.9004         40.2004
  22015270.5224   22015270.3584   22015273.9924  -13305394.67247 -10352916.53747
     -1980.0064      -1542.8654         47.7004         44.7004
  24018905.2764   24018908.3294   24018915.0454   -3299258.38845  -2550143.70945
     -3264.6884      -2543.9024         35.9004         34.1004
 10  1  1  0 22 30.0000000  0  7G27G15G 9G17G18G28G 8
  21779550.4984   21779550.2654   21779555.1244  -16803566.93048 -13079035.31247
      1771.8334       1380.6414         48.1004         45.1004
  20498433.3484   20498433.9364   20498437.0664  -21214061.93948 -16513061.23848
      -552.5794       -430.5834         52.1004         49.2004
  21747328.6084   21747328.5714   21747333.3624  -16860242.47547 -12843257.27747
      3057.7884       2382.6884         46.7004         43.9004
  23323735.7234   23323735.9334   23323738.3244   -7860548.95247  -6100371.96546
      2717.5984       2117.6194         42.7004         39.7004
  23002946.1164   23002946.6644   23002948.6884   -6389784.38847  -4970216.35546
       972.8104        758.0224         42.9004         40.2004
  22026610.1944   22026609.1594   22026613.1194  -13245809.74847 -10306486.72347
     -1992.3184      -1552.4544         47.9004         45.1004
  24037556.3784   24037557.9134   24037562.3984   -3201267.29945  -2473786.99445
     -3268.1004      -2546.5794         35.7004         34.3004
 10  1  1  0 23  0.0000000  0  7G27G15G 9G17G18G28G 8
  21769456.4464   21769456.6504   21769460.9084  -16856610.82348 -13120368.19747
      1764.4084       1374.8644         48.1004         45.1004
  20501638.8044   20501639.2064   20501642.3374  -21197217.75548 -16499935.90648
      -570.3384       -444.4204         52.1004         49.2004
  21729899.0354   21729898.6654   21729902.3524  -16951842.50447 -12914633.91247
      3048.8684       2375.7324         47.0004         44.0004
  23308249.6654   23308250.5454   23308255.6934   -7941916.56847  -6163775.29446
      2706.8934       2109.2664         42.5004         39.9004
  22997444.9004   22997444.8504   22997448.3374   -6418689.24747  -4992739.62946
       954.1594        743.4914         42.9004         40.0004
  22038017.9984   22038018.2424   22038021.1754  -13185856.11047 -10259769.60247
     -2004.5864      -1562.0184         47.9004         44.7004
  24056227.0884   24056225.3704   24056229.3444   -3103174.08546  -2397350.75445
     -3271.4434      -2549.1744         36.3004         34.6004
 10  1  1  0 23 30.0000000  0  7G27G15G 9G17G18G28G 8
  21759406.1334   21759405.1344   21759409.4104  -16909431.58347 -13161527.22547
      1756.9444       1369.0534         47.9004         45.1004
  20504945.9174   20504945.9884   20504949.0904  -21179841.35848 -16486395.86648
      -588.0954       -458.2524         52.1004         49.1004
  21712518.1104   21712517.6324   21712522.2644  -17043175.39547 -12985802.37847
      3039.9554       2368.7984         47.0004         44.0004
  23292829.0694   23292829.4534   23292832.0094   -8022962.26047  -6226927.75446
      2696.1284       2100.8814         42.9004         40.0004
  22992052.8234   22992052.6074   22992054.4784   -6447035.97947  -5014827.99146
       935.5754        729.0254         43.0004         40.4004
  22049497.1594   22049496.8504   22049499.5224  -13125535.28147 -10212766.35547
     -2016.7894      -1571.5254         47.7004         44.7004
  24074909.2114   24074909.6754   24074918.8794   -3004980.14046  -2320835.96545
     -3274.7934      -2551.7784         36.8004         34.6004
 10  1  1  0 24  0.0000000  0  7G27G15G 9G17G18G28G 8
  21749396.5404   21749396.1334   21749400.4994  -16962028.59548 -13202511.90347
      1749.4994       1363.2454         48.1004         45.1004
  20508353.2504   20508353.5934   20508357.0544  -21161932.57348 -16472440.97848
      -605.8254       -472.0714         51.9004         49.1004
  21695189.4884   21695189.2374   21695193.6904  -17134239.50547 -13056761.39947
      3030.9614       2361.7844         47.0004         44.0004
  23277469.2884   23277468.1464   23277471.8174   -8103683.24247  -6289827.20046
      2685.2484       2092.3984         43.0004         40.4004
  22986763.8874   22986763.8064   22986767.1134   -6474823.46947  -5036480.56646
       916.9204        714.4714         42.9004         40.2004
  22061044.9534   22061044.7324   22061048.0744  -13064849.30847 -10165478.58147
     -2028.9314      -1580.9834         47.7004         44.7004
  24093619.2894   24093618.2624   24093621.9824   -2906685.98546  -2244243.18245
     -3278.0684      -2554.3414         37.0004         35.0004
 10  1  1  0 24 30.0000000  0  7G27G15G 9G17G18G28G 8
  21739429.9384   21739430.3184   21739434.0264  -17014401.31048 -13243321.80747
      1741.9974       1357.4024         48.1004         45.1004
  20511863.1334   20511863.1944   20511866.4464  -21143491.69448 -16458071.46548
      -623.5814       -485.9074         51.9004         49.1004
  21677911.7004   21677911.4874   21677916.3074  -17225032.94347 -13127509.53147
      3021.9284       2354.7444         46.9004         43.7004
  23262170.6484   23262170.4514   23262173.7954   -8184076.72047  -6352471.44146
      2674.2724       2083.8504         43.6004         41.1004
  22981583.4894   22981582.5654   22981584.4274   -6502051.18847  -5057696.99246
       898.2424        699.9254         42.9004         40.0004
  22072662.4514   22072662.3474   22072664.7734  -13003800.22647 -10117907.86747
     -2041.0044      -1590.4004         47.7004         44.7004
  24112340.6104   24112340.6804   24112341.4064   -2808292.94146  -2167573.28945
     -3281.3794      -2556.9214         36.4004         34.3004
 10  1  1  0 25  0.0000000  0  7G27G15G 9G17G18G28G 8
  21729507.0914   21729506.6434   21729511.0754  -17066549.26048 -13283956.55847
      1734.5124       1351.5634         48.1004         45.1004
  20515473.8674   20515473.8894   20515476.2674  -21124518.31348 -16443287.03348
      -641.3124       -499.7194         51.9004         48.9004
  21660686.4594   21660686.6934   21660689.9644  -17315554.51647 -13198045.81147
      3012.8294       2347.6614         46.9004         43.9004
  23246933.9394   23246934.1954   23246938.7554   -8264139.61747  -6414858.09746
      2663.2074       2075.2504         43.7004         40.9004
  22976506.4684   22976506.7834   22976510.9134   -6528718.03547  -5078476.35046
       879.5104        685.3474         42.7004         40.0004
  22084348.9894   22084348.4154   22084350.9884  -12942389.88147 -10070055.63747
     -2053.0184      -1599.7564         47.7004         44.7004
  24131081.9514   24131081.1484   24131084.8154   -2709801.81845  -2090826.94145
     -3284.6044      -2559.4324         35.9004         34.1004
 10  1  1  0 25 30.0000000  0  7G27G15G 9G17G18G28G 8
  21719627.0854   21719626.3744   21719630.1424  -17118472.08148 -13324415.88947
      1726.9974       1345.7094         48.1004         45.1004
  20519184.8104   20519185.1394   20519188.3064  -21105012.57048 -16428087.75048
      -659.0524       -513.5494         51.9004         48.9004
  21643511.5454   21643511.7784   21643516.8354  -17405802.37747 -13268368.79547
      3003.6824       2340.5214         46.7004         43.9004
  23231759.9334   23231762.0354   23231765.1954   -8343869.53547  -6476985.29346
      2652.0414       2066.5284         43.6004         40.6004
  22971540.8924   22971539.8994   22971543.4814   -6554823.01147  -5098817.92046
       860.7844        670.7414         43.0004         40.6004
  22096102.9974   22096102.6974   22096105.6034  -12880620.03847 -10021923.30047
     -2064.9534      -1609.0524         47.7004         44.5004
  24149841.6404   24149840.5194   24149846.2724   -2611214.21845  -2014005.43345
     -3287.7594      -2561.8894         35.7004         34.0004
 10  1  1  0 26  0.0000000  0  7G27G15G 9G17G18G28G 8
  21709788.7934   21709788.2094   21709792.3344  -17170169.23348 -13364699.38247
      1719.4684       1339.8444         48.1004         45.1004
  20522997.8434   20522998.3754   20523001.1884  -21084975.03548 -16412474.09448
      -676.7954       -527.3764         51.7004         48.9004
  21626390.6834   21626390.7644   21626395.7804  -17495775.42547 -13338477.65047
      2994.5224       2333.3974         46.9004         44.0004
  23216655.3924   23216654.5694   23216657.1854   -8423263.23347  -6538850.50046
      2640.8474       2057.7934         43.4004         40.6004
  22966679.1814   22966679.0174   22966682.9844   -6580365.75547  -5118721.35146
       842.0414        656.1304         43.2004         40.6004
  22107925.5694   22107925.4404   22107928.1134  -12818492.87947  -9973512.52447
     -2076.8584      -1618.3294         47.7004         44.7004
  24168624.0074   24168619.9464   24168626.3554   -2512530.63445  -1937109.14145
     -3291.0514      -2564.4604         35.7004         34.0004
 10  1  1  0 26 30.0000000  0  7G27G15G 9G17G18G28G 8
  21699993.7114   21699993.8544   21699997.6154  -17221640.26348 -13404806.66047
      1711.9244       1333.9674         48.1004         45.1004
  20526913.4874   20526912.8144   20526915.5574  -21064404.92548 -16396445.44148
      -694.5564       -541.2124         51.7004         48.9004
  21609322.2614   21609321.8114   21609326.7904  -17585471.87847 -13408370.95947
      2985.2484       2326.1534         46.9004         44.0004
  23201608.8584   23201610.4144   23201614.3714   -8502317.87047  -6600451.51846
      2629.4574       2048.9434         43.4004         40.4004
  22961926.6184   22961926.1944   22961929.4434   -6605345.10547  -5138185.78646
       823.2264        641.5024         43.0004         39.9004
  22119815.3434   22119814.6934   22119818.1064  -12756009.86947  -9924824.46147
     -2088.6774      -1627.5374         47.7004         44.4004
  24187419.0164   24187418.3584   24187422.3584   -2413752.26346  -1860139.07345
     -3294.2344      -2566.9294         36.1004         34.3004
 10  1  1  0 27  0.0000000  0  7G27G15G 9G17G18G28G 8
  21690243.1054   21690242.1524   21690246.4044  -17272884.78248 -13444737.45547
      1704.3464       1328.0624         48.2004         45.2004
  20530927.9074   20530928.2904   20530931.2294  -21043302.46948 -16380001.98448
      -712.2894       -555.0274         51.7004         48.7004
  21592306.7164   21592306.5904   21592310.4644  -17674890.20447 -13478047.56047
      2975.9524       2318.9314         47.0004         44.2004
  23186632.3954   23186632.6724   23186635.4614   -8581030.91647  -6661786.31146
      2618.0224       2040.0184         43.6004         40.7004
  22957280.8434   22957281.4084   22957283.1464   -6629760.20047  -5157210.55546
       804.4354        626.8504         42.9004         39.9004
  22131772.3644   22131772.5034   22131775.5974  -12693172.96247  -9875860.64347
     -2100.4264      -1636.6964         47.4004         44.4004
  24206231.7184   24206231.0424   24206237.7144   -2314880.02645  -1783095.73545
     -3297.3544      -2569.3754         35.0004         33.1004
 10  1  1  0 27 30.0000000  0  7G27G15G 9G17G18G28G 8
  21680534.5354   21680534.3704   21680538.4814  -17323902.27848 -13484491.33547
      1696.7844       1322.1754         48.2004         45.4004
  20535044.7794   20535045.3364   20535048.1064  -21021668.03948 -16363144.00048
      -730.0234       -568.8494         51.5004         48.7004
  21575343.7734   21575344.1744   21575348.3724  -17764028.83847 -13547506.24247
      2966.6004       2311.6444         47.2004         44.4004
  23171718.9514   23171718.4384   23171721.4044   -8659399.48047  -6722852.70146
      2606.4944       2031.0374         43.2004         40.2004
  22952743.6034   22952742.7234   22952745.1064   -6653610.32547  -5175795.08946
       785.5654        612.1264         42.9004         40.2004
  22143797.0574   22143797.0014   22143799.7614  -12629984.57847  -9826622.94447
     -2112.1144      -1645.8124         47.4004         44.4004
  24225067.0384   24225066.9494   24225067.7844   -2215914.74345  -1705979.98645
     -3300.4514      -2571.7734         34.2004         32.9004
 10  1  1  0 28  0.0000000  0  7G27G15G 9G17G18G28G 8
  21670869.9664   21670869.0724   21670873.1014  -17374692.27348 -13524067.95347
      1689.1964       1316.2584         48.4004         45.4004
  20539263.2244   20539263.2444   20539266.3334  -20999501.76148 -16345871.57848
      -747.7424       -582.6554         51.5004         48.7004
  21558435.3264   21558435.4794   21558439.1274  -17852886.15147 -13616745.69247
      2957.2084       2304.3254         47.4004         44.5004
  23156872.8764   23156872.4044   23156874.7364   -8737420.73347  -6783648.48546
      2594.8634       2021.9634         43.4004         40.6004
  22948310.9444   22948310.1844   22948314.9334   -6676894.72647  -5193938.78646
       766.6844        597.4424         42.9004         40.2004
  22155888.1154   22155887.1784   22155890.6294  -12566446.22647  -9777112.53247
     -2123.7544      -1654.8704         47.4004         44.2004
  24243917.5584   24243917.1044   24243920.6214   -2116856.93245  -1628792.06145
     -3303.5214      -2574.1704         35.0004         33.6004
 10  1  1  0 28 30.0000000  0  7G27G15G 9G17G18G28G 8
  21661248.0334   21661247.6064   21661251.3654  -17425254.47648 -13563467.07547
      1681.6154       1310.3554         48.4004         45.4004
  20543582.2834   20543582.8204   20543585.9904  -20976803.54248 -16328184.65848
      -765.4714       -596.4714         51.5004         48.9004
  21541579.7124   21541580.1274   21541584.2164  -17941460.69247 -13685764.78947
      2947.7614       2296.9564         47.5004         44.5004
  23142090.2214   23142091.3974   23142095.1684   -8815091.76747  -6844171.35946
      2583.1484       2012.8304         43.4004         40.7004
  22943988.6174   22943987.9774   22943991.6414   -6699612.93047  -5211641.29746
       747.8144        582.7214         42.9004         40.0004
  22168044.2554   22168045.1054   22168047.4734  -12502559.85147  -9727330.93147
     -2135.3154      -1663.8894         47.2004         44.2004
  24262784.0804   24262783.1434   24262783.0264   -2017708.21845  -1551533.32845
     -3306.3744      -2576.3984         35.0004         33.3004
 10  1  1  0 29  0.0000000  0  7G27G15G 9G17G18G28G 8
  21651669.4784   21651669.2974   21651673.2434  -17475588.46748 -13602688.35747
      1673.9754       1304.3974         48.4004         45.4004
  20548003.3544   20548003.3554   20548006.2764  -20953573.72748 -16310083.51748
      -783.2024       -610.2834         51.7004         48.7004
  21524779.3584   21524779.0114   21524783.2864  -18029750.88147 -13754562.33047
      2938.2404       2289.5394         47.5004         44.7004
  23127380.0754   23127378.8024   23127381.1314   -8892410.06347  -6904419.34946
      2571.3424       2003.6344         43.4004         40.7004
  22939773.1944   22939772.4354   22939774.4224   -6721764.08747  -5228901.95846
       728.9234        567.9954         43.0004         39.9004
  22180267.7594   22180267.2884   22180270.4834  -12438327.34847  -9677279.63647
     -2146.8314      -1672.8594         47.2004         44.0004
  24281666.0584   24281664.8874   24281670.0024   -1918469.83745  -1474204.70845
     -3309.4264      -2578.7714         34.9004         33.6004
 10  1  1  0 29 30.0000000  0  7G27G15G 9G17G18G28G 8
  21642135.7574   21642134.8574   21642138.3544  -17525693.67948 -13641731.37947
      1666.3584       1298.4584         48.4004         45.4004
  20552523.9414   20552524.5064   20552527.9064  -20929812.27548 -16291568.10748
      -800.9014       -624.0824         51.5004         48.7004
  21508031.9164   21508031.8804   21508036.7034  -18117755.07847 -13823136.98847
      2928.6884       2282.0904         47.5004         44.4004
  23112732.7524   23112733.0924   23112736.8304   -8969372.63247  -6964390.17646
      2559.4674       1994.3824         43.7004         40.9004
  22935666.0704   22935665.6044   22935667.7724   -6743347.43047  -5245720.15646
       709.9684        553.2204         42.7004         39.9004
  22192557.4314   22192556.4754   22192559.5454  -12373750.76747  -9626960.22647
     -2158.2904      -1681.7864         47.2004         44.4004
  24300571.6854   24300571.5324   24300573.3944   -1819142.47846  -1396806.76345
     -3312.3964      -2581.0904         36.4004         34.8004
 10  1  1  0 30  0.0000000  0  7G27G15G 9G17G18G28G 8
  21632642.9284   21632643.3384   21632646.9874  -17575569.79648 -13680595.89147
      1658.7044       1292.4944         48.4004         45.4004
  20557147.1564   20557147.4454   20557150.9744  -20905519.48648 -16272638.67348
      -818.6214       -637.8844         51.5004         48.7004
  21491340.2834   21491339.9254   21491344.8534  -18205471.86847 -13891487.70247
      2919.0814       2274.6074         47.4004         44.4004
  23098156.1854   23098156.7784   23098159.4494   -9045976.76847  -7024081.70946
      2547.4814       1985.0434         43.7004         41.1004
  22931665.9364   22931665.8394   22931668.0534   -6764362.24547  -5262095.35346
       691.0114        538.4264         42.9004         40.0004
  22204910.5774   22204909.7904   22204913.1254  -12308831.98847  -9576374.16247
     -2169.6484      -1690.6314         47.2004         44.2004
  24319489.8524   24319487.0044   24319492.1714   -1719726.62745  -1319339.96145
     -3315.3044      -2583.3564         35.9004         34.0004
 10  1  1  0 30 30.0000000  0  8G27G15G 9G17G18G28G22G 8
  21623196.2674   21623195.7564   21623199.9034  -17625216.22248 -13719281.41147
      1651.0314       1286.5074         48.4004         45.4004
  20561871.3174   20561871.5444   20561874.7434  -20880695.80948 -16253295.55448
      -836.3024       -651.6634         51.5004         48.7004
  21474703.3874   21474702.7974   21474707.5434  -18292899.67347 -13959613.22547
      2909.4224       2267.0844         47.2004         44.2004
  23083646.5094   23083647.1854   23083651.2314   -9122219.85847  -7083491.87846
      2535.3734       1975.6174         43.9004         41.2004
  22927775.3674   22927775.6494   22927777.7664   -6784808.21347  -5278027.29146
       672.0454        523.6614         42.5004         39.5004
  22217329.0204   22217328.5244   22217331.9684  -12243572.88447  -9525522.92147
     -2180.9654      -1699.4634         47.0004         44.0004
                                  24649574.369     -175545.56744     -3230.143
      2297.6794       1813.941          26.4004          1.500
  24338418.1554   24338423.4374   24338424.2194   -1620223.55945  -1241805.12745
     -3318.0604      -2585.5044         34.3004         32.6004
 10  1  1  0 31  0.0000000  0  7G27G15G 9G17G18G28G 8
  21613791.8204   21613791.6484   21613795.9774  -17674632.43748 -13757787.55647
      1643.3634       1280.5414         48.4004         45.2004
  20566696.5364   20566696.4824   20566699.4854  -20855340.85348 -16233538.46548
      -854.0234       -665.4774         51.5004         48.7004
  21458121.4384   21458121.4084   21458125.2914  -18380036.88747 -14027512.33147
      2899.7304       2259.5354         47.2004         44.4004
  23069206.8734   23069206.9944   23069212.0114   -9198098.75347  -7142618.28446
      2523.1754       1966.1174         43.9004         41.1004
  22923991.9964   22923991.1924   22923995.7764   -6804684.38947  -5293515.22246
       653.0404        508.8524         42.2004         39.5004
  22229811.8834   22229811.1354   22229813.9184  -12177975.16347  -9474407.80247
     -2192.2134      -1708.2214         47.0004         43.9004
  24357373.8424   24357374.9124   24357374.8014   -1520634.14445  -1164202.95845
     -3321.1234      -2587.8994         34.0004         32.7004
 10  1  1  0 31 30.0000000  0  7G27G15G 9G17G18G28G 8
  21604432.5624   21604432.5284   21604436.5154  -17723818.06148 -13796114.01147
      1635.6724       1274.5524         48.4004         45.4004
  20571621.6524   20571622.1364   20571625.7494  -20829455.50048 -16213368.06648
      -871.7064       -679.2584         51.7004         48.7004
  21441595.7984   21441595.7484   21441599.3344  -18466882.05947 -14095183.86447
      2889.9384       2251.8994         47.4004         44.5004
  23054837.1924   23054837.2674   23054841.1394   -9273611.12147  -7201459.06346
      2510.9534       1956.5784         43.9004         40.9004
  22920317.9854   22920317.0654   22920321.8114   -6823989.92947  -5308558.50146
       634.0394        494.0494         42.0004         39.0004
  22242358.8994   22242358.2044   22242361.1354  -12112040.92147  -9423030.47647
     -2203.4114      -1716.9474         47.0004         44.0004
  24376343.1404   24376343.5584   24376345.2264   -1420959.85345  -1086534.82045
     -3323.8524      -2590.0164         34.7004         33.6004
 10  1  1  0 32  0.0000000  0  7G27G15G 9G17G18G28G 8
  21595116.7554   21595116.3614   21595121.2324  -17772772.55548 -13834260.36847
      1627.9444       1268.5314         48.4004         45.4004
  20576648.1494   20576648.6144   20576652.1154  -20803039.76648 -16192784.38348
      -889.3674       -693.0124         51.5004         48.7004
  21425125.2024   21425124.9584   21425129.1784  -18553433.40847 -14162626.46347
      2880.1494       2244.2704         47.4004         44.4004
  23040538.6864   23040538.0114   23040542.0234   -9348754.13147  -7260012.05146
      2498.5984       1946.9514         43.7004         40.7004
  22916752.9074   22916752.5374   22916756.0444   -6842724.59246  -5323156.95146
       614.9274        479.1694         41.6004         38.8004
  22254968.5664   22254968.5984   22254971.1584  -12045772.14147  -9371392.46747
     -2214.5064      -1725.5944         46.7004         43.7004
  24395323.5484   24395323.1454   24395323.6334   -1321201.24745  -1008800.87245
     -3326.5464      -2592.1154         34.5004         32.9004
 10  1  1  0 32 30.0000000  0  7G27G15G 9G17G18G28G 8
  21585845.5504   21585844.7904   21585849.4204  -17821495.33848 -13872226.17947
      1620.2044       1262.5004         48.2004         45.2004
  20581776.1064   20581776.4004   20581779.7964  -20776093.24148 -16171787.10448
      -907.0714       -706.8114         51.5004         48.5004
  21408711.7994   21408711.1244   21408715.1534  -18639689.50447 -14229838.99247
      2870.2644       2236.5704         47.5004         44.5004
  23026309.8124   23026310.4784   23026314.3334   -9423525.19347  -7318275.16646
      2486.1164       1937.2284         43.9004         41.1004
  22913297.2934   22913297.3784   22913300.6824   -6860887.88546  -5337310.20146
       595.9184        464.3684         41.6004         39.0004
  22267642.6284   22267642.4314   22267644.7364  -11979170.90447  -9319495.40347
     -2225.5474      -1734.1884         46.7004         43.7004
  24414324.8464   24414326.3824   24414325.7574   -1221358.90045   -931001.63945
     -3329.5254      -2594.4324         33.5004         32.0004
 10  1  1  0 33  0.0000000  0  7G27G15G 9G17G18G28G 8
  21576617.4514   21576617.5364   21576622.0544  -17869986.22948 -13910011.29347
      1612.4684       1256.4654         48.2004         45.2004
  20587004.4134   20587005.2624   20587008.5924  -20748616.71248 -16150376.83248
      -924.7334       -720.5694         51.5004         48.5004
  21392354.1604   21392353.9644   21392358.0134  -18725648.72147 -14296820.19347
      2860.3344       2228.8434         47.5004         44.7004
  23012154.0684   23012152.4164   23012156.4534   -9497921.13347  -7376246.02946
      2473.5944       1927.4804         43.9004         41.1004
  22909949.4494   22909948.9674   22909952.8634   -6878479.26547  -5351017.76346
       576.8394        449.4964         42.0004         39.3004
  22280379.5334   22280379.0924   22280381.6844  -11912238.92947  -9267340.61147
     -2236.5614      -1742.7654         46.7004         43.5004
  24433337.6014   24433341.1944   24433346.6654   -1121434.48945   -853138.47545
     -3332.2614      -2596.5664         32.8004         31.9004
 10  1  1  0 33 30.0000000  0  7G27G15G 9G17G18G28G 8
  21567433.8694   21567434.2204   21567439.0154  -17918244.50748 -13947615.15947
      1604.7274       1250.4384         48.4004         45.6004
  20592334.3174   20592334.5164   20592337.7944  -20720610.50248 -16128553.82348
      -942.3604       -734.3074         51.5004         48.5004
  21376053.0364   21376053.2064   21376056.7654  -18811309.58947 -14363568.91847
      2850.3424       2221.0504         47.7004         44.7004
  22998066.8454   22998067.2334   22998071.4624   -9571939.54747  -7433922.67546
      2460.9864       1917.6474         43.9004         41.1004
  22906712.0074   22906711.8904   22906714.2374   -6895498.16147  -5364279.27246
       557.7234        434.5924         42.2004         39.7004
  22293178.4774   22293177.6544   22293181.6924  -11844978.13847  -9214929.59647
     -2247.4844      -1751.2814         46.7004         43.7004
  24452370.8104   24452363.4124                   -1021428.59145   -775211.77645
     -3335.0904      -2598.7624         32.3004         31.3004
 10  1  1  0 34  0.0000000  0  7G27G15G 9G17G18G28G 8
  21558295.3284   21558295.4284   21558299.6774  -17966269.78948 -13985037.46347
      1596.9554       1244.3724         48.4004         45.6004
  20597764.1234   20597764.6564   20597768.0184  -20692075.14848 -16106318.48948
      -960.0064       -748.0544         51.5004         48.5004
  21359810.1524   21359809.7344   21359813.2834  -18896670.25047 -14430083.70347
      2840.3244       2213.2374         47.7004         44.7004
  22984055.5274   22984055.8654   22984058.3994   -9645577.93947  -7491303.23746
      2448.2014       1907.6964         43.9004         41.2004
  22903582.2994   22903581.2004   22903584.8804   -6911944.17647  -5377094.32746
       538.6544        419.7414         42.3004         39.7004
  22306040.0594   22306040.0474   22306042.9764  -11777390.57547  -9162263.96447
     -2258.3494      -1759.7564         46.7004         43.9004
  24471414.7804   24471423.2184                    -921341.67245   -697221.94545
     -3337.7534      -2600.8204         31.0004         30.8004
 10  1  1  0 34 30.0000000  0  8G27G15G 9G17G18G28G22G 8
  21549201.4784   21549200.9524   21549205.6504  -18014061.58948 -14022277.82047
      1589.1534       1238.3044         48.6004         45.6004
  20603295.3984   20603295.7514   20603299.1664  -20663010.75648 -16083670.91048
      -977.6254       -761.7854         51.5004         48.5004
  21343625.0414   21343623.8134   21343627.0324  -18981729.02647 -14496363.27447
      2830.2454       2205.3824         47.9004         44.7004
  22970116.0154   22970115.7114   22970117.6524   -9718833.48747  -7548385.48946
      2435.4174       1897.7254         44.1004         41.4004
  22900562.5134   22900561.3874   22900564.5024   -6927816.77547  -5389462.61346
       519.5424        404.8444         42.3004         39.7004
  22318963.2134   22318963.2444   22318966.6504  -11709478.23847  -9109345.26247
     -2269.1694      -1768.1824         46.7004         43.7004
  24517873.475
                                       -24.200         -24.200
  24490472.4674                                    -821175.35444   -619170.31245
     -3340.3524      -2602.8644         29.8004         30.7004
 10  1  1  0 35  0.0000000  0  8G27G15G 9G17G18G28G22G 8
  21540151.5554   21540150.9744   21540155.4664  -18061619.48848 -14059335.91647
      1581.3484       1232.2194         48.8004         45.8004
  20608926.3424   20608926.7884   20608930.1594  -20633417.79348 -16060611.46348
      -995.2514       -775.5184         51.4004         48.5004
  21327495.2504   21327494.6754   21327498.3754  -19066484.98947 -14562406.88147
      2820.1354       2197.5024         47.7004         44.7004
  22956248.2834   22956248.8364   22956252.6634   -9791703.36947  -7605167.21146
      2422.5054       1887.6854         44.2004         41.8004
  22897650.9044   22897650.6284   22897653.3284   -6943115.52147  -5401383.72146
       500.4004        389.9384         42.9004         40.4004
  22331947.9744   22331947.7114   22331951.4594  -11641243.08847  -9056175.02247
     -2279.8794      -1776.5304         46.5004         43.5004
                                  24515600.784      -78183.47644     -3004.070
      2171.9334       1702.101          26.4004          1.500
  24509551.6904                                    -720930.46744       728.76643
     -3346.4414      -2607.6214         26.4004         23.4004
 10  1  1  0 35 30.0000000  0  8G27G15G 9G17G18G28G22G 8
  21531145.7814   21531145.8084   21531149.7584  -18108943.14248 -14096211.49447
      1573.5444       1226.1374         48.6004         45.6004
  20614659.0234   20614659.0254   20614662.2324  -20603296.32348 -16037140.19948
     -1012.8434       -789.2244         51.4004         48.4004
  21311423.7124   21311423.8294   21311428.2664  -19150936.47347 -14628213.21147
      2809.9544       2189.5724         47.7004         44.7004
  22942456.3044   22942455.9174   22942460.0044   -9864184.97147  -7661646.37346
      2409.5394       1877.5674         44.4004         41.6004
  22894850.5314   22894848.6864   22894851.9904   -6957840.08147  -5412857.40846
       481.2434        374.9884         43.2004         40.6004
  22344992.6634   22344992.6084   22344996.8504  -11572686.96147  -9002754.66147
     -2290.5444      -1784.8304         46.5004         43.5004
                                  24515600.784     -143129.27244     -3004.070
      2157.7514       1702.101          26.4004          1.500
  24528645.5084                                    -620607.83954     78888.97154
     -3345.3424      -2604.1504         26.4004         28.2004
 10  1  1  0 36  0.0000000  0  7G27G15G 9G17G18G28G22
  21522185.0244   21522185.0294   21522189.2744  -18156031.88348 -14132904.02147
      1565.6914       1220.0204         48.6004         45.6004
  20620491.1284   20620491.3124   20620494.7154  -20572646.89948 -16013257.54348
     -1030.4444       -802.9414         51.4004         48.5004
  21295411.0284   21295411.3844   21295415.5654  -19235081.57847 -14693780.80847
      2799.7174       2181.5924         47.7004         44.7004
  22928736.9964   22928736.4094   22928740.9304   -9936275.74547  -7717820.98146
      2396.4604       1867.3954         44.4004         41.4004
  22892156.6284   22892156.2624   22892158.2934   -6971989.83147  -5423883.19946
       462.0984        360.0834         43.2004         40.4004
  22358100.1834   22358099.6744   22358102.9964  -11503811.99947  -8949085.86247
     -2301.1294      -1793.0834         46.5004         43.5004
                                  24515600.784     -207644.39944     -3004.070
      2143.3254       1702.101          26.4004          1.500
 10  1  1  0 36 30.0000000  0  7G27G15G 9G17G18G28G22
  21513269.2344   21513268.7054   21513273.2714  -18202885.31748 -14169413.19447
      1557.8294       1213.8914         48.6004         45.4004
  20626423.2424   20626423.7864   20626427.1184  -20541469.94948 -15988963.81848
     -1048.0314       -816.6484         51.4004         48.4004
  21279458.1364   21279458.1874   21279461.9054  -19318918.69847 -14759108.41547
      2789.4204       2173.5784         47.7004         44.7004
  22915092.5194   22915093.0414   22915097.4804  -10007972.94747  -7773688.91446
      2383.3204       1857.1264         44.4004         41.6004
  22889574.7824   22889573.4594   22889575.1624   -6985564.68447  -5434460.98646
       442.8954        345.1024         43.2004         40.6004
  22371267.4844   22371267.1044   22371270.4754  -11434619.44647  -8895169.57047
     -2311.6914      -1801.3194         46.5004         43.5004
                                                    -54838.86344
      2128.8284                         26.4004        -24.200
 10  1  1  0 37  0.0000000  0  7G27G15G 9G17G18G28G22
  21504398.3534   21504397.8064   21504402.4094  -18249502.79848 -14205738.50947
      1549.9774       1207.7704         48.6004         45.6004
  20632455.9504   20632456.8374   20632460.3924  -20509766.03448 -15964259.47148
     -1065.5934       -830.3344         51.2004         48.4004
  21263563.1484   21263563.1684   21263567.3364  -19402446.38547 -14824194.91047
      2779.0864       2165.5214         47.9004         44.9004
  22901524.6714   22901525.7054   22901529.6554  -10079273.86947  -7829248.06846
      2370.0474       1846.7744         44.4004         41.8004
  22887098.9694   22887098.9344   22887102.3784   -6998564.05647  -5444590.37046
       423.7124        330.1714         43.2004         40.0004
  22384494.7644   22384494.4894   22384496.9454  -11365111.83347  -8841007.80547
     -2322.1714      -1809.4764         46.7004         43.9004
                                  24467200.828     -118486.88444    -39538.470
      2114.3694       1658.511          26.4004          1.500
 10  1  1  0 37 30.0000000  0  7G27G15G 9G17G18G28G22
  21495572.1344   21495571.7554   21495576.5854  -18295883.99448 -14241879.69847
      1542.1004       1201.6424         48.6004         45.6004
  20638589.9264   20638590.5524   20638593.8174  -20477535.20548 -15939144.55648
     -1083.1254       -843.9944         51.2004         48.4004
  21247727.8354   21247727.9614   21247731.4724  -19485663.16947 -14889039.14447
      2768.6894       2157.4234         47.7004         44.7004
  22888033.2324   22888033.0714   22888037.7174  -10150175.90347  -7884496.40346
      2356.7064       1836.4064         44.6004         41.6004
  22884736.7064   22884735.7874   22884738.1584   -7010987.82547  -5454271.22546
       404.5274        315.2194         43.4004         40.9004
  22397781.3934   22397781.1064   22397783.2174  -11295291.03847  -8786601.99147
     -2332.5694      -1817.5764         46.5004         43.3004
  24444460.4264                                    -181698.15244   -132580.74445
      2099.7724       1635.7214         26.4004         31.7004
 10  1  1  0 38  0.0000000  0  7G27G15G 9G17G18G28G22
  21486790.2874   21486790.7334   21486795.7084  -18342028.55148 -14277836.47447
      1534.1934       1195.4714         48.6004         45.8004
  20644823.3934   20644823.7154   20644826.9964  -20444778.17248 -15913619.60648
     -1100.6884       -857.6754         51.2004         48.2004
  21231951.5004   21231951.4444   21231955.2624  -19568567.25047 -14953639.71647
      2758.2324       2149.2724         47.7004         44.9004
  22874617.4494   22874618.3264   22874619.4814  -10220676.70947  -7939432.08746
      2343.3144       1825.9524         44.4004         41.4004
  22882480.2924   22882480.9354   22882484.8534   -7022835.69747  -5463503.34746
       385.3324        300.2644         43.6004         40.7004
  22411127.6924   22411126.6784   22411128.7914  -11225159.16747  -8731953.76047
     -2342.8894      -1825.6364         46.3004         43.3004
                                  24434834.764     -244470.54544    -20830.503
      2085.0124       1626.900          26.4004          1.500
 10  1  1  0 38 30.0000000  0  7G27G15G 9G17G18G28G22
  21478055.1484   21478055.3004   21478059.6704  -18387935.75848 -14313608.32647
      1526.2664       1189.2954         48.8004         45.8004
  20651157.0174   20651156.7854   20651160.8304  -20411495.02648 -15887684.68148
     -1118.2054       -871.3304         51.0004         48.0004
  21216235.2974   21216235.2404   21216239.6644  -19651157.16348 -15017995.48247
      2747.7534       2141.1074         48.1004         45.2004
  22861278.1614   22861278.4754   22861281.1234  -10290773.47647  -7994052.97646
      2329.7814       1815.4114         44.2004         41.6004
  22880336.2554   22880335.5654   22880338.7214   -7034107.02647  -5472286.19146
       366.1014        285.2624         43.4004         40.6004
  22424531.8784   22424530.8574   22424533.8204  -11154717.81047  -8677064.39047
     -2353.1994      -1833.6664         46.5004         43.5004
                                  24421418.154     -306802.37844    -75115.914 2
      2070.3374       1614.013          26.4004         14.000
 10  1  1  0 39  0.0000000  0  7G27G15G 9G17G18G28G22
  21469364.8404   21469364.7724   21469368.9254  -18433605.11748 -14349194.82547
      1518.3284       1183.1114         48.8004         45.8004
  20657590.5184   20657590.6504   20657594.2174  -20377686.62048 -15861340.47748
     -1135.7064       -884.9624         51.0004         48.0004
  21200579.1494   21200579.1704   21200582.3174  -19733431.31248 -15082105.19747
      2737.1784       2132.8694         48.1004         45.1004
  22848015.5784   22848016.0234   22848020.6354  -10360463.38647  -8048356.78046
      2316.1834       1804.8184         44.4004         41.6004
  22878299.2604   22878299.1224   22878303.9594   -7044801.92347  -5480619.85946
       346.8854        270.2904         43.2004         40.2004
  22437994.6854   22437994.3604   22437996.7184  -11083968.78347  -8621935.28447
     -2363.4114      -1841.6164         46.3004         43.3004
  24408877.9814                                    -368691.36944   -126569.23045
      2055.5654       1601.7394         26.4004         35.5004
 10  1  1  0 39 30.0000000  0  7G27G15G 9G17G18G28G22
  21460720.4074   21460719.8834   21460723.5594  -18479036.12148 -14384595.61147
      1510.3984       1176.9334         48.8004         45.9004
  20664123.5084   20664123.7894   20664127.1904  -20343353.76948 -15834587.61248
     -1153.2004       -898.5994         51.0004         48.0004
  21184983.5614   21184983.1004   21184986.9614  -19815388.12348 -15145967.64247
      2726.5854       2124.6054         48.2004         45.2004
  22834832.4914   22834832.9184   22834836.9314  -10429743.93247  -8102341.59447
      2302.5244       1794.1844         44.6004         42.1004
  22876376.1334   22876374.8114   22876378.4084   -7054920.01247  -5488504.09546
       327.6634        255.3254         43.2004         40.6004
  22451515.2114   22451514.9474   22451517.9284  -11012914.43747  -8566568.26347
     -2373.5454      -1849.5054         46.3004         43.2004
  24397187.5564                   24397186.3364    -430135.66946   -174447.80846
      2040.6674       1590.1324         37.6004         36.7004
 10  1  1  0 40  0.0000000  0  8G27G15G12G 9G17G18G28G22
  21452119.7024   21452119.6784   21452123.6634  -18524228.46548 -14419810.42547
      1502.4244       1170.7204         48.8004         45.6004
  20670756.6114   20670757.2074   20670760.7284  -20308496.42448 -15807426.05348
     -1170.6534       -912.1984         50.8004         48.0004
  24829984.7434                                    -116119.61544    -77688.75644
      3793.9044       2956.0414         26.4004         25.6004
  21169448.1004   21169447.9184   21169452.0144  -19897026.09348 -15209581.64547
      2715.9184       2116.2984         48.1004         45.1004
  22821727.4864   22821727.8094   22821731.2454  -10498612.92747  -8156005.73146
      2288.7464       1783.4474         44.8004         41.8004
  22874559.7094   22874559.2364   22874562.5584   -7064461.44347  -5495938.96746
       308.4164        240.3304         43.2004         40.4004
  22465094.5414   22465094.1034   22465096.5334  -10941556.70847  -8510964.84047
     -2383.6324      -1857.3734         46.2004         43.2004
  24385575.5014   24385575.3254   24385579.0134    -491133.60746   -221978.57446
      2025.7524       1578.5034         38.3004         36.0004
 10  1  1  0 40 30.0000000  0  8G27G15G12G 9G17G18G28G22
  21443565.2024   21443565.4364   21443569.3204  -18569181.63648 -14454838.86947
      1494.4444       1164.5064         48.6004         45.6004
  20677490.2084   20677490.1754   20677493.6764  -20273115.44048 -15779856.46048
     -1188.1044       -925.7974         51.0004         48.0004
  24808334.9104                                    -229893.43244   -166337.24045
      3790.9624       2953.8144         26.4004         30.7004
  21153973.6534   21153973.3294   21153977.8054  -19978343.51348 -15272945.85947
      2705.2234       2107.9654         48.1004         45.1004
  22808701.7854   22808701.8884   22808704.2474  -10567067.52447  -8209346.99647
      2274.9084       1772.6614         44.9004         42.3004
  22872854.6684   22872853.5264   22872856.8954   -7073425.64347  -5502924.08046
       289.2184        225.3804         42.9004         40.2004
  22478730.4884   22478730.5504   22478733.3394  -10869897.49847  -8455126.48347
     -2393.6444      -1865.1784         46.0004         43.0004
  24374056.2824   24374057.2314   24374056.9894    -551682.98046   -269159.88446
      2010.7994       1566.8564         38.9004         36.6004
 10  1  1  0 41  0.0000000  0  8G27G15G12G 9G17G18G28G22
  21435057.2084   21435057.0174   21435060.3864  -18613895.19948 -14489680.60247
      1486.4634       1158.2784         48.6004         45.8004
  20684322.0074   20684322.3264   20684325.7574  -20237211.02848 -15751878.99848
     -1205.5224       -939.3674         50.8004         48.0004
                                  24791763.699     -343575.98344   -234252.997 2
      3787.7164       2951.949          26.4004         17.100
  21138560.0404   21138560.3054   21138564.3844  -20059338.91048 -15336059.16047
      2694.4624       2099.5694         48.1004         44.9004
  22795755.2444   22795753.9604   22795757.6854  -10635105.06347  -8262363.22847
      2260.9034       1761.7474         44.9004         42.1004
  22871258.6574   22871258.1864   22871260.5704   -7081812.57447  -5509459.36746
       269.9684        210.3574         42.9004         40.0004
  22492423.7844   22492423.2964   22492426.9334  -10797938.89547  -8399054.83447
     -2403.5954      -1872.9424         46.0004         42.8004
  24362619.7824   24362618.1564   24362621.7314    -611781.82946   -315990.19246
      1995.8454       1555.2074         38.9004         36.4004
 10  1  1  0 41 30.0000000  0  8G27G15G12G 9G17G18G28G22
  21426593.6084   21426593.5044   21426597.7244  -18658368.56748 -14524335.16447
      1478.4344       1152.0214         48.8004         45.8004
  20691253.8644   20691254.3554   20691257.4404  -20200783.95648 -15723494.26847
     -1222.9254       -952.9294         50.8004         47.8004
  24765083.1684                                     -92663.98444    -59811.85343
      3784.6914       2950.3744         26.4004         23.4004
  21123210.4234   21123209.3864   21123213.9874  -20140010.60748 -15398920.20447
      2683.6214       2091.1364         48.2004         45.2004
  22782886.8194   22782887.3744   22782891.2954  -10702723.27647  -8315052.75147
      2246.9254       1750.8664         45.1004         42.3004
  22869771.8774   22869771.5174   22869774.5914   -7089621.93747  -5515544.59246
       250.6574        195.3474         42.7004         39.9004
  22506173.7564   22506173.1104   22506177.2494  -10725682.56147  -8342751.20647
     -2413.5014      -1880.6404         45.8004         43.0004
  24351266.2454   24351267.1744   24351270.0844    -671428.25046   -362467.91846
      1980.6104       1543.3334         38.9004         36.6004
 10  1  1  0 42  0.0000000  0  8G27G15G12G 9G17G18G28G22
  21418177.5314   21418176.8674   21418180.7844  -18702601.11848 -14558802.08347
      1470.3984       1145.7654         48.8004         45.8004
  20698285.3664   20698285.6924   20698289.0094  -20163835.05348 -15694702.92248
     -1240.3424       -966.4964         50.8004         48.0004
  24743485.0034                   24743491.4924    -206159.38745   -148249.95545
      3781.6094       2946.7234         30.5004         34.6004
  21107919.9204   21107920.1674   21107923.6384  -20220356.84148 -15461527.66447
      2672.7664       2082.6764         48.2004         45.2004
  22770100.8814   22770099.4994   22770103.0254  -10769919.65847  -8367413.55847
      2232.8214       1739.8654         45.3004         42.3004
  22868395.1324   22868394.9014   22868397.5574   -7096853.76547  -5521179.79946
       231.3984        180.3384         42.5004         39.5004
  22519980.6524   22519979.7124   22519981.8404  -10653130.31047  -8286216.96347
     -2423.3184      -1888.2924         45.8004         42.8004
  24340006.3124   24340005.9174   24340007.5824    -730620.34346   -408591.67346
      1965.4584       1531.5314         39.2004         37.1004
 10  1  1  0 42 30.0000000  0  8G27G15G12G 9G17G18G28G22
  21409805.5714   21409805.1144   21409809.6564  -18746592.50148 -14593081.06447
      1462.3514       1139.4894         48.8004         45.8004
  20705415.5154   20705415.5284   20705419.5914  -20126364.53448 -15665505.12048
     -1257.7074       -980.0314         50.8004         48.0004
  24721907.2654   24721908.2864   24721912.8114    -319558.60346   -236613.04346
      3778.3434       2944.1604         37.3004         36.2004
  21092693.8484   21092692.7394   21092696.9704  -20300376.40748 -15523880.55947
      2661.8384       2074.1594         48.2004         45.2004
  22757393.8334   22757393.8034   22757396.8174  -10836691.65947  -8419443.69747
      2218.6164       1728.7844         44.9004         42.1004
  22867129.1274   22867129.0774   22867130.9794   -7103508.06947  -5526364.97846
       212.2224        165.3754         42.2004         39.5004
  22533842.1464   22533842.1274   22533844.7774  -10580284.57847  -8229454.06247
     -2433.0684      -1895.8984         45.6004         42.6004
  24328826.6344   24328826.4234   24328829.3204    -789356.47546   -454360.08346
      1950.2344       1519.6644         38.7004         36.2004
 10  1  1  0 43  0.0000000  0  8G27G15G12G 9G17G18G28G22
  21401480.0514   21401479.6734   21401484.5174  -18790342.11148 -14627171.65347
      1454.2884       1133.2094         48.9004         45.9004
  20712644.3454   20712645.1794   20712648.7794  -20088373.15748 -15635901.45847
     -1275.0624       -993.5534         50.8004         47.8004
  24700345.1744   24700347.5284   24700351.4274    -432859.57846   -324899.50746
      3774.9764       2941.5344         38.5004         36.6004
  21077528.2484   21077527.9244   21077532.0874  -20380067.77748 -15585977.72847
      2650.8744       2065.6224         48.2004         45.1004
  22744768.7384   22744767.7754   22744771.0054  -10903036.61147  -8471141.02146
      2204.3384       1717.6524         44.8004         41.6004
  22865973.2394   22865972.4554   22865975.1704   -7109584.61947  -5531099.97646
       192.9344        150.3474         42.3004         39.7004
  22547760.3634   22547759.9444   22547761.9394  -10507147.07347  -8172463.78147
     -2442.7454      -1903.4354         45.8004         43.0004
  24317737.7074   24317737.8784   24317741.3974    -847634.46446   -499771.50445
      1934.9534       1507.7594         38.3004         35.9004
 10  1  1  0 43 30.0000000  0  8G27G15G12G 9G17G18G28G22
  21393201.4304   21393200.7674   21393204.8744  -18833849.46248 -14661073.48547
      1446.2144       1126.9224         48.9004         45.8004
  20719973.9684   20719974.1734   20719976.7524  -20049861.81148 -15605892.62247
     -1292.3524      -1007.0244         50.8004         47.8004
  24678806.2794   24678806.0484   24678811.6544    -546060.59746   -413108.12046
      3771.6854       2938.9824         39.2004         36.9004
  21062426.2194   21062426.4324   21062430.1894  -20459429.13048 -15647817.73347
      2639.8804       2057.0534         48.2004         45.2004
  22732224.5314   22732224.3734   22732228.1834  -10968951.84747  -8522503.53646
      2189.9964       1706.5014         44.6004         41.6004
  22864926.0074   22864925.4184   22864929.0314   -7115083.40247  -5535384.73846
       173.6764        135.3114         42.5004         39.9004
  22561733.2294   22561732.2544   22561734.6224  -10433719.55947  -8115247.53547
     -2452.3944      -1910.9604         45.8004         42.8004
  24306735.8394   24306734.7404   24306737.5094    -905452.31746   -544824.41045
      1919.6194       1495.8114         37.8004         35.0004
 10  1  1  0 44  0.0000000  0  8G27G15G12G 9G17G18G28G22
  21384968.2114   21384968.0734   21384971.5234  -18877114.16948 -14694786.23447
      1438.0944       1120.5904         48.8004         45.8004
  20727401.4414   20727401.0924   20727404.2414  -20010830.96848 -15575478.98747
     -1309.6774      -1020.5264         50.8004         47.8004
  24657284.2764   24657285.1144   24657290.0924    -659159.95746   -501237.49146
      3768.2834       2936.3204         39.4004         37.1004
  21047387.1784   21047387.4294   21047391.1514  -20538458.73548 -15709399.24247
      2628.7654       2048.3894         48.2004         45.4004
  22719763.5414   22719764.2464   22719767.5014  -11034435.23347  -8573529.53847
      2175.5804       1695.2444         44.8004         42.1004
  22863990.1004   22863989.4614   22863993.3294   -7120004.49747  -5539219.33246
       154.4224        120.3444         42.7004         40.2004
  22575760.2064   22575760.1004   22575762.3464  -10360004.28747  -8057807.06547
     -2461.9744      -1918.4274         45.8004         42.8004
  24295821.7874   24295820.9884   24295821.7824    -962808.73846   -589517.77645
      1904.2214       1483.8054         37.1004         35.0004
 10  1  1  0 44 30.0000000  0  8G27G15G12G 9G17G18G28G22
  21376781.9404   21376781.3274   21376784.6744  -18920135.86948 -14728309.62947
      1430.0114       1114.2944         48.8004         45.8004
  20734927.1584   20734927.3914   20734931.1564  -19971281.06448 -15544660.88547
     -1326.9864      -1034.0114         50.8004         47.8004
  24635781.5774   24635782.0834   24635785.7414    -772155.96246   -589286.30946
      3764.8034       2933.6134         39.0004         36.6004
  21032411.6094   21032411.5884   21032415.9874  -20617155.52048 -15770721.40147
      2617.6524       2039.7314         48.4004         45.4004
  22707386.0174   22707386.2794   22707388.8114  -11099484.14347  -8624216.99947
      2161.0234       1683.9054         45.1004         42.3004
  22863163.6274   22863162.8474   22863166.6934   -7124347.73747  -5542603.69046
       135.1384        105.3214         42.7004         39.9004
  22589842.4854   22589842.0674   22589844.3694  -10286002.99647  -8000143.72047
     -2471.4574      -1925.7944         45.8004         42.8004
  24284997.6064   24284996.6114   24284997.7134   -1019701.64246   -633849.84746
      1888.6614       1471.6794         38.2004         36.6004
 10  1  1  0 45  0.0000000  0  8G27G15G12G 9G17G18G28G22
  21368640.8614   21368640.9094   21368644.2944  -18962914.01548 -14761643.24847
      1421.8674       1107.9454         48.8004         45.9004
  20742551.8234   20742552.0104   20742555.4074  -19931213.17948 -15513439.17047
     -1344.2334      -1047.4504         50.8004         47.8004
  24614298.2684   24614298.7974   24614302.2594    -885046.69146   -677253.08246
      3761.2674       2930.8614         38.9004         36.4004
  21017499.5154   21017499.4604   21017503.8364  -20695517.54448 -15831782.71947
      2606.4914       2031.0294         48.6004         45.4004
  22695091.4174   22695091.0044   22695093.0934  -11164096.10447  -8674563.98447
      2146.4424       1672.5474         45.3004         42.5004
  22862446.7854   22862445.9324   22862449.4874   -7128113.54447  -5545538.10246
       115.8324         90.2554         42.5004         39.5004
  22603977.7014   22603977.1814   22603980.2774  -10211717.67847  -7942259.05347
     -2480.8784      -1933.1554         45.5004         42.5004
  24274257.7164   24274258.8374   24274259.1744   -1076129.35046   -677819.54846
      1873.1754       1459.6174         39.0004         36.7004
 10  1  1  0 45 30.0000000  0  8G27G15G12G 9G17G18G28G22
  21360547.2534   21360546.7824   21360550.3484  -19005447.89848 -14794786.53547
      1413.7134       1101.5974         48.8004         45.8004
  20750274.5234   20750275.3694   20750278.7104  -19890627.79648 -15481814.19747
     -1361.4674      -1060.8834         50.8004         47.8004
  24592836.3324   24592836.4504   24592842.4624    -997830.14546   -765136.33346
      3757.6214       2928.0134         38.9004         36.7004
  21002652.3934   21002652.0494   21002656.7194  -20773543.35148 -15892582.04047
      2595.2414       2022.2624         48.6004         45.8004
  22682878.7754   22682879.5174   22682881.7724  -11228269.09447  -8724568.88047
      2131.7544       1661.1164         45.3004         42.3004
  22861839.0544   22861839.3594   22861842.2844   -7131301.67047  -5548022.35246
        96.6604         75.3344         42.3004         39.5004
  22618168.9264   22618167.7904   22618170.3574  -10137150.47147  -7884154.72847
     -2490.2634      -1940.4634         45.5004         42.5004
  24263607.3554   24263607.1134   24263610.9334   -1132089.64846   -721424.91945
      1857.4974       1447.4024         38.3004         35.9004
 10  1  1  0 46  0.0000000  0  8G27G15G12G 9G17G18G28G22
  21352499.0274   21352499.0334   21352503.0074  -19047736.83948 -14827738.94647
      1405.5664       1095.2434         48.9004         45.9004
  20758096.8014   20758096.7714   20758099.7104  -19849525.52848 -15449786.46847
     -1378.6734      -1074.2904         50.8004         47.8004
  24571395.0014   24571395.5514   24571402.2274   -1110504.67246   -852934.66446
      3754.0184       2925.2134         39.2004         36.9004
  20987868.8774   20987869.0404   20987872.3264  -20851230.99048 -15953117.86247
      2583.9324       2013.4514         48.6004         45.6004
  22670750.2324   22670750.8504   22670754.8744  -11292000.30747  -8774229.55747
      2116.9994       1649.6064         45.3004         42.6004
  22861343.0544   22861342.6504   22861345.1864   -7133912.02247  -5550056.38546
        77.3754         60.3094         42.5004         39.9004
  22632410.2214   22632409.9544   22632413.4244  -10062303.11447  -7825832.11047
     -2499.5594      -1947.7144         45.5004         42.6004
  24253051.7554   24253050.3394   24253049.2414   -1187580.89046   -764664.85345
      1841.8734       1435.2314         37.8004         35.5004
 10  1  1  0 46 30.0000000  0  8G27G15G12G 9G17G18G28G22
  21344499.1714   21344498.4084   21344503.0244  -19089780.71448 -14860500.39647
      1397.3714       1088.8594         48.9004         45.9004
  20766016.5244   20766016.4554   20766019.4164  -19807907.21848 -15417356.62847
     -1395.8814      -1087.6974         50.7004         47.7004
  24549975.6884   24549975.9014   24549980.6664   -1223068.42946   -940646.67646
      3750.2444       2922.2724         39.6004         37.1004
  20973150.1074   20973149.9624   20973153.6384  -20928579.04248 -16013389.06047
      2572.6174       2004.6414         48.8004         45.8004
  22658708.9814   22658709.1174   22658711.6344  -11355287.30447  -8823544.09347
      2102.1134       1638.0074         45.6004         42.8004
  22860957.5294   22860956.9154   22860959.7874   -7135944.98847  -5551640.50646
        58.1374         45.3174         42.9004         40.4004
  22646706.6854   22646706.2484   22646709.4544   -9987177.57947  -7767292.73547
     -2508.7924      -1954.8954         45.6004         43.0004
  24242576.3364   24242578.8314   24242580.1634   -1242601.25046   -807537.93345
      1826.1004       1422.9344         37.3004         35.0004
 10  1  1  0 47  0.0000000  0  8G27G15G12G 9G17G18G28G22
  21336544.2984   21336544.5694   21336548.8414  -19131578.84748 -14893070.36847
      1389.1794       1082.4774         48.9004         45.9004
  20774033.5864   20774033.9434   20774038.0724  -19765773.90048 -15384525.48047
     -1413.0034      -1101.0354         50.7004         47.8004
  24528580.3084   24528578.0484   24528580.5904   -1335519.31146  -1028270.72946
      3746.4514       2919.3154         39.4004         36.7004
  20958495.9004   20958495.9994   20958499.6254  -21005586.02648 -16073394.50647
      2561.2144       1995.7524         48.8004         45.6004
  22646749.9244   22646749.7354   22646753.9194  -11418127.49247  -8872510.46047
      2087.2004       1626.3964         45.8004         42.8004
  22860680.2714   22860679.6914   22860682.8794   -7137400.57447  -5552774.74146
        38.9234         30.3224         42.9004         40.2004
  22661055.5504   22661054.5494   22661057.3704   -9911775.75147  -7708538.07547
     -2517.9984      -1962.0714         45.6004         42.6004
  24232202.1054   24232198.8744   24232201.8464   -1297149.09946   -850042.73145
      1810.4334       1410.7214         36.4004         34.3004
 10  1  1  0 47 30.0000000  0  8G27G15G12G 9G17G18G28G22
  21328637.6114   21328637.4764   21328641.6454  -19173130.83248 -14925448.52147
      1380.9504       1076.0694         48.9004         45.9004
  20782149.7004   20782149.8664   20782153.2354  -19723125.88248 -15351293.26547
     -1430.1964      -1114.4354         50.7004         47.7004
  24507201.5514   24507202.0704   24507204.4274   -1447856.14246  -1115805.96046
      3742.6404       2916.3404         39.7004         37.4004
  20943906.7314   20943906.9074   20943910.9294  -21082250.48648 -16133133.03947
      2549.7694       1986.8354         48.6004         45.6004
  22634877.0574   22634877.9374   22634880.8414  -11480518.78647  -8921127.02747
      2072.1864       1614.6914         45.8004         42.6004
  22860513.1324   22860511.6794   22860514.8994   -7138278.89547  -5553459.16146
        19.6564         15.3134         42.9004         40.2004
  22675456.5514   22675455.4054   22675458.0944   -9836099.88047  -7649569.86447
     -2527.0724      -1969.1554         45.6004         42.6004
  24221905.9704   24221905.7954   24221911.5384   -1351222.55045   -892177.81645
      1794.4374       1398.2564         35.9004         33.8004
 10  1  1  0 48  0.0000000  0  8G27G15G12G 9G17G18G28G22
  21320777.8994   21320777.3904   21320781.8514  -19214436.15848 -14957634.48847
      1372.7284       1069.6554         48.9004         45.9004
  20790362.5754   20790363.4184   20790366.1634  -19679964.15048 -15317660.74147
     -1447.2744      -1127.7414         50.5004         47.7004
  24485844.4824   24485845.3804   24485849.1474   -1560077.15146  -1203250.86546
      3738.7504       2913.3124         39.7004         37.3004
  20929384.4934   20929384.0134   20929387.5414  -21158570.83248 -16192603.42547
      2538.2464       1977.8524         48.8004         45.8004
  22623090.3894   22623090.1334   22623094.3394  -11542458.87847  -8969392.02947
      2057.1104       1602.9364         45.5004         42.5004
  22860456.8254   22860454.8984   22860456.6504   -7138580.47147  -5553694.17446
          .4324           .3074         43.0004         39.5004
  22689908.9374   22689909.1494   22689911.1724   -9760151.57847  -7590389.36347
     -2536.1494      -1976.2224         45.6004         42.6004
  24211712.9394   24211710.6954   24211709.8754   -1404820.17545   -933942.25645
      1778.6574       1385.9784         35.2004         33.8004
 10  1  1  0 48 30.0000000  0  8G27G15G12G 9G17G18G28G22
  21312964.3154   21312964.4614   21312968.9684  -19255494.20148 -14989627.76847
      1364.4834       1063.2344         48.9004         46.1004
  20798674.6044   20798674.3104   20798677.1914  -19636289.82648 -15283628.81247
     -1464.3854      -1141.0814         50.5004         47.5004
  24464513.8764   24464512.8084   24464515.2104   -1672180.36646  -1290604.04746
      3734.8234       2910.2504         39.6004         37.1004
  20914925.8914   20914926.1304   20914930.1814  -21234545.36448 -16251804.36447
      2526.7224       1968.8784         48.8004         45.6004
  22611389.4694   22611390.4634   22611392.3764  -11603945.42647  -9017303.61547
      2041.9654       1591.1344         45.5004         42.6004
  22860505.6864   22860507.4954   22860510.1304   -7138305.19747  -5553479.65546
       -18.7954        -14.6534         43.0004         40.4004
  22704412.2244   22704411.9344   22704414.9124   -9683933.01847  -7530998.27347
     -2545.1104      -1983.2184         45.5004         42.5004
  24201602.9374   24201600.6164   24201603.4654   -1457940.28645   -975334.55045
      1762.6504       1373.4944         35.2004         33.1004
 10  1  1  0 49  0.0000000  0  8G27G15G12G 9G17G18G28G22
  21305198.9534   21305198.7394   21305202.5424  -19296304.55348 -15021428.03647
      1356.2204       1056.7954         49.1004         46.3004
  20807082.4064   20807082.5574   20807086.0964  -19592103.27748 -15249197.73247
     -1481.4214      -1154.3514         50.5004         47.7004
  24443201.4454   24443201.4274   24443206.6134   -1784163.91646  -1377863.92946
      3730.7854       2907.1034         39.2004         36.7004
  20900536.1214   20900535.4944   20900538.8874  -21310172.41948 -16310734.53047
      2515.1174       1959.8304         48.8004         45.8004
  22599776.1504   22599776.2344   22599779.3684  -11664975.91847  -9064859.80147
      2026.7374       1579.2674         45.5004         42.6004
  22860669.3834   22860669.1784   22860672.7364   -7137453.24447  -5552815.80746
       -38.0004        -29.5774         43.0004         40.6004
  22718967.4204   22718966.4304   22718969.7404   -9607446.11047  -7471398.08647
     -2554.0094      -1990.1424         45.3004         42.5004
  24191578.3394   24191580.0834   24191585.2244   -1510580.77755  -1016353.15955
      1746.9854       1361.2874         34.3004         32.7004
 10  1  1  0 49 30.0000000  0  8G27G15G12G 9G17G18G28G22
  21297479.5214   21297479.5074   21297483.9424  -19336866.64748 -15053034.86347
      1347.9294       1050.3374         49.1004         46.1004
  20815586.5084   20815587.7184   20815591.6064  -19547405.26248 -15214368.11447
     -1498.4424      -1167.6164         50.5004         47.5004
  24421914.9674   24421915.2814   24421921.2824   -1896026.01746  -1465029.19746
      3726.7204       2903.9404         39.4004         37.1004
  20886209.9644   20886209.8084   20886214.2074  -21385450.57748 -16369392.81247
      2503.4474       1950.7334         48.8004         45.8004
  22588248.8324   22588249.8634   22588253.0924  -11725547.97647  -9112058.80447
      2011.3774       1567.3144         45.6004         43.0004
  22860943.4434   22860942.9744   22860943.1854   -7136024.96647  -5551702.87146
       -57.1934        -44.5614         42.9004         40.4004
  22733572.3204   22733572.0864   22733575.4294   -9530692.65247  -7411590.19447
     -2562.8684      -1997.0504         45.3004         42.3004
  24181655.9244   24181658.1844   24181658.2114   -1562740.31145  -1056996.90445
      1730.5444       1348.4694         35.2004         34.0004
 10  1  1  0 50  0.0000000  0  8G27G15G12G 9G17G18G28G22
  21289808.7344   21289807.6794   21289812.8064  -19377179.98248 -15084447.84247
      1339.6254       1043.8594         49.1004         45.9004
  20824191.2544   20824191.3744   20824194.6094  -19502196.92848 -15179140.84647
     -1515.4554      -1180.8764         50.5004         47.5004
  24400655.3174   24400653.8494   24400659.5004   -2007764.86046  -1552098.50546
      3722.5424       2900.6814         40.3004         38.1004
  20871951.9154   20871951.6884   20871956.4584  -21460378.00548 -16427777.81947
      2491.7264       1941.6034         48.8004         45.8004
  22576811.4624   22576811.6804   22576813.9784  -11785659.35247  -9158898.81947
      1996.0154       1555.3394         46.0004         43.0004
  22861323.4504   22861322.5134   22861326.4324   -7134020.61547  -5550141.03546
       -76.4094        -59.5264         42.9004         40.0004
  22748228.9054   22748228.5514   22748231.7324   -9453674.84947  -7351576.32047
     -2571.6724      -2003.8984         45.3004         42.5004
  24171828.6684   24171827.4034   24171827.5354   -1614416.85046  -1097264.29645
      1714.4744       1335.9514         36.4004         35.0004
 10  1  1  0 50 30.0000000  0  8G27G15G12G 9G17G18G28G22
  21282184.4644   21282184.5514   21282188.7534  -19417244.08148 -15115666.61347
      1331.3064       1037.3754         49.1004         46.3004
  20832890.6284   20832891.1374   20832893.9284  -19456479.21848 -15143516.67147
     -1532.3984      -1194.0774         50.3004         47.3004
  24379415.2334   24379414.5714   24379418.8654   -2119378.75846  -1639070.34246
      3718.3704       2897.4274         40.6004         37.9004
  20857760.5464   20857760.3634   20857764.8204  -21534953.47048 -16485888.56147
      2479.9564       1932.4394         48.8004         45.8004
  22565460.3184   22565460.2674   22565463.4944  -11845307.71847  -9205378.06347
      1980.5054       1543.2584         46.0004         43.0004
  22861815.2734   22861813.2904   22861815.3984   -7131440.60247  -5548130.66246
       -95.5634        -74.4464         42.5004         39.9004
  22762934.3184   22762933.4374   22762937.1994   -9376394.39447  -7291357.78947
     -2580.3564      -2010.6774         45.1004         42.1004
  24162077.9854   24162079.9294   24162082.9064   -1665608.98746  -1137154.28545
      1698.2944       1323.3434         36.4004         34.3004
 10  1  1  0 51  0.0000000  0  8G27G15G12G 9G17G18G28G22
  21274608.3264   21274608.0494   21274612.0374  -19457058.48348 -15146690.81047
      1322.9594       1030.8774         49.1004         46.3004
  20841686.6224   20841687.2034   20841691.2344  -19410253.00448 -15107496.24647
     -1549.3514      -1207.2844         50.3004         47.5004
  24358199.5044   24358199.5244   24358200.5314   -2230865.96446  -1725943.49546
      3714.0844       2894.0914         40.1004         37.3004
  20843636.2974   20843636.5264   20843640.1864  -21609175.35548 -16543723.77647
      2468.1554       1923.2424         48.8004         45.8004
  22554197.1134   22554198.1464   22554200.9234  -11904490.81247  -9251494.74647
      1964.9874       1531.1634         46.0004         42.8004
  22862414.9184   22862415.2284   22862415.7784   -7128285.04247  -5545671.79546
      -114.7874        -89.4654         42.3004         39.7004
  22777688.8024   22777688.9954   22777692.6664   -9298853.30447  -7230936.15946
     -2589.0404      -2017.4284         44.9004         41.9004
  24152437.7854   24152432.0104   24152434.9814   -1716315.09845  -1176665.52945
      1682.1604       1310.7854         35.9004         34.0004
 10  1  1  0 51 30.0000000  0  8G27G15G12G 9G17G18G28G22
  21267079.5234   21267079.0674   21267083.1584  -19496622.50148 -15177519.91047
      1314.6314       1024.3834         49.3004         46.3004
  20850580.2454   20850580.3314   20850583.8484  -19363519.14348 -15071080.25447
     -1566.2474      -1220.4514         50.3004         47.3004
  24337008.6284   24337009.1764   24337011.5684   -2342224.49446  -1812716.39246
      3709.7604       2890.7204         39.7004         37.3004
  20829580.9504   20829580.4834   20829584.1214  -21683041.99848 -16601282.19447
      2456.2624       1913.9724         48.9004         45.9004
  22543025.4754   22543025.2294   22543028.1724  -11963206.32947  -9297247.07747
      1949.3674       1518.9954         46.0004         43.2004
  22863123.3404   22863123.0834   22863127.0574   -7124554.15647  -5542764.60446
      -133.9664       -104.3964         42.3004         39.3004
  22792494.1554   22792493.8864   22792498.1734   -9221053.50847  -7170312.91746
     -2597.6234      -2024.1394         44.8004         41.8004
  24142885.1484   24142880.7194   24142878.9474   -1766533.31045  -1215796.69945
      1665.8084       1298.0394         35.6004         33.8004
 10  1  1  0 52  0.0000000  0  8G27G15G12G 9G17G18G28G22
  21259598.8464   21259598.3214   21259602.0544  -19535935.71648 -15208153.58247
      1306.2354       1017.8364         49.3004         46.3004
  20859570.4574   20859569.9684   20859573.0974  -19316278.49448 -15034269.36747
     -1583.1304      -1233.6084         50.2004         47.2004
  24315839.9954   24315841.0014   24315845.4184   -2453452.55746  -1899387.61646
      3705.3614       2887.2834         39.7004         37.4004
  20815592.4614   20815592.2214   20815595.2354  -21756551.60748 -16658562.38747
      2444.3624       1904.6974         48.9004         45.9004
  22531940.2254   22531940.5764   22531944.9784  -12021452.05647  -9342633.34847
      1933.6654       1506.7544         46.0004         43.2004
  22863943.8954   22863942.7264   22863946.6284   -7120248.35447  -5539409.44246
      -153.1054       -119.3194         42.2004         39.5004
  22807348.9604   22807348.0004   22807351.5134   -9142996.71847  -7109489.45146
     -2606.1894      -2030.8134         44.6004         41.6004
  24133411.3524   24133411.9694   24133417.0614   -1816262.35745  -1254546.50145
      1649.4574       1285.2994         35.6004         33.8004
 10  1  1  0 52 30.0000000  0  8G27G15G12G 9G17G18G28G22
  21252165.2024   21252164.6114   21252168.7044  -19574997.57048 -15238591.38647
      1297.8774       1011.3274         49.3004         46.3004
  20868655.3434   20868655.6544   20868659.2434  -19268531.88948 -14997064.21947
     -1599.9674      -1246.7294         50.2004         47.2004
  24294700.3714   24294701.1154   24294705.9064   -2564548.62046  -1985955.99446
      3701.0154       2883.9054         40.4004         38.3004
  20801672.3754   20801671.9624   20801675.6884  -21829702.85848 -16715563.35847
      2432.3664       1895.3524         48.9004         45.9004
  22520947.0294   22520947.0074   22520949.7474  -12079225.82147  -9387651.86247
      1917.8734       1494.4524         46.0004         43.2004
  22864873.3984   22864872.4674   22864875.1914   -7115368.08847  -5535606.65046
      -172.2044       -134.1964         42.0004         39.3004
  22822249.5644   22822250.1164   22822254.0734   -9064684.72447  -7048467.10746
     -2614.6124      -2037.3664         44.6004         41.8004
  24124051.4924   24124046.1804   24124044.1564   -1865500.30046  -1292913.73945
      1633.0104       1272.4874         36.6004         34.8004
 10  1  1  0 53  0.0000000  0  8G27G15G12G 9G17G18G28G22
  21244780.2984   21244779.7544   21244783.4064  -19613807.64448 -15268833.00047
      1289.4644       1004.7804         49.3004         46.3004
  20877838.2774   20877837.9964   20877841.5574  -19220280.33248 -14959465.61947
     -1616.7994      -1259.8404         50.2004         47.3004
  24273585.9344   24273585.9294   24273589.1494   -2675510.94446  -2072420.14946
      3696.4504       2880.3534         40.4004         37.6004
  20787820.4034   20787820.2024   20787823.8504  -21902494.11248 -16772283.80247
      2420.3374       1885.9784         48.9004         45.9004
  22510044.4524   22510044.3584   22510047.3394  -12136525.30647  -9432300.79247
      1902.0534       1482.1274         46.3004         43.7004
  22865909.8694   22865910.4824   22865912.0554   -7109914.10347  -5531356.81746
      -191.3574       -149.1134         42.0004         39.3004
  22837200.3864   22837200.1314   22837204.2584   -8986120.17747  -6987247.98146
     -2622.9804      -2043.8914         44.8004         41.8004
  24114769.3124   24114768.8114   24114771.4014   -1914245.90346  -1330897.35245
      1616.5914       1259.6804         37.3004         35.7004
 10  1  1  0 53 30.0000000  0  8G27G15G12G 9G17G18G28G22
  21237442.4574   21237442.2104   21237446.0244  -19652365.42648 -15298878.01947
      1281.0464        998.2164         49.3004         46.3004
  20887114.7014   20887115.3064   20887119.4804  -19171524.90648 -14921474.37647
     -1633.5784      -1272.9194         50.2004         47.2004
  24252496.3134   24252496.2054   24252500.8294   -2786337.32946  -2158778.34746
      3691.9294       2876.8174         40.1004         37.4004
  20774036.7494   20774036.7824   20774040.9404  -21974923.69348 -16828722.42847
      2408.2744       1876.5734         48.9004         45.9004
  22499229.7974   22499230.5864   22499234.1604  -12193348.20947  -9476578.36547
      1886.1554       1469.7344         46.5004         43.5004
  22867057.1954   22867056.9534   22867060.0224   -7103886.68647  -5526660.12946
      -210.4584       -163.9884         42.0004         39.3004
  22852199.2974   22852199.7164   22852202.4614   -8907304.59647  -6925833.23846
     -2631.3704      -2050.4124         44.8004         41.9004
  24105587.9574   24105587.1034   24105589.4714   -1962497.41846  -1368495.87145
      1600.1534       1246.8684         37.8004         35.7004
 10  1  1  0 54  0.0000000  0  8G27G15G12G 9G17G18G28G22
  21230153.1374   21230152.9284   21230157.3734  -19690670.27348 -15328725.94847
      1272.5924        991.6314         49.3004         46.3004
  20896489.8334   20896489.3154   20896492.5444  -19122266.42848 -14883091.16047
     -1650.2934      -1285.9424         50.0004         47.0004
  24231432.6164   24231433.3624   24231437.0214   -2897026.43646  -2245029.57346
      3687.2914       2873.2144         40.1004         37.6004
  20760323.2454   20760322.8414   20760327.5914  -22046989.97748 -16884877.96747
      2396.1324       1867.1224         48.9004         45.9004
  22488508.0724   22488509.1084   22488511.3914  -12249692.49647  -9520483.00247
      1870.1424       1457.2514         46.5004         43.5004
  22868312.8244   22868313.2614   22868316.8504   -7097286.11947  -5521516.86046
      -229.5734       -178.8964         42.2004         39.7004
  22867244.0044   22867243.1054   22867246.6454   -8828239.86447  -6864224.34046
     -2639.6924      -2056.9104         44.4004         41.1004
  24096500.5854   24096499.9534   24096501.9874   -2010253.22446  -1405708.20045
      1583.5954       1233.9734         37.3004         35.2004
 10  1  1  0 54 30.0000000  0  8G27G15G12G 9G17G18G28G22
  21222912.9774   21222911.8754   21222916.3734  -19728721.54848 -15358376.28747
      1264.1474        985.0484         49.3004         46.1004
  20905959.0254   20905958.8864   20905961.4564  -19072506.28848 -14844317.03747
     -1667.0124      -1298.9724         50.2004         47.2004
  24210394.5254   24210395.5194   24210400.2014   -3007576.32546  -2331172.30746
      3682.6584       2869.6074         40.3004         37.8004
  20746678.9564   20746678.5744   20746682.6144  -22118691.58148 -16940749.33647
      2383.9564       1857.6254         48.9004         45.9004
  22477877.8304   22477878.0654   22477881.4414  -12305555.78947  -9564012.84347
      1854.0714       1444.7364         46.5004         43.5004
  22869676.7434   22869678.0134   22869681.0024   -7090113.08947  -5515927.48246
      -248.6634       -193.7634         42.0004         39.0004
  22882335.5244   22882335.6094   22882340.4654   -8748927.88847  -6802422.81046
     -2647.7724      -2063.2014         43.9004         41.2004
  24087507.4714   24087506.0664   24087508.5124   -2057512.09046  -1442533.32645
      1566.9514       1221.0034         37.5004         35.5004
 10  1  1  0 55  0.0000000  0  8G27G15G12G 9G17G18G28G22
  21215719.4834   21215719.3054   21215723.9744  -19766518.84348 -15387828.72547
      1255.6704        978.4444         49.1004         46.3004
  20915522.6854   20915523.1214   20915526.2844  -19022245.37348 -14805152.69847
     -1683.7284      -1311.9944         50.2004         47.2004
  24189386.9584   24189386.7824   24189389.5384   -3117985.23446  -2417205.18646
      3677.9414       2865.9244         40.3004         37.8004
  20733104.2904   20733104.1904   20733107.8954  -22190026.93448 -16996335.31547
      2371.7154       1848.0914         48.9004         45.9004
  22467340.1564   22467340.4094   22467342.7354  -12360935.83347  -9607166.09547
      1837.9134       1432.1364         46.5004         43.7004
  22871152.4684   22871151.6104   22871154.0954   -7082367.94746  -5509892.33146
      -267.6874       -208.6014         41.8004         39.0004
  22897476.9154   22897476.5324   22897479.9424   -8669370.74747  -6740430.22946
     -2655.9674      -2069.5814         44.2004         41.6004
  24078606.6234   24078606.1834   24078609.5134   -2104272.00246  -1478969.65845
      1550.3284       1208.0534         37.6004         35.5004
 10  1  1  0 55 30.0000000  0  8G27G15G12G 9G17G18G28G22
  21208574.9804   21208575.1144   21208579.7094  -19804061.66048 -15417082.86647
      1247.1714        971.8284         49.3004         46.3004
  20925181.8114   20925182.3674   20925185.5934  -18971484.39248 -14765598.68547
     -1700.3464      -1324.9414         50.2004         47.0004
  24168402.4234   24168403.8744   24168408.1094   -3228251.45846  -2503126.89546
      3673.1414       2862.1914         40.8004         38.3004
  20719599.7414   20719599.5074   20719603.1294  -22260994.63648 -17051634.81747
      2359.4424       1838.5204         49.1004         46.1004
  22456893.6654   22456893.7044   22456896.9714  -12415830.89647  -9649941.45347
      1821.7154       1419.5204         46.7004         43.9004
  22872733.9814   22872732.8244   22872737.6644   -7074051.36746  -5503411.86946
      -286.7474       -223.4144         41.6004         39.0004
  22912663.8544   22912662.4994   22912665.5514   -8589570.06247  -6678247.84846
     -2664.0564      -2075.8994         44.4004         41.8004
  24069805.4324   24069805.5554   24069805.6754   -2150532.22546  -1515016.56746
      1533.6584       1195.0584         38.0004         36.0004
 10  1  1  0 56  0.0000000  0  8G27G15G12G 9G17G18G28G22
  21201479.1964   21201479.3634   21201484.1464  -19841349.34348 -15446138.19847
      1238.6664        965.1924         49.3004         46.3004
  20934936.4964   20934936.7884   20934939.7464  -18920224.89548 -14725656.23247
     -1716.9504      -1337.8814         50.0004         47.0004
  24147447.6264   24147449.0064   24147452.2894   -3338373.43946  -2588936.17146
      3668.3224       2858.4304         40.9004         38.6004
  20706165.2154   20706165.1834   20706169.1684  -22331592.91848 -17106646.46247
      2347.0954       1828.9054         49.3004         46.5004
  22446539.3544   22446540.1654   22446543.8794  -12470238.45947  -9692336.94447
      1805.4374       1406.8334         46.9004         44.0004
  22874425.6344   22874425.6304   22874428.6264   -7065163.45846  -5496486.22746
      -305.7674       -238.2604         41.8004         39.2004
  22927893.5034   22927892.7734   22927897.4404   -8509527.99047  -6615877.39746
     -2672.0844      -2082.1474         44.4004         41.2004
  24061096.4874   24061097.0724   24061100.2374   -2196290.50146  -1550672.37746
      1516.8984       1181.9954         38.7004         36.6004
 10  1  1  0 56 30.0000000  0  8G27G15G12G 9G17G18G28G22
  21194433.3224   21194432.8194   21194436.6754  -19878381.48948 -15474994.41747
      1230.1284        958.5444         49.3004         46.3004
  20944785.2784   20944785.4454   20944789.2944  -18868467.40848 -14685325.72547
     -1733.5254      -1350.7994         50.0004         47.0004
  24126519.9674   24126519.2024   24126524.1884   -3448349.11946  -2674631.48546
      3663.3994       2854.6004         40.9004         38.1004
  20692801.7014   20692801.8944   20692805.3844  -22401820.15148 -17161368.98047
      2334.6934       1819.2424         49.5004         46.6004
  22436279.0414   22436279.2374   22436283.2424  -12524156.59547  -9734351.05747
      1789.0834       1394.0854         46.7004         43.9004
  22876226.1134   22876224.8374   22876228.2124   -7055705.08846  -5489116.09146
      -324.7894       -253.0784         41.8004         39.2004
  22943170.9004   22943170.6854   22943173.4154   -8429246.60047  -6553320.47146
     -2679.9654      -2088.2904         44.2004         41.4004
  24052485.2714   24052486.1884   24052486.9034   -2241545.76046  -1585936.18046
      1500.0624       1168.8784         38.9004         36.6004
 10  1  1  0 57  0.0000000  0  8G27G15G12G 9G17G18G28G22
  21187434.1824   21187434.0234   21187438.5444  -19915157.77348 -15503651.25547
      1221.5984        951.8934         49.1004         46.1004
  20954728.9284   20954729.6344   20954732.3944  -18816213.23548 -14644608.19547
     -1750.0774      -1363.6944         50.0004         47.0004
  24105618.7484   24105619.4564   24105624.1514   -3558176.88246  -2760211.53146
      3658.4504       2850.7494         40.9004         38.5004
  20679508.7884   20679508.4634   20679512.3584  -22471674.99148 -17215801.31647
      2322.2694       1809.5604         49.6004         46.5004
  22426112.3374   22426113.2454   22426116.0504  -12577583.27147  -9775982.21047
      1772.6784       1381.3054         46.9004         43.9004
  22878134.0424   22878133.8424   22878137.0284   -7045676.98047  -5481302.01146
      -343.7564       -267.8664         42.2004         40.0004
  22958493.4434   22958492.4944   22958495.2144   -8348727.69047  -6490578.46446
     -2687.8954      -2094.4434         44.2004         41.4004
  24043971.9554   24043971.1944   24043972.1194   -2286296.71046  -1620807.08146
      1483.3324       1155.8444         39.2004         36.9004
 10  1  1  0 57 30.0000000  0  8G27G15G12G 9G17G18G28G22
  21180484.5434   21180484.5694   21180488.7384  -19951677.42248 -15532108.12847
      1213.0404        945.2304         48.9004         45.9004
  20964767.0694   20964767.6614   20964770.6704  -18763463.61348 -14603504.60547
     -1766.5544      -1376.5344         50.0004         47.0004
  24084746.9644   24084747.4034   24084751.7954   -3667855.05346  -2845675.01946
      3653.4404       2846.8414         40.8004         37.9004
  20666286.8154   20666286.4024   20666291.1224  -22541155.88848 -17269942.27047
      2309.7634       1799.8154         49.6004         46.5004
  22416039.3294   22416039.7784   22416043.3864  -12630516.28747  -9817228.71047
      1756.1744       1368.4534         46.9004         43.9004
  22880150.9344   22880150.7814   22880154.5084   -7035079.95547  -5473044.59246
      -362.7214       -282.6334         42.9004         40.6004
  22973860.9074   22973860.1634   22973862.7884   -8267973.30947  -6427652.96646
     -2695.7434      -2100.5764         44.4004         41.6004
  24035550.3504   24035549.3954   24035552.6224   -2330541.89046  -1655283.80746
      1466.3664       1142.6214         39.4004         37.1004
 10  1  1  0 58  0.0000000  0  8G27G15G12G 9G17G18G28G22
  21173584.7044   21173584.0684   21173588.4274  -19987939.81948 -15560364.54547
      1204.4124        938.5044         48.9004         46.1004
  20974899.7304   20974899.5734   20974902.6394  -18710219.59348 -14562015.75647
     -1783.0354      -1389.3814         50.0004         47.0004
  24063903.2864   24063904.9194   24063909.8184   -3777381.48246  -2931020.23946
      3648.3184       2842.8584         39.9004         37.1004
  20653135.8094   20653136.0384   20653140.6574  -22610260.98848 -17323790.40047
      2297.2164       1790.0324         49.6004         46.5004
  22406061.3584   22406061.3094   22406065.0844  -12682953.87147  -9858089.14647
      1739.6224       1355.5454         46.7004         43.7004
  22882275.1324   22882274.1534   22882278.0564   -7023914.24647  -5464344.08746
      -381.6964       -297.4164         43.2004         40.2004
  22989273.1474   22989272.7984   22989274.5214   -8186984.92047  -6364545.12346
     -2703.4764      -2106.5984         44.2004         41.1004
  24027226.7294   24027226.8674   24027229.4784   -2374279.61346  -1689365.14746
      1449.5004       1129.4834         39.0004         36.6004
 10  1  1  0 58 30.0000000  0  8G27G15G12G 9G17G18G28G22
  21166732.7764   21166732.9274   21166737.0094  -20023944.63448 -15588420.24547
      1195.8554        931.8354         49.1004         46.1004
  20985125.5254   20985125.5914   20985128.8464  -18656482.33248 -14520142.56047
     -1799.4364      -1402.1564         50.0004         47.2004
  24043094.0594   24043094.3084   24043097.4114   -3886755.13046  -3016246.44346
      3643.2584       2838.9034         40.6004         38.8004
  20640057.2584   20640057.4754   20640061.9274  -22678988.73248 -17377344.48247
      2284.6354       1780.2354         49.5004         46.5004
  22396177.0354   22396177.5504   22396179.8724  -12734893.47547  -9898561.56047
      1722.9834       1342.5804         46.5004         43.5004
  22884507.6904   22884507.5264   22884511.4014   -7012180.56147  -5455200.98746
      -400.6064       -312.1564         43.0004         40.6004
  23004727.5174   23004726.7754   23004730.8644   -8105764.71147  -6301256.63346
     -2711.2094      -2112.6394         43.9004         40.9004
  24019002.2894   24019001.1924   24019001.3774   -2417508.57646  -1723050.03846
      1432.4644       1116.2134         38.7004         36.6004
 10  1  1  0 59  0.0000000  0  8G27G15G12G 9G17G18G28G22
  21159930.6694   21159930.1614   21159934.3174  -20059691.43848 -15616274.89847
      1187.2624        925.1454         49.1004         46.1004
  20995444.6754   20995444.9564   20995448.2964  -18602253.36148 -14477886.23547
     -1815.8384      -1414.9424         50.0004         47.0004
  24022309.8514   24022309.8214   24022314.2414   -3995974.00046  -3101352.02746
      3638.0144       2834.8134         41.3004         38.8004
  20627051.3614   20627051.5234   20627055.3524  -22747337.63748 -17430603.37647
      2271.9674       1770.3664         49.5004         46.5004
  22386388.8814   22386389.4304   22386392.9564  -12786332.62647  -9938643.99047
      1706.2954       1329.5724         46.7004         44.0004
  22886847.0974   22886848.0844   22886852.1974   -6999880.12047  -5445616.25246
      -419.4814       -326.8604         42.9004         39.9004
  23020227.6054   23020226.1334   23020228.9854   -8024314.66447  -6237789.07546
     -2718.8644      -2118.5974         43.6004         40.6004
  24010871.5834   24010869.5694   24010873.9894   -2460227.55846  -1756337.56046
      1415.4654       1102.9614         38.7004         36.2004
 10  1  1  0 59 30.0000000  0  8G27G15G12G 9G17G18G28G22
  21153177.3844   21153177.1864   21153181.4464  -20095179.24848 -15643927.73547
      1178.6054        918.3944         49.1004         46.1004
  21005857.3804   21005858.0104   21005860.8554  -18547532.88248 -14435246.90347
     -1832.1924      -1427.6764         50.0004         46.8004
  24001553.2314   24001555.0504   24001560.9814   -4105035.93846  -3186335.36246
      3632.7224       2830.6914         40.8004         37.8004
  20614118.0884   20614117.2994   20614121.5924  -22815306.18948 -17483565.87847
      2259.2574       1760.4574         49.6004         46.5004
  22376696.2964   22376696.3974   22376698.8234  -12837270.29947  -9978335.67247
      1689.5404       1316.5324         46.7004         43.9004
  22889298.5364   22889297.0144   22889299.8554   -6987012.89847  -5435589.86946
      -438.3454       -341.5674         42.7004         39.9004
  23035770.0594   23035770.1344   23035772.4364   -7942636.27147  -6174143.58746
     -2726.3724      -2124.4454         43.4004         40.7004
  24002840.5114   24002840.5094   24002842.1304   -2502435.08646  -1789226.56646
      1398.3534       1089.6284         38.9004         36.7004
                            4  7
RINEX FILE SPLICE                                           COMMENT
teqc  2009Mar23     root                20100101 02:00:00UTCCOMMENT
BIT 2 OF LLI FLAGS DATA COLLECTED UNDER A/S CONDITION       COMMENT
Forced Modulo Decimation to 30 seconds                      COMMENT
 SNR is mapped to RINEX snr flag value [0-9]                COMMENT
  L1 & L2: min(max(int(snr_dBHz/6), 0), 9)                  COMMENT
pseudorange smoothing corrections not applied               COMMENT
 10  1  1  1  0  0.0000000  0  7G15G12G 9G17G18G28G22
  21016363.8174   21016364.2074   21016366.8794  -18492322.51748 -14392225.84947
     -1848.5184      -1440.4014         49.8004         46.8004
  23980829.4944   23980829.7474   23980836.2744   -4213939.39946  -3271195.19646
      3627.4234       2826.5604         40.4004         37.6004
  20601257.4534   20601256.6834   20601260.3444  -22882892.71648 -17536230.71247
      2246.5114       1750.5274         49.8004         46.6004
  22367098.2734   22367098.6964   22367101.2474  -12887704.45547 -10017634.99647
      1672.7124       1303.4154         46.9004         43.9004
  22891855.1844   22891854.9554   22891856.9724   -6973579.87447  -5425122.60346
      -457.1834       -356.2464         42.7004         40.0004
  23051356.5774   23051355.8144   23051357.8594   -7860731.61247  -6110321.76646
     -2733.9074      -2130.3254         43.7004         41.1004
  23994904.2244   23994905.1514   23994908.6324   -2544129.71746  -1821715.93846
      1381.2754       1076.3184         39.4004         37.1004
 10  1  1  1  0 30.0000000  0  8G27G15G12G 9G17G18G28G22
  21139819.2354   21139819.2954   21139823.4694  -20165376.23848 -15698626.68747
      1161.2724        904.8864         49.1004         46.1004
  21026963.2314   21026963.1624   21026966.8654  -18436623.56848 -14348824.07547
     -1864.7744      -1453.0694         49.8004         46.8004
  23960138.1714   23960138.3394   23960143.7314   -4322682.92346  -3355930.35646
      3622.1134       2822.4284         40.4004         37.9004
  20588467.3934   20588467.8564   20588471.8134  -22950096.00048 -17588596.90647
      2233.6874       1740.5344         49.6004         46.6004
  22357598.9534   22357598.0144   22357600.9484  -12937632.50847 -10056539.95547
      1655.8194       1290.2504         46.9004         44.0004
  22894518.2594   22894516.0454   22894520.2184   -6959582.08647  -5414215.25946
      -476.0174       -370.9184         42.5004         39.9004
  23066983.9834   23066984.2874   23066985.8464   -7778602.86147  -6046325.33946
     -2741.3234      -2136.1004         43.9004         41.1004
  23987070.5104   23987070.1164   23987071.6644   -2585310.21646  -1853804.64546
      1364.1114       1062.9504         39.9004         37.8004
 10  1  1  1  1  0.0000000  0  8G27G15G12G 9G17G18G28G22
  21133215.0074   21133214.4754   21133218.8544  -20200084.64848 -15725672.20947
      1152.5934        898.1234         49.1004         46.1004
  21037654.3954   21037654.7264   21037658.1104  -18380437.22048 -14305042.50347
     -1881.0094      -1465.7204         49.6004         46.6004
  23939476.2334   23939477.3534   23939480.9324   -4431264.55046  -3440539.41446
      3616.6434       2818.1644         40.9004         38.6004
  20575752.6404   20575753.0074   20575756.7144  -23016914.29148 -17640663.10847
      2220.8384       1730.5264         49.6004         46.6004
  22348192.4624   22348193.3464   22348195.7854  -12987052.86447 -10095049.31747
      1638.8554       1277.0264         46.7004         43.7004
  22897287.4684   22897287.6154   22897292.9944   -6945020.12347  -5402868.28446
      -494.8334       -385.5794         42.7004         39.9004
  23082655.3084   23082654.9214   23082658.0984   -7696251.77747  -5982155.63146
     -2748.7364      -2141.8844         43.9004         41.2004
  23979331.8084   23979330.8804   23979333.5584   -2625975.28746  -1885491.74046
      1346.8384       1049.4874         40.3004         37.8004
 10  1  1  1  1 30.0000000  0  8G27G15G12G 9G17G18G28G22
  21126659.3534   21126659.2454   21126663.8724  -20234532.17748 -15752514.44347
      1143.8984        891.3494         49.1004         46.3004
  21048438.5394   21048439.3614   21048442.5774  -18323764.65148 -14260882.06247
     -1897.1854      -1478.3324         49.6004         46.6004
  23918843.4074   23918844.5974   23918849.8874   -4539682.43046  -3525020.87646
      3611.1244       2813.8584         40.9004         38.5004
  20563111.1844   20563111.1824   20563115.3524  -23083346.10048 -17692428.15447
      2207.9434       1720.4704         49.8004         46.8004
  22338885.5494   22338885.3954   22338888.4554  -13035963.57047 -10133161.54047
      1621.8604       1263.7764         46.7004         43.9004
  22900167.2024   22900166.1344   22900170.1384   -6929894.97847  -5391082.42446
      -513.5354       -400.1624         42.9004         40.2004
  23098367.5724   23098367.4054   23098370.7014   -7613680.20247  -5917814.16646
     -2756.0384      -2147.5594         44.1004         40.9004
  23971690.7324   23971692.0334   23971692.5364   -2666123.79346  -1916776.27046
      1329.6894       1036.1174         39.7004         37.3004
 10  1  1  1  2  0.0000000  0  8G27G15G12G 9G17G18G28G22
  21120154.4774   21120154.2424   21120158.6964  -20268718.17948 -15779152.88247
      1135.1724        884.5494         49.3004         46.5004
  21059316.8774   21059316.2834   21059319.6684  -18266607.42648 -14216343.97547
     -1913.3214      -1490.9044         49.6004         46.6004
  23898246.3044   23898245.5724   23898250.1744   -4647935.17746  -3609373.64846
      3605.6834       2809.6244         41.3004         38.8004
  20550544.3694   20550543.7004   20550547.2784  -23149389.71248 -17743890.70747
      2194.9514       1710.3494         49.6004         46.6004
  22329675.5104   22329675.3284   22329679.7864  -13084362.59747 -10170875.05147
      1604.7454       1250.4484         46.9004         44.0004
  22903153.0744   22903151.9234   22903154.2454   -6914207.18147  -5378858.19446
      -532.3174       -414.8044         42.5004         39.5004
  23114122.2244   23114122.5324   23114124.7504   -7530889.97647  -5853302.31146
     -2763.3114      -2153.2464         43.6004         40.6004
  23964153.3624   23964152.2524   23964151.3174   -2705754.18546  -1947657.10446
      1312.3754       1022.6294         39.9004         37.6004
 10  1  1  1  2 30.0000000  0  8G27G15G12G 9G17G18G28G22
  21113698.1964   21113698.4174   21113702.7324  -20302642.07048 -15805587.07647
      1126.4304        877.7344         49.3004         46.5004
  21070284.4474   21070284.8584   21070288.5324  -18208966.29748 -14171428.81947
     -1929.4094      -1503.4374         49.6004         46.6004
  23877678.4774   23877677.6124   23877681.5604   -4756020.68646  -3693596.11846
      3600.0404       2805.2344         41.1004         38.3004
  20538049.6194   20538049.8484   20538054.6414  -23215043.43448 -17795049.45547
      2181.9484       1700.2194         49.6004         46.6004
  22320563.6524   22320563.2484   22320566.2664  -13132248.00347 -10208188.36347
      1587.5824       1237.0794         47.0004         44.0004
  22906245.4774   22906244.4014   22906246.3294   -6897957.59447  -5366196.21246
      -551.0004       -429.3524         42.2004         39.3004
  23129919.1454   23129917.6224   23129921.2524   -7447883.44547  -5788621.88846
     -2770.4924      -2158.8314         43.4004         40.6004
  23956705.1174   23956704.9884   23956709.6884   -2744865.20346  -1978133.21846
      1295.0434       1009.1224         39.7004         36.9004
 10  1  1  1  3  0.0000000  0  8G27G15G12G 9G17G18G28G22
  21107292.5034   21107292.9144   21107297.1614  -20336303.36148 -15831816.65547
      1117.6534        870.8964         49.3004         46.3004
  21081345.1254   21081345.3844   21081348.9134  -18150842.79848 -14126137.78047
     -1945.4814      -1515.9664         49.6004         46.6004
  23857139.9424   23857141.1374   23857145.0844   -4863937.48946  -3777687.13846
      3594.3694       2800.8114         40.9004         38.5004
  20525631.4844   20525630.5834   20525634.7654  -23280306.07848 -17845903.46347
      2168.8924       1690.0364         49.6004         46.5004
  22311549.6414   22311549.5144   22311552.2444  -13179618.01647 -10245100.02447
      1570.3894       1223.6834         47.0004         44.2004
  22909442.4384   22909443.0864   22909447.0594   -6881147.09447  -5353097.11346
      -569.6794       -443.9214         42.2004         39.5004
  23145753.7104   23145754.4314   23145756.3524   -7364661.72147  -5723773.77746
     -2777.6014      -2164.3594         43.4004         40.7004
  23949365.7654   23949365.2714   23949364.8624   -2783455.91046  -2008203.89246
      1277.6764        995.5894         39.6004         37.3004
 10  1  1  1  3 30.0000000  0  8G27G15G12G 9G17G18G28G22
  21100937.5514   21100937.6054   21100941.7844  -20369701.44648 -15857841.13747
      1108.8614        864.0454         49.3004         46.3004
  21092496.8454   21092497.6644   21092500.7644  -18092237.87548 -14080471.61747
     -1961.5154      -1528.4574         49.5004         46.5004
  23836637.6404   23836637.2234   23836642.2854   -4971684.15846  -3861645.57446
      3588.6894       2796.3794         41.3004         38.8004
  20513286.6164   20513286.6264   20513290.2824  -23345175.92948 -17896451.40447
      2155.7514       1679.8124         49.5004         46.5004
  22302633.9534   22302633.7094   22302636.4484  -13226470.59147 -10281608.51547
      1553.0964       1210.2044         47.2004         44.2004
  22912750.1404   22912749.7214   22912751.8634   -6863777.01347  -5339562.01146
      -588.3144       -458.4264         42.7004         40.6004
  23161631.4464   23161631.8434   23161635.2504   -7281227.15547  -5658759.82846
     -2784.7244      -2169.9064         43.4004         40.9004
  23942120.2134   23942120.6764   23942120.1474   -2821524.89946  -2037868.08446
      1260.3134        982.0614         39.7004         37.3004
 10  1  1  1  4  0.0000000  0  8G27G15G12G 9G17G18G28G22
  21094632.1374   21094632.1924   21094636.5534  -20402835.78048 -15883660.10147
      1100.0754        857.2064         49.3004         46.5004
  21103740.7344   21103740.8904   21103744.4774  -18033153.03748 -14034431.49647
     -1977.4704      -1540.8834         49.5004         46.5004
  23816168.7164   23816168.7714   23816171.2204   -5079258.61546  -3945469.78446
      3582.9364       2791.9014         41.5004         38.8004
  20501016.7624   20501016.9874   20501021.2354  -23409651.49048 -17946692.10847
      2142.5884       1669.5544         49.5004         46.5004
  22293817.3784   22293817.1224   22293819.7084  -13272803.88247 -10317712.36847
      1535.7554       1196.6904         47.2004         44.4004
  22916161.9584   22916161.0304   22916164.6244   -6845848.03047  -5325591.37446
      -606.9114       -472.9004         43.0004         40.4004
  23177548.8854   23177548.1494   23177552.3184   -7197581.05847  -5593581.04646
     -2791.6904      -2175.3454         43.7004         41.1004
  23934973.7044   23934974.6924   23934977.1734   -2859071.20746  -2067124.92246
      1242.8464        968.4554         40.1004         37.9004
 10  1  1  1  4 30.0000000  0  8G27G15G12G 9G17G18G28G22
  21088376.8154   21088377.1844   21088381.6664  -20435705.97448 -15909273.24147
      1091.2734        850.3404         49.3004         46.5004
  21115075.2924   21115075.6474   21115078.6854  -17973590.03748 -13988018.77847
     -1993.3904      -1553.2914         49.5004         46.5004
  23795729.9004   23795729.6324   23795733.3764   -5186659.02846  -4029158.39146
      3577.1334       2787.3724         41.5004         38.8004
  20488824.5224   20488823.6884   20488827.2214  -23473731.54548 -17996624.62447
      2129.3714       1659.2534         49.6004         46.6004
  22285098.3364   22285098.1804   22285102.2434  -13318616.03147 -10353410.13447
      1518.3864       1183.1554         47.2004         44.2004
  22919678.4364   22919677.5414   22919682.6224   -6827360.74247  -5311185.69546
      -625.5354       -487.4354         43.0004         40.2004
  23193504.9964   23193505.3804   23193509.1404   -7113725.81747  -5528239.30246
     -2798.6244      -2180.7384         43.7004         40.7004
  23927931.9804   23927931.1164   23927930.1934   -2896093.15646  -2095973.23546
      1225.3674        954.8414         40.6004         38.3004
 10  1  1  1  5  0.0000000  0  8G27G15G12G 9G17G18G28G22
  21082172.7434   21082172.7064   21082176.9494  -20468311.44148 -15934680.10347
      1082.4204        843.4474         49.5004         46.5004
  21126500.4934   21126500.6934   21126504.4174  -17913549.80948 -13941234.19147
     -2009.2884      -1565.6784         49.5004         46.5004
  23775325.2904   23775326.4084   23775329.0904   -5293883.88246  -4112710.21346
      3571.1994       2782.7574         41.5004         39.0004
  20476705.0084   20476704.7504   20476708.7934  -23537414.23048 -18046247.48647
      2116.1004       1648.9104         49.8004         46.8004
  22276479.4794   22276479.9344   22276484.7174  -13363905.47447 -10388700.60647
      1500.9224       1169.5554         47.0004         44.2004
  22923302.8134   22923301.8774   22923305.1424   -6808316.44347  -5296346.00146
      -644.0954       -501.9064         42.9004         39.9004
  23209501.7514   23209502.8454   23209505.8654   -7029663.44147  -5462736.15246
     -2805.5304      -2186.1134         43.6004         40.6004
  23920983.9184   23920983.3464   23920985.9054   -2932590.24246  -2124412.49446
      1207.8024        941.1474         40.8004         37.9004
 10  1  1  1  5 30.0000000  0  8G27G15G12G 9G17G18G28G22
  21076018.1774   21076018.2374   21076022.7624  -20500651.46848 -15959880.11747
      1073.5904        836.5604         49.5004         46.5004
  21138016.1694   21138016.4264   21138020.1344  -17853033.68248 -13894078.77847
     -2025.1434      -1578.0344         49.5004         46.5004
  23754954.6224   23754956.0104   23754958.3924   -5400931.47946  -4196123.93746
      3565.2934       2778.1494         41.6004         39.0004
  20464662.1694   20464662.0554   20464666.2064  -23600698.27848 -18095559.72047
      2102.7944       1638.5414         49.6004         46.6004
  22267962.6454   22267962.6224   22267966.1344  -13408670.18547 -10423582.17747
      1483.3734       1155.8674         47.5004         44.7004
  22927034.3134   22927032.9114   22927035.0004   -6788716.33747  -5281073.20846
      -662.6124       -516.3054         42.7004         40.0004
  23225539.2604   23225538.3424   23225540.3034   -6945395.79547  -5397073.04946
     -2812.3414      -2191.4414         43.4004         40.7004
  23914140.4254   23914141.1024   23914142.4964   -2968560.95546  -2152441.65046
      1190.1824        927.4094         40.9004         38.6004
 10  1  1  1  6  0.0000000  0  8G27G15G12G 9G17G18G28G22
  21069915.0844   21069914.6944   21069919.7834  -20532725.43148 -15984872.80947
      1064.6924        829.6324         49.5004         46.5004
  21149622.9814   21149622.6424   21149626.4034  -17792042.77948 -13846553.40547
     -2040.9244      -1590.3364         49.5004         46.5004
  23734620.1734   23734619.4584   23734622.8324   -5507800.13446  -4279398.19246
      3559.3264       2773.4924         41.6004         39.3004
  20452695.9244   20452696.1964   20452699.7064  -23663581.78648 -18144559.86347
      2089.4334       1628.1294         49.6004         46.6004
  22259543.1134   22259543.1174   22259546.6504  -13452908.32947 -10458053.44347
      1465.8194       1142.2014         47.4004         44.2004
  22930866.4634   22930869.0784   22930871.1544   -6768561.13547  -5265367.88246
      -681.0694       -530.7074         42.5004         40.0004
  23241613.3544   23241612.7944   23241616.0934   -6860924.40047  -5331251.18646
     -2819.0914      -2196.6824         43.2004         40.2004
  23907394.6024   23907394.0224   23907396.1754   -3004003.92846  -2180059.59346
      1172.6094        913.7184         40.8004         37.9004
 10  1  1  1  6 30.0000000  0  8G27G15G12G 9G17G18G28G22
  21063862.7924   21063862.3804   21063866.6294  -20564532.91448 -16009657.85647
      1055.7894        822.6904         49.5004         46.5004
  21161318.6484   21161318.9064   21161322.1594  -17730578.84748 -13798659.44447
     -2056.6774      -1602.6064         49.5004         46.3004
  23714318.5324   23714317.2724   23714320.4084   -5614487.95747  -4362531.55446
      3553.2334       2768.7444         42.0004         39.5004
  20440806.4924   20440806.2544   20440810.0354  -23726063.48448 -18193246.89747
      2076.0214       1617.6824         49.6004         46.6004
  22251226.2864   22251226.3024   22251229.2424  -13496618.27247 -10492113.12547
      1448.1964       1128.4654         47.4004         44.5004
  22934808.3124   22934808.8354   22934810.7464   -6747852.05847  -5249230.95746
      -699.5284       -545.0814         42.5004         39.5004
  23257725.4364   23257726.5544   23257727.6454   -6776251.00647  -5265271.90246
     -2825.8024      -2201.9294         43.2004         40.6004
  23900750.9484   23900751.4594   23900753.0504   -3038918.58246  -2207265.82446
      1155.0024        900.0004         40.6004         37.9004
 10  1  1  1  7  0.0000000  0  8G27G15G12G 9G17G18G28G22
  21057860.1654   21057860.0844   21057864.6194  -20596073.40048 -16034234.85947
      1046.8924        815.7574         49.3004         46.3004
  21173104.2594   21173104.6674   21173108.5184  -17668643.39448 -13750398.05647
     -2072.3574      -1614.8174         49.5004         46.5004
  23694048.1014   23694049.2904   23694053.8964   -5720993.44547  -4445522.83346
      3547.1204       2763.9884         42.0004         39.3004
  20428993.4614   20428993.1194   20428997.0154  -23788141.38648 -18241619.28747
      2062.5064       1607.1484         49.8004         46.8004
  22243008.7614   22243008.8444   22243012.2814  -13539798.30247 -10525759.89647
      1430.4724       1114.6634         47.4004         44.5004
  22938855.2964   22938854.9374   22938857.4794   -6726590.05347  -5232663.19946
      -717.9374       -559.4264         42.3004         39.3004
  23273876.4114   23273876.1974   23273878.1864   -6691377.64747  -5199136.81146
     -2832.4304      -2207.0844         43.4004         40.6004
  23894207.2664   23894207.1814   23894209.7224   -3073303.74746  -2234059.46046
      1137.3774        886.2864         40.1004         37.3004
 10  1  1  1  7 30.0000000  0  8G27G15G12G 9G17G18G28G22
  21051910.0664   21051909.3324   21051914.0674  -20627346.34048 -16058603.38647
      1037.9604        808.7984         49.3004         46.5004
  21184980.3214   21184980.2654   21184983.3794  -17606237.75948 -13701770.29947
     -2088.0234      -1627.0314         49.5004         46.3004
  23673817.9384   23673817.1414   23673821.0464   -5827315.01347  -4528370.81746
      3540.9434       2759.1854         42.3004         39.7004
  20417257.4314   20417257.2124   20417261.4684  -23849814.29248 -18289676.08947
      2048.9814       1596.6084         50.0004         47.2004
  22234894.1444   22234893.9554   22234897.0804  -13582446.61347 -10558992.33247
      1412.7044       1100.8154         47.5004         44.7004
  22943006.1704   22943005.5754   22943007.8194   -6704776.49147  -5215665.62846
      -736.2964       -573.7384         42.0004         39.0004
  23290064.5834   23290064.9014   23290067.8714   -6606306.41247  -5132847.54646
     -2838.9824      -2212.2014         43.2004         40.4004
  23887764.8634   23887765.5284   23887766.1624   -3107157.91546  -2260439.33146
      1119.5934        872.4004         39.0004         36.2004
 10  1  1  1  8  0.0000000  0  8G27G15G12G 9G17G18G28G22
  21046009.7824   21046009.3824   21046013.5454  -20658351.22648 -16082763.03447
      1028.9914        801.8154         49.5004         46.5004
  21196944.7224   21196944.8594   21196948.6754  -17543363.01048 -13652776.99647
     -2103.6384      -1639.1894         49.5004         46.5004
  23653621.2794   23653619.8374   23653623.8974   -5933450.93647  -4611074.19546
      3534.7374       2754.3514         42.2004         39.3004
  20405599.7314   20405598.4534   20405602.7454  -23911081.02248 -18337416.39447
      2035.4344       1586.0594         50.2004         47.2004
  22226879.3534   22226879.2614   22226883.0064  -13624561.38047 -10591809.02147
      1394.9114       1086.9494         47.5004         44.5004
  22947261.8944   22947261.0564   22947265.7394   -6682411.97947  -5198238.78446
      -754.6844       -588.0934         42.0004         39.0004
  23306291.0774   23306290.6534   23306292.1334   -6521039.01947  -5066405.42946
     -2845.4774      -2217.2514         42.9004         40.0004
  23881424.8524   23881424.5084   23881425.9924   -3140480.74246  -2286405.17345
      1101.9914        858.6884         38.5004         35.7004
 10  1  1  1  8 30.0000000  0  8G27G15G12G 9G17G18G28G22
  21040160.0424   21040160.1354   21040164.4554  -20689087.47548 -16106713.35247
      1020.0584        794.8454         49.5004         46.5004
  21208998.1534   21208998.6734   21209002.4244  -17480020.67748 -13603419.34547
     -2119.2034      -1651.3304         49.5004         46.5004
  23633458.7774   23633458.9464   23633462.7244   -6039399.33347  -4693631.41246
      3528.4304       2749.4314         42.3004         39.9004
  20394017.7364   20394017.6554   20394021.3324  -23971939.63748 -18384838.68547
      2021.7954       1575.4224         50.2004         47.0004
  22218966.8904   22218966.9624   22218969.5914  -13666141.09747 -10624208.77447
      1377.0664       1073.0424         47.4004         44.4004
  22951621.7214   22951620.3324   22951624.1184   -6659497.80046  -5180383.59446
      -772.9634       -602.2954         41.8004         39.0004
  23322553.8434   23322553.6374   23322555.9644   -6435577.00347  -4999811.61846
     -2851.9724      -2222.2944         42.7004         39.7004
  23875184.7624   23875185.5824   23875185.9784   -3173270.85346  -2311955.91645
      1084.1354        844.7654         38.2004         35.9004
 10  1  1  1  9  0.0000000  0  8G27G15G12G 9G17G18G28G22
  21034362.7364   21034362.5194   21034366.7554  -20719554.61948 -16130453.97947
      1010.9914        787.7854         49.3004         46.3004
  21221140.1534   21221140.8874   21221144.9384  -17416212.29048 -13553698.53147
     -2134.7054      -1663.4054         49.5004         46.5004
  23613333.3564   23613332.7944   23613337.2194   -6145158.64547  -4776041.25746
      3522.1664       2744.5434         42.2004         39.5004
  20382514.8404   20382514.4534   20382518.2784  -24032388.80248 -18431941.92847
      2008.1904       1564.8274         50.2004         47.0004
  22211156.1444   22211156.5544   22211159.4774  -13707184.11147 -10656190.32547
      1359.1224       1059.0574         47.4004         44.5004
  22956086.9484   22956086.3654   22956088.9754   -6636035.19646  -5162101.05746
      -791.2304       -616.5434         41.8004         39.2004
  23338851.8214   23338852.2734   23338856.1484   -6349922.22447  -4933067.63346
     -2858.3914      -2227.3114         42.5004         39.5004
  23869046.6554   23869042.2684   23869048.6404   -3205527.23846  -2337090.76645
      1066.3374        830.9294         37.1004         34.6004
 10  1  1  1  9 30.0000000  0  8G27G15G12G 9G17G18G28G22
  21028616.1894   21028615.9894   21028620.4134  -20749752.02148 -16153984.41947
      1002.0714        780.8334         49.3004         46.5004
  21233371.1714   21233371.8064   21233375.4064  -17351939.25848 -13503615.65147
     -2150.1674      -1675.4534         49.5004         46.5004
  23593242.9464   23593243.4744   23593248.2934   -6250727.15347  -4858302.39346
      3515.7734       2739.5694         42.2004         39.5004
  20371090.0284   20371089.5484   20371093.9454  -24092426.46748 -18478724.52147
      1994.3714       1554.0534         50.2004         47.2004
  22203449.1634   22203449.6164   22203451.7504  -13747688.68647 -10687752.32347
      1341.1654       1045.0694         47.5004         44.5004
  22960655.4004   22960654.6894   22960659.3124   -6612025.49546  -5143392.20346
      -809.4524       -630.7234         41.8004         39.3004
  23355188.3694   23355188.6684   23355192.6804   -6264076.51247  -4866174.88546
     -2864.6684      -2232.2324         42.3004         39.9004
  23863009.2594   23863008.0704   23863011.9854   -3237248.76146  -2361808.83745
      1048.4354        816.9734         36.8004         35.0004
 10  1  1  1 10  0.0000000  0  8G27G15G12G 9G17G18G28G22
  21022922.1424   21022921.5784   21022925.8934  -20779678.92848 -16177304.08347
       993.0484        773.7994         49.5004         46.6004
  21245690.4294   21245690.5294   21245693.9504  -17287203.06648 -13453171.88047
     -2165.5834      -1687.4644         49.3004         46.3004
  23573190.9894   23573191.2074   23573195.2854   -6356103.03246  -4940413.48046
      3509.2944       2734.5194         41.8004         39.2004
  20359743.2354   20359743.0774   20359747.4364  -24152051.42748 -18525185.52047
      1980.6034       1543.3264         50.2004         47.0004
  22195844.2874   22195844.2254   22195846.8994  -13787653.20947 -10718893.48147
      1323.1394       1031.0134         47.5004         44.5004
  22965329.9504   22965328.3584   22965331.3914   -6587469.76346  -5124257.87146
      -827.6074       -644.8754         41.6004         38.8004
  23371560.2044   23371560.3304   23371563.8214   -6178041.99347  -4799134.98646
     -2870.9524      -2237.1064         42.5004         39.7004
  23857073.2334   23857074.0274   23857076.6834   -3268434.43646  -2386109.34946
      1030.5534        803.0284         38.5004         36.7004
 10  1  1  1 10 30.0000000  0  8G27G15G12G 9G17G18G28G22
  21017278.4174   21017278.1474   21017282.5434  -20809334.79048 -16200412.53947
       984.0134        766.7654         49.6004         46.6004
  21258096.5704   21258097.2614   21258101.6494  -17222005.31548 -13402368.44047
     -2180.9144      -1699.4144         49.3004         46.3004
  23553178.4074   23553175.7104   23553179.9724   -6461284.74947  -5022373.27146
      3502.8214       2729.4664         42.2004         39.7004
  20348476.3274   20348475.8904   20348480.0164  -24211262.29848 -18571323.85947
      1966.7864       1532.5604         50.0004         47.0004
  22188342.2174   22188341.8784   22188345.1774  -13827076.01447 -10749612.53547
      1305.0514       1016.9234         47.5004         44.7004
  22970105.6644   22970103.4594   22970108.2674   -6562369.43446  -5104699.19446
      -845.7304       -659.0104         41.8004         39.2004
  23387969.7204   23387969.2264   23387971.3424   -6091820.50347  -4731949.39746
     -2877.1614      -2241.9434         42.9004         40.0004
  23851243.2804   23851243.0644   23851244.9994   -3299083.86546  -2409992.02946
      1012.7564        789.1564         39.2004         37.3004
 10  1  1  1 11  0.0000000  0  8G27G15G12G 9G17G18G28G22
  21011686.5564   21011686.3614   21011690.9434  -20838719.06048 -16223309.36647
       974.9404        759.6964         49.5004         46.6004
  21270592.1404   21270591.9314   21270595.1614  -17156347.44148 -13351206.46547
     -2196.2614      -1711.3784         49.3004         46.1004
  23533197.1054   23533196.9644   23533202.3874   -6566270.85547  -5104180.61046
      3496.2844       2724.3784         42.3004         39.7004
  20337287.5874   20337287.1874   20337291.3964  -24270058.04148 -18617138.71447
      1952.9054       1521.7454         50.0004         47.0004
  22180943.3374   22180944.1274   22180946.1534  -13865955.77247 -10779908.44547
      1286.9294       1002.7984         47.7004         44.7004
  22974984.5504   22974983.6274   22974987.3354   -6536725.50147  -5084716.94146
      -863.8854       -673.1574         42.0004         39.3004
  23404409.9994   23404409.8094   23404412.9424   -6005413.57147  -4664619.34346
     -2883.2994      -2246.7254         42.5004         39.7004
  23845515.2084   23845512.9354   23845515.5854   -3329195.85246  -2433455.91646
       994.8324        775.1914         39.6004         37.3004
 10  1  1  1 11 30.0000000  0  8G27G15G12G 9G17G18G28G22
  21006146.9524   21006146.7084   21006150.8834  -20867831.21148 -16245994.16747
       965.8564        752.6104         49.5004         46.5004
  21283172.6144   21283173.1854   21283176.4614  -17090230.89648 -13299687.08447
     -2211.5134      -1723.2584         49.1004         45.9004
  23513258.2234   23513259.3204   23513262.3524   -6671059.39647  -5185834.01446
      3489.6814       2719.2334         42.9004         40.4004
  20326178.9964   20326178.4724   20326182.3544  -24328436.80048 -18662628.66147
      1938.9904       1510.9024         50.0004         47.0004
  22173648.3024   22173648.1654   22173651.5714  -13904290.53747 -10809779.68047
      1268.7264        988.6174         47.5004         44.4004
  22979968.3764   22979966.8184   22979970.9914   -6510538.97547  -5064311.87846
      -881.8884       -687.1824         42.2004         39.7004
  23420888.4744   23420887.9014   23420891.2554   -5918823.28247  -4597146.41546
     -2889.4104      -2251.4804         42.7004         40.2004
  23839884.9864   23839885.2714   23839887.7624   -3358769.30346  -2456500.20146
       976.7244        761.0834         39.2004         36.7004
 10  1  1  1 12  0.0000000  0  8G27G15G12G 9G17G18G28G22
  21000659.2284   21000658.7744   21000663.2914  -20896670.71048 -16268466.49247
       956.7524        745.5224         49.6004         46.6004
  21295842.1554   21295841.6534   21295845.1604  -17023657.22848 -13247811.50947
     -2226.7274      -1735.1084         48.9004         45.9004
  23493356.5674   23493354.3684   23493358.9174   -6775649.26547  -5267332.56046
      3482.9554       2713.9794         42.9004         39.7004
  20315148.4844   20315148.7434   20315152.8534  -24386396.97248 -18707792.42047
      1925.0244       1500.0234         50.0004         47.0004
  22166456.0544   22166456.7504   22166460.9404  -13942078.92947 -10839225.17047
      1250.4794        974.3974         47.5004         44.5004
  22985054.1624   22985054.4764   22985057.4684   -6483811.53247  -5043485.31746
      -899.9184       -701.2404         42.2004         39.5004
  23437401.2374   23437399.8814   23437402.8894   -5832051.44447  -4529532.00746
     -2895.4114      -2256.1794         42.9004         40.0004
  23834358.6934   23834358.4614   23834362.0384   -3387803.51546  -2479124.22446
       958.7934        747.1114         38.9004         36.2004
 10  1  1  1 12 30.0000000  0  8G27G15G12G 9G17G18G28G22
  20995222.5854   20995222.5794   20995227.1534  -20925236.95448 -16290725.90647
       947.6414        738.4204         49.6004         46.8004
  21308596.1024   21308596.5254   21308601.1034  -16956627.89348 -13195580.84947
     -2241.8894      -1746.9264         48.9004         45.9004
  23473490.4384   23473489.9784   23473493.3504   -6880037.92647  -5348674.39546
      3476.2564       2708.7764         42.7004         39.7004
  20304198.8074   20304198.8594   20304203.0334  -24443937.10048 -18752628.88747
      1910.9884       1489.0814         50.0004         47.0004
  22159370.7574   22159371.5084   22159373.7634  -13979319.25147 -10868243.58947
      1232.2084        960.1644         47.5004         44.7004
  22990242.5984   22990242.4274   22990246.4984   -6456544.30947  -5022238.18546
      -917.8614       -715.2044         42.5004         39.9004
  23453948.4644   23453946.6574   23453948.8614   -5745099.56547  -4461777.26846
     -2901.4064      -2260.8544         42.7004         40.0004
  23828939.2474   23828938.0094   23828939.3794   -3416297.43746  -2501327.31846
       940.8644        733.1434         38.7004         36.0004
 10  1  1  1 13  0.0000000  0  8G27G15G12G 9G17G18G28G22
  20989838.7204   20989838.5864   20989842.5414  -20953529.34148 -16312771.92147
       938.4964        731.2914         49.6004         46.6004
  21321439.2524   21321438.6334   21321441.8514  -16889144.78548 -13142996.60847
     -2257.0074      -1758.7084         48.9004         45.8004
  23453664.0174   23453664.5584   23453668.1434   -6984224.15147  -5429858.45146
      3469.4824       2703.4944         42.7004         40.0004
  20293329.8444   20293329.8244   20293333.8174  -24501055.90348 -18797137.04547
      1896.9244       1478.1214         50.0004         47.0004
  22152389.4004   22152388.5744   22152391.5294  -14016010.24947 -10896833.96547
      1213.8584        945.8574         47.7004         44.5004
  22995534.1454   22995533.5994   22995537.3464   -6428738.76447  -5000571.49646
      -935.8434       -729.2334         42.5004         39.9004
  23470528.2914   23470527.3504   23470530.2774   -5657969.50647  -4393883.75646
     -2907.2984      -2265.4094         42.5004         39.7004
  23823618.0684   23823619.1184   23823621.2834   -3444250.37246  -2523108.85146
       922.8244        719.0874         38.9004         36.7004
 10  1  1  1 13 30.0000000  0  8G27G15G12G 9G17G18G28G22
  20984507.1534   20984506.6844   20984511.1324  -20981547.49448 -16334604.24247
       929.3584        724.1744         49.5004         46.5004
  21334366.1644   21334366.3514   21334369.3574  -16821209.05948 -13090059.67547
     -2272.0404      -1770.4154         48.8004         45.8004
  23433877.1964   23433878.1494   23433881.2404   -7088206.34347  -5510883.48646
      3462.6154       2698.1504         43.2004         40.7004
  20282541.7634   20282541.0594   20282545.1134  -24557751.48148 -18841315.41547
      1882.7804       1467.0984         50.2004         47.2004
  22145511.2754   22145511.8924   22145514.9264  -14052150.15947 -10924994.92347
      1195.4454        931.5144         47.7004         44.7004
  23000927.7944   23000927.4634   23000930.9754   -6400396.10047  -4978486.32146
      -953.7144       -743.1524         42.5004         39.5004
  23487141.1144   23487141.3314   23487143.5854   -5570663.12847  -4325852.81546
     -2913.1244      -2269.9634         42.0004         39.2004
  23818402.3464   23818402.0364   23818403.1644   -3471661.48746  -2544468.18446
       904.6994        704.9684         39.2004         36.7004
 10  1  1  1 14  0.0000000  0  8G27G15G12G 9G17G18G28G22
  20979228.0054   20979227.8094   20979232.3114  -21009290.86548 -16356222.44847
       920.1874        717.0304         49.6004         46.8004
  21347379.4434   21347379.8094   21347383.4774  -16752822.90848 -13036771.77347
     -2287.0424      -1782.1044         48.8004         45.8004
  23414129.9254   23414129.6984   23414132.0654   -7191982.79247  -5591748.22646
      3455.7554       2692.7854         43.4004         40.4004
  20271832.9294   20271832.9974   20271837.5104  -24614022.63348 -18885163.05547
      1868.6294       1456.0784         50.3004         47.3004
  22138739.5154   22138739.8164   22138742.0584  -14087737.83047 -10952725.56247
      1177.0464        917.1784         47.7004         44.5004
  23006424.3164   23006423.0804   23006425.6854   -6371517.75147  -4955983.72246
      -971.5214       -757.0114         42.3004         39.5004
  23503788.5944   23503787.7764   23503789.6284   -5483182.35847  -4257685.98046
     -2918.8904      -2274.4614         42.0004         39.2004
  23813287.4614   23813288.9734   23813291.7004   -3498530.41646  -2565405.04646
       886.5684        690.8294         39.0004         36.6004
 10  1  1  1 14 30.0000000  0  8G27G15G12G 9G17G18G28G22
  20974000.3374   20974000.3654   20974005.1404  -21036758.70548 -16377625.95647
       910.9924        709.8624         49.6004         46.8004
  21360478.1644   21360478.3704   21360482.9014  -16683987.20348 -12983133.56547
     -2302.0194      -1793.7774         48.8004         45.8004
  23394419.5894   23394419.7154   23394424.9404   -7295551.96747  -5672451.43346
      3448.7874       2687.3724         43.2004         40.6004
  20261205.9794   20261205.6674   20261210.2224  -24669868.26648 -18928679.13247
      1854.3984       1444.9814         50.3004         47.3004
  22132072.7014   22132072.7074   22132075.7134  -14122771.93747 -10980024.85347
      1158.5804        902.7964         47.7004         44.7004
  23012019.8754   23012020.0454   23012022.7814   -6342105.30547  -4933064.91546
      -989.3104       -770.9034         42.0004         39.0004
  23520466.6914   23520467.0334   23520469.7664   -5395529.16346  -4189384.75946
     -2924.6504      -2278.9554         41.5004         38.6004
  23808279.0634   23808279.6124   23808281.9264   -3524856.02746  -2585918.47946
       868.3424        676.6294         38.7004         36.2004
 10  1  1  1 15  0.0000000  0  8G27G15G12G 9G17G18G28G22
  20968826.7564   20968826.3574   20968830.6464  -21063950.38248 -16398814.27547
       901.7784        702.6834         49.6004         46.6004
  21373663.1954   21373663.4544   21373665.9984  -16614703.81948 -12929146.51247
     -2316.8814      -1805.3654         48.8004         45.6004
  23374748.7774   23374751.5104   23374756.2634   -7398912.13947  -5752991.78946
      3441.8534       2681.9714         43.2004         40.6004
  20250660.3834   20250659.9094   20250664.4434  -24725286.55948 -18971862.20947
      1840.1384       1433.8624         50.3004         47.2004
  22125511.7504   22125511.7094   22125515.5024  -14157251.00247 -11006891.64447
      1140.0164        888.3254         47.9004         45.1004
  23017718.6214   23017718.4754   23017721.5904   -6312159.95846  -4909730.88546
     -1007.0324       -784.7034         41.6004         39.3004
  23537181.5644   23537180.3324   23537183.5604   -5307704.84846  -4120950.23946
     -2930.3584      -2283.4094         41.5004         38.8004
  23803373.8084   23803373.0964   23803374.0114   -3550637.56746  -2606007.98845
       850.3224        662.5864         38.2004         35.7004
 10  1  1  1 15 30.0000000  0  8G27G15G12G 9G17G18G28G22
  20963705.1834   20963704.6544   20963708.4734  -21090865.49348 -16419787.08647
       892.5334        695.4784         49.6004         46.6004
  21386931.3754   21386931.6404   21386935.3684  -16544974.40648 -12874811.90847
     -2331.7634      -1816.9514         48.6004         45.8004
  23355122.4704   23355122.8244   23355126.2224   -7502062.23347  -5833368.47746
      3434.8154       2676.4804         43.2004         40.4004
  20240196.2534   20240195.8364   20240200.2374  -24780276.07348 -19014711.17447
      1825.8074       1422.7034         50.3004         47.3004
  22119056.6784   22119057.1184   22119059.6344  -14191173.23448 -11033324.53147
      1121.4544        873.8614         48.1004         44.9004
  23023518.4614   23023518.3344   23023521.3904   -6281683.33247  -4885982.92346
     -1024.7454       -798.5054         42.2004         39.5004
  23553922.2964   23553923.1254   23553927.2494   -5219711.55846  -4052384.03846
     -2935.9324      -2287.7424         41.5004         39.0004
  23798570.7204   23798570.7354   23798574.2684   -3575874.34446  -2625673.00045
       832.1494        648.4264         37.5004         35.0004
 10  1  1  1 16  0.0000000  0  8G27G15G12G 9G17G18G28G22
  20958635.3434   20958635.5714   20958639.4634  -21117503.40148 -16440543.89547
       883.3254        688.3024         49.6004         46.6004
  21400285.2694   21400285.8174   21400289.0694  -16474800.63648 -12820131.06647
     -2346.5134      -1828.4474         48.6004         45.6004
  23335534.5034   23335534.3874   23335538.1274   -7604999.99447  -5913579.65346
      3427.6824       2670.9164         43.2004         40.2004
  20229814.6124   20229814.1854   20229818.1034  -24834835.15648 -19057224.73847
      1811.4434       1411.5134         50.5004         47.5004
  22112706.0784   22112706.8224   22112709.6924  -14224537.38247 -11059322.54947
      1102.7864        859.3174         47.7004         44.5004
  23029417.2284   23029417.2114   23029421.0454   -6250676.83046  -4861822.02746
     -1042.3624       -812.2444         41.8004         38.8004
  23570700.9594   23570701.2394   23570704.6234   -5131550.79846  -3983687.38446
     -2941.4204      -2292.0024         41.3004         38.6004
  23793870.5744   23793872.0014   23793874.5164   -3600565.45346  -2644912.82445
       813.8544        634.1734         37.5004         35.5004
 10  1  1  1 16 30.0000000  0  8G27G15G12G 9G17G18G28G22
  20953619.2354   20953618.9694   20953623.2254  -21143863.56748 -16461084.28147
       874.0434        681.0764         49.6004         46.6004
  21413722.7794   21413723.1454   21413727.4224  -16404183.96848 -12765105.08547
     -2361.2754      -1839.9564         48.6004         45.6004
  23315984.2754   23315986.2064   23315991.4484   -7707723.59347  -5993623.97746
      3420.5374       2665.3514         43.0004         40.2004
  20219514.2444   20219513.8944   20219518.1434  -24888962.19748 -19099401.64447
      1797.0184       1400.2754         50.5004         47.5004
  22106464.3244   22106464.5554   22106467.4764  -14257342.06147 -11084884.62947
      1084.1524        844.8014         47.5004         44.7004
  23035420.7804   23035418.3794   23035422.8014   -6219141.73946  -4837249.24246
     -1059.9704       -825.9414         41.6004         38.8004
  23587510.6394   23587510.0024   23587512.2604   -5043224.42946  -3914861.63146
     -2946.9744      -2296.3464         41.5004         39.0004
  23789278.1334   23789277.1014   23789280.2034   -3624710.33246  -2663727.04846
       795.7214        620.0404         38.0004         36.0004
 10  1  1  1 17  0.0000000  0  9G27G15G12G 9G26G17G18G28G22
  20948655.5754   20948655.7644   20948660.3784  -21169945.44448 -16481407.82047
       864.7534        673.8324         49.6004         46.6004
  21427245.1584   21427245.1614   21427248.5084  -16333126.17348 -12709735.39647
     -2375.9224      -1851.3664         48.6004         45.6004
  23296480.7664   23296480.0324   23296484.8464   -7810231.57147  -6073500.28946
      3413.3234       2659.7384         43.2004         40.6004
  20209296.1424   20209296.1564   20209300.5864  -24942656.00548 -19141240.97247
      1782.5604       1389.0074         50.5004         47.5004
  23281230.0794                   23281231.3794    -252282.94046   -172264.04046
      3540.7784       2759.0414         36.3004         36.7004
  22100328.9974   22100328.6214   22100332.4234  -14289586.17247 -11110009.88447
      1065.4384        830.2144         47.7004         44.7004
  23041519.6554   23041520.2364   23041523.4064   -6187079.67546  -4812265.82746
     -1077.5164       -839.6234         41.6004         39.0004
  23604348.1374   23604348.4234   23604351.3704   -4954734.39846  -3845908.34846
     -2952.3464      -2300.5394         41.8004         39.2004
  23784789.4784   23784788.5904   23784789.2754   -3648308.30446  -2682115.11346
       777.4514        605.8034         38.9004         36.7004
 10  1  1  1 17 30.0000000  0  9G27G15G12G 9G26G17G18G28G22
  20943745.8524   20943745.7294   20943750.3984  -21195748.32448 -16501513.95847
       855.4214        666.5604         49.6004         46.6004
  21440851.2464   21440851.0794   21440854.5834  -16261629.00348 -12654023.31347
     -2390.5294      -1862.7514         48.6004         45.6004
  23277012.1244   23277014.3354   23277018.1274   -7912522.53147  -6153207.48446
      3406.0484       2654.0574         43.2004         40.2004
  20199161.5884   20199161.3404   20199165.2794  -24995915.17448 -19182741.61447
      1768.0474       1377.6974         50.5004         47.3004
  23261040.7104   23261040.1124   23261045.8014    -358368.81746   -254928.30346
      3531.5494       2751.8564         38.9004         36.9004
  22094299.5474   22094300.1204   22094302.9654  -14321268.38547 -11134697.32147
      1046.7014        815.6174         47.7004         44.9004
  23047721.8024   23047721.7184   23047723.8554   -6154491.96346  -4786872.80646
     -1094.9554       -853.2284         41.6004         39.0004
  23621217.8974   23621218.7734   23621221.0714   -4866082.26846  -3776828.78946
     -2957.7684      -2304.7604         41.6004         39.0004
  23780402.4054   23780401.1244   23780403.1844   -3671358.81546  -2700076.56046
       759.2414        591.6144         39.0004         36.7004
 10  1  1  1 18  0.0000000  0  9G27G15G12G 9G26G17G18G28G22
  20938889.2494   20938888.7604   20938893.4964  -21221271.64248 -16521402.25447
       846.0984        659.2984         49.6004         46.6004
  21454539.2714   21454539.3544   21454542.9824  -16189694.35548 -12597970.34747
     -2405.0994      -1874.1024         48.8004         45.8004
  23257591.6994   23257591.9894   23257594.6364   -8014594.73247  -6232744.25746
      3398.7524       2648.3754         43.4004         40.7004
  20189109.0814   20189109.3424   20189113.9054  -25048738.36548 -19223902.54147
      1753.4914       1366.3614         50.5004         47.5004
  23240905.5624   23240905.4144   23240909.8574    -464177.39846   -337376.53646
      3522.3384       2744.6774         38.9004         36.6004
  22088378.6694   22088378.5454   22088380.9904  -14352387.16247 -11158945.69347
      1027.8734        800.9334         47.9004         44.9004
  23054024.0294   23054021.4044   23054024.6004   -6121380.43746  -4761071.63346
     -1112.3794       -866.8084         41.6004         39.2004
  23638118.4394   23638118.8684   23638121.8064   -4777269.85246  -3707624.31146
     -2963.0824      -2308.8964         41.6004         39.0004
  23776118.9724   23776118.0804   23776119.6724   -3693861.32146  -2717610.97146
       740.8744        577.3064         38.5004         36.0004
 10  1  1  1 18 30.0000000  0  9G27G15G12G 9G26G17G18G28G22
  20934085.5444   20934085.4594   20934089.5824  -21246514.95848 -16541072.36047
       836.7754        652.0354         49.6004         46.6004
  21468311.2074   21468311.1604   21468314.4184  -16117323.62548 -12541577.58347
     -2419.6104      -1885.4174         48.6004         45.6004
  23238210.0794   23238210.2154   23238212.5194   -8116446.76347  -6312109.43246
      3391.3644       2642.6184         43.9004         41.1004
  20179140.3934   20179140.3274   20179144.5164  -25101124.34548 -19264722.77547
      1738.8904       1354.9784         50.5004         47.3004
  23220828.0544   23220826.5024   23220829.3894    -569705.67646   -419606.35246
      3512.8994       2737.3234         39.0004         36.7004
  22082563.9494   22082564.0824   22082566.8674  -14382941.32247 -11182754.11447
      1009.0274        786.2534         47.9004         44.7004
  23060421.9574   23060422.1724   23060425.8904   -6087746.47646  -4734863.39146
     -1129.8244       -880.3774         41.6004         39.0004
  23655050.8564   23655049.4124   23655052.1674   -4688298.87746  -3638296.27146
     -2968.3404      -2312.9934         41.5004         38.6004
  23771942.9424   23771943.5694   23771944.3454   -3715815.28846  -2734717.93745
       722.6974        563.1354         38.3004         35.9004
 10  1  1  1 19  0.0000000  0  9G27G15G12G 9G26G17G18G28G22
  20929335.9744   20929335.4464   20929339.4454  -21271477.43348 -16560523.64147
       827.3974        644.7264         49.6004         46.8004
  21482165.8184   21482165.5814   21482169.4684  -16044518.32148 -12484846.19247
     -2434.0604      -1896.6664         48.8004         45.6004
  23218869.2404   23218869.1064   23218873.2134   -8218076.84047  -6391301.68546
      3383.9424       2636.8424         43.9004         41.2004
  20169255.8454   20169255.4274   20169259.4774  -25153071.27448 -19305200.90047
      1724.2174       1343.5474         50.3004         47.3004
  23200799.9324   23200797.4884   23200801.1084    -674950.60646   -501615.39046
      3503.4184       2729.9364         39.2004         36.9004
  22076857.1964   22076857.0304   22076859.7344  -14412929.68247 -11206121.63847
       990.1674        771.5554         47.7004         44.5004
  23066921.5004   23066920.7554   23066925.6944   -6053591.83646  -4708249.43646
     -1147.1464       -893.8714         41.6004         39.0004
  23672009.4174   23672007.5614   23672010.6264   -4599170.96146  -3568845.96746
     -2973.5164      -2317.0104         41.1004         37.9004
  23767868.8534   23767867.9224   23767870.5744   -3737219.78046  -2751396.70045
       704.3794        548.8674         37.0004         34.6004
 10  1  1  1 19 30.0000000  0  9G27G15G12G 9G26G17G18G28G22
  20924639.2864   20924638.9234   20924642.4994  -21296158.54748 -16579755.68147
       817.9974        637.3994         49.8004         46.8004
  21496101.2764   21496101.9324   21496105.8484  -15971280.43148 -12427777.72147
     -2448.4554      -1907.8874         48.6004         45.4004
  23199573.4844   23199573.4114   23199576.9904   -8319483.33447  -6470319.67346
      3376.4434       2631.0034         44.2004         41.4004
  20159454.1184   20159453.7744   20159458.0174  -25204577.63448 -19345335.71747
      1709.5374       1332.1014         50.3004         47.3004
  23180823.5674   23180823.4744   23180828.8764    -779909.56246   -583401.59946
      3493.8314       2722.4614         39.4004         36.9004
  22071258.1524   22071257.9344   22071261.3454  -14442351.03947 -11229047.34947
       971.2404        756.8094         47.5004         44.5004
  23073520.4074   23073519.1734   23073523.0124   -6018918.00146  -4681230.87846
     -1164.4144       -907.3254         41.6004         38.8004
  23688999.0674   23688998.9814   23689001.2674   -4509887.94546  -3499274.78446
     -2978.6284      -2321.0074         40.8004         38.1004
  23763898.5264   23763897.0104   23763903.9534   -3758074.18446  -2767646.85945
       685.9014        534.4594         36.4004         34.1004
 10  1  1  1 20  0.0000000  0  9G27G15G12G 9G26G17G18G28G22
  20919995.2774   20919995.5454   20919999.4364  -21320557.73148 -16598768.02647
       808.5954        630.0754         49.6004         46.6004
  21510120.8974   21510121.3334   21510123.9494  -15897611.66948 -12370373.49647
     -2462.7894      -1919.0524         48.6004         45.6004
  23180319.0064   23180319.2084   23180321.4324   -8420664.68947  -6549162.26046
      3368.9304       2625.1344         44.1004         40.9004
  20149737.6294   20149737.0984   20149741.2994  -25255642.37848 -19385126.42347
      1694.7734       1320.6004         50.5004         47.5004
  23160906.7744   23160906.5304   23160909.8344    -884579.45846   -664962.51946
      3484.1234       2714.9044         39.6004         37.4004
  22065768.5274   22065768.3174   22065770.6964  -14471204.00947 -11251530.16347
       952.2824        742.0364         47.5004         44.7004
  23080216.3674   23080217.4404   23080218.7764   -5983726.66946  -4653809.10146
     -1181.6334       -920.7394         41.5004         38.6004
  23706017.4074   23706018.6454   23706022.8084   -4420451.79446  -3429584.26946
     -2983.7504      -2325.0084         40.8004         38.6004
  23760036.3704   23760038.4064   23760038.7214   -3778378.33046  -2783468.25345
       667.7374        520.3164         36.1004         34.3004
 10  1  1  1 20 30.0000000  0  9G27G15G12G 9G26G17G18G28G22
  20915406.7364   20915406.4324   20915410.2554  -21344674.50648 -16617560.31547
       799.1824        622.7394         49.6004         46.6004
  21524221.1384   21524221.4054   21524225.1104  -15823514.34848 -12312635.32947
     -2477.0564      -1930.1754         48.6004         45.8004
  23161106.5294   23161106.9554   23161110.7524   -8521619.62547  -6627828.38346
      3361.3604       2619.2354         43.9004         40.7004
  20140104.0644   20140104.0234   20140107.8744  -25306264.03448 -19424571.85747
      1679.9824       1309.0754         50.5004         47.5004
  23141044.0584   23141044.5534   23141047.1824    -988957.76346   -746296.30646
      3474.3574       2707.2904         39.9004         37.3004
  22060385.2634   22060386.1014   22060388.3504  -14499487.55947 -11273569.27247
       933.2704        727.2244         47.7004         44.9004
  23087011.3234   23087011.8084   23087013.7354   -5948019.30746  -4625985.19646
     -1198.8674       -934.1644         41.3004         38.5004
  23723068.9354   23723067.4244   23723070.1544   -4330864.13346  -3359775.70446
     -2988.7484      -2328.8954         41.6004         39.2004
  23756276.8884   23756275.0314   23756277.4104   -3798131.42745  -2798860.26945
       649.1944        505.8634         34.9004         33.3004
 10  1  1  1 21  0.0000000  0  9G27G15G12G 9G26G17G18G28G22
  20910871.0264   20910870.7944   20910875.1254  -21368508.30148 -16636132.10347
       789.7404        615.3854         49.6004         47.0004
  21538402.9324   21538403.0274   21538407.1084  -15748989.11148 -12254563.72847
     -2491.2764      -1941.2534         48.8004         45.8004
  23141937.4724   23141938.3124   23141942.9534   -8622346.10647  -6706316.50546
      3353.7184       2613.2764         43.6004         40.6004
  20130555.9644   20130555.4504   20130559.6614  -25356441.08548 -19463670.85747
      1665.1444       1297.5144         50.5004         47.5004
  23121237.5274   23121236.1854   23121240.6264   -1093041.41046   -827400.41846
      3464.4414       2699.5594         39.4004         36.7004
  22055112.7484   22055112.5084   22055115.2284  -14527200.46647 -11295163.72747
       914.2554        712.4014         47.9004         45.1004
  23093905.5704   23093905.3464   23093907.8694   -5911797.57146  -4597760.48146
     -1215.9434       -947.5074         41.5004         39.0004
  23740144.4494   23740144.1304   23740147.0134   -4241126.43846  -3289850.23646
     -2993.7344      -2332.7764         41.5004         38.6004
  23752624.5544   23752623.4934   23752624.4824   -3817333.41545  -2813822.89245
       630.8404        491.5614         34.5004         33.3004
 10  1  1  1 21 30.0000000  0  9G27G15G12G 9G26G17G18G28G22
  20906389.7094   20906389.5644   20906393.9534  -21392058.55048 -16654482.94347
       780.2614        607.9974         49.8004         47.0004
  21552665.1924   21552665.8024   21552669.3294  -15674038.15948 -12196160.40247
     -2505.4414      -1952.2894         48.6004         45.4004
  23122816.2234   23122816.3224   23122818.6484   -8722842.75847  -6784625.55246
      3346.0174       2607.2904         43.7004         40.9004
  20121091.8114   20121091.7224   20121096.0254  -25406172.20848 -19502422.37847
      1650.2614       1285.9124         50.5004         47.5004
  23101484.8334   23101487.7024   23101492.3214   -1196827.45846   -908272.64446
      3454.5444       2691.8524         39.7004         37.4004
  22049947.5724   22049947.6614   22049951.0374  -14554341.66748 -11316312.71047
       895.1714        697.5434         48.1004         45.1004
  23100894.8544   23100894.1584   23100897.3114   -5875063.23546  -4569136.37346
     -1233.0244       -960.7804         41.6004         38.6004
  23757247.9254   23757248.0314   23757253.4494   -4151240.56846  -3219809.27446
     -2998.6324      -2336.6054         41.1004         38.3004
  23749072.4544   23749069.9404   23749075.3494   -3835983.52945  -2828355.40845
       612.5114        477.2854         34.3004         32.9004
 10  1  1  1 22  0.0000000  0  9G27G15G12G 9G26G17G18G28G22
  20901961.7114   20901961.9714   20901966.1994  -21415324.73548 -16672612.43147
       770.7984        600.6204         49.8004         46.8004
  21567008.8404   21567008.9204   21567012.6454  -15598663.28148 -12137426.74447
     -2519.5174      -1963.2664         48.4004         45.4004
  23103734.6314   23103736.1274   23103739.5054   -8823108.04847  -6862754.31646
      3338.2814       2601.2664         43.9004         41.2004
  20111714.3124   20111713.3864   20111717.7054  -25455456.03548 -19540825.35947
      1635.3184       1274.2784         50.5004         47.5004
  23081797.0654   23081795.7754   23081799.5014   -1300313.12446   -988910.84646
      3444.4734       2684.0034         40.3004         37.9004
  22044892.2484   22044892.2664   22044894.6864  -14580910.33248 -11337015.54047
       876.0694        682.6514         48.2004         45.2004
  23107983.7244   23107982.4384   23107986.3504   -5837818.17846  -4540114.25846
     -1249.9914       -974.0194         41.6004         38.8004
  23774380.2314   23774379.5464   23774383.4064   -4061208.20146  -3149654.21046
     -3003.4514      -2340.3534         40.6004         37.6004
  23745629.5794   23745628.9784   23745631.9534   -3854081.16045  -2842457.49745
       594.1104        462.9424         34.9004         33.4004
 10  1  1  1 22 30.0000000  0  9G27G15G12G 9G26G17G18G28G22
  20897588.7834   20897588.5454   20897592.8804  -21438306.24048 -16690520.09247
       761.2884        593.2124         49.8004         46.8004
  21581432.5984   21581432.9874   21581437.1314  -15522866.35548 -12078364.21447
     -2533.6034      -1974.2374         48.4004         45.4004
  23084700.5244   23084700.2504   23084704.6934   -8923140.26547  -6940701.45746
      3330.4854       2595.1724         43.9004         41.2004
  20102420.4234   20102420.5294   20102424.7654  -25504291.04548 -19578878.60247
      1620.3304       1262.5964         50.5004         47.5004
  23062159.5424   23062160.1684   23062163.5044   -1403495.25246  -1069312.49946
      3434.2694       2676.0524         40.4004         37.9004
  22039945.7924   22039945.5834   22039947.5164  -14606904.70148 -11357270.87147
       856.8954        667.7074         48.1004         45.1004
  23115165.8844   23115166.5364   23115169.0444   -5800063.91346  -4510695.32546
     -1267.0044       -987.2914         41.3004         38.5004
  23791540.3724   23791539.9844   23791545.1684   -3971031.31246  -3079386.52546
     -3008.3094      -2344.1374         40.1004         37.6004
  23742291.1094   23742290.8874   23742294.4134   -3871626.21145  -2856128.92345
       575.6454        448.5484         35.9004         34.3004
 10  1  1  1 23  0.0000000  0  9G27G15G12G 9G26G17G18G28G22
  20893270.1394   20893269.5604   20893274.1894  -21461002.20248 -16708205.24747
       751.7764        585.7984         49.6004         46.8004
  21595936.5494   21595936.6004   21595940.2054  -15446649.26548 -12018974.28247
     -2547.5304      -1985.0824         48.4004         45.4004
  23065710.0554   23065709.7674   23065714.8304   -9022937.88647  -7018465.79746
      3322.6544       2589.0784         44.2004         41.4004
  20093213.2784   20093213.2694   20093217.3344  -25552675.90848 -19616581.09747
      1605.2994       1250.8824         50.5004         47.5004
  23042582.0224   23042582.5504   23042587.3184   -1506371.26846  -1149475.62846
      3424.0644       2668.0994         40.6004         38.1004
  22035107.6264   22035107.8704   22035111.3684  -14632324.01248 -11377078.11147
       837.7154        652.7674         48.1004         45.2004
  23122449.5894   23122448.7734   23122449.8814   -5761802.24846  -4480881.06946
     -1283.8064      -1000.3694         41.5004         38.8004
  23808728.3604   23808726.6634   23808732.3224   -3880711.52746  -3009007.47346
     -3013.0694      -2347.8374         40.4004         37.8004
  23739057.3174   23739058.4064   23739061.1314   -3888617.93346  -2869369.20145
       557.1894        434.1714         36.8004         35.0004
 10  1  1  1 23 30.0000000  0  9G27G15G12G 9G26G17G18G28G22
  20889005.6434   20889005.3484   20889009.6314  -21483412.34348 -16725667.69347
       742.2254        578.3594         49.8004         47.0004
  21610519.8674   21610520.0504   21610523.3934  -15370013.96748 -11959258.47047
     -2561.4714      -1995.9524         48.2004         45.2004
  23046764.2694   23046763.8304   23046767.3874   -9122499.45447  -7096046.20146
      3314.7614       2582.9364         44.1004         41.6004
  20084092.2234   20084092.1454   20084096.2384  -25600609.10148 -19653931.63247
      1590.2254       1239.1384         50.7004         47.7004
  23023066.5504   23023065.5614   23023068.7914   -1608938.16646  -1229397.85846
      3413.6664       2659.9984         40.8004         38.1004
  22030380.5834   22030380.7354   22030383.0804  -14657167.24048 -11396436.44547
       818.4924        637.7824         48.2004         45.1004
  23129825.8524   23129825.6804   23129829.0834   -5723034.96746  -4450672.80446
     -1300.6504      -1013.4914         41.5004         39.2004
  23825943.1844   23825942.3134   23825944.7854   -3790250.36946  -2938518.31546
     -3017.6824      -2351.4384         40.4004         37.6004
  23735930.7104   23735930.4724   23735932.7704   -3905056.02146  -2882178.09945
       538.7004        419.7714         36.4004         34.6004
 10  1  1  1 24  0.0000000  0  9G27G15G12G 9G26G17G18G28G22
  20884795.3604   20884795.0194   20884799.6564  -21505535.94748 -16742906.85647
       732.6674        570.9154         49.8004         47.0004
  21625181.9744   21625181.9634   21625185.4044  -15292961.71848 -11899217.76947
     -2575.3314      -2006.7434         48.1004         45.1004
  23027861.4514   23027863.1724   23027867.1524   -9221823.23347  -7173441.33546
      3306.7824       2576.7294         44.2004         41.2004
  20075057.4334   20075056.8114   20075061.0014  -25648089.24248 -19690929.14147
      1575.1004       1227.3514         50.7004         47.7004
  23003608.1094   23003606.2704   23003610.2154   -1711192.86546  -1309076.83246
      3403.2694       2651.9014         40.4004         37.8004
  22025763.0974   22025763.2734   22025765.6484  -14681433.17948 -11415344.96347
       799.2364        622.7814         48.2004         45.2004
  23137299.4184   23137298.0734   23137300.7444   -5683763.66546  -4420071.82946
     -1317.4194      -1026.5624         41.8004         39.3004
  23843183.8274   23843183.2074   23843184.8444   -3699649.38246  -2867920.10046
     -3022.3884      -2355.1154         39.9004         37.1004
  23732909.6314   23732908.2204   23732910.0284   -3920940.32546  -2894555.51845
       520.2714        405.4114         36.6004         34.8004
 10  1  1  1 24 30.0000000  0  9G27G15G12G 9G26G17G18G28G22
  20880639.9494   20880639.9204   20880644.1534  -21527372.35148 -16759922.23247
       723.0834        563.4354         49.8004         47.0004
  21639923.4854   21639923.2884   21639927.3174  -15215494.79848 -11838853.95447
     -2589.1124      -2017.4904         48.1004         45.1004
  23009007.4694   23009007.5554   23009010.6304   -9320907.91747  -7250650.15646
      3298.8104       2570.4844         44.2004         41.6004
  20066107.9994   20066108.0804   20066112.3734  -25695115.24248 -19727572.77047
      1559.9454       1215.5414         50.7004         47.7004
  22984206.7514   22984208.1534   22984211.0134   -1813132.61946  -1388510.41846
      3392.7434       2643.6964         40.3004         37.6004
  22021254.4904   22021254.9634   22021258.5534  -14705121.11448 -11433803.07547
       779.9504        607.7454         48.2004         45.2004
  23144866.8624   23144865.7344   23144870.4024   -5643990.24247  -4389079.56546
     -1334.2074      -1039.6334         42.0004         39.2004
  23860451.1284   23860450.1714   23860452.5374   -3608910.39946  -2797214.40346
     -3026.8814      -2358.6184         39.6004         37.1004
  23729990.3144   23729990.3574   23729991.0704   -3936270.43846  -2906501.12045
       501.7454        390.9674         37.1004         35.3004
 10  1  1  1 25  0.0000000  0  9G27G15G12G 9G26G17G18G28G22
  20876538.8714   20876539.1094   20876543.7574  -21548920.98048 -16776713.35747
       713.4744        555.9564         49.8004         46.8004
  21654743.3934   21654744.3174   21654746.8184  -15137614.97448 -11778168.37147
     -2602.8794      -2028.2264         48.1004         45.1004
  22990198.9694   22990198.9364   22990201.5344   -9419752.00947  -7327671.48846
      3290.7444       2564.2244         44.6004         41.8004
  20057246.4804   20057246.0564   20057249.5684  -25741685.64948 -19763861.39147
      1544.7244       1203.6824         50.7004         47.5004
  22964870.2694   22964868.3804   22964873.9864   -1914754.67846  -1467696.42346
      3382.0524       2635.3624         40.1004         37.6004
  22016857.7894   22016857.3784   22016861.0894  -14728230.08448 -11451810.05747
       760.6324        592.7014         48.1004         45.1004
  23152529.5964   23152528.8424   23152533.0464   -5603716.61746  -4357697.57546
     -1350.7774      -1052.5674         41.6004         38.8004
  23877744.4034   23877742.9104   23877745.1284   -3518035.22646  -2726402.60346
     -3031.4014      -2362.1384         39.4004         37.3004
  23727179.8164   23727179.1204   23727180.7594   -3951045.89846  -2918014.45046
       483.2634        376.5684         38.5004         36.7004
 10  1  1  1 25 30.0000000  0  9G27G15G12G 9G26G17G18G28G22
  20872493.8594   20872493.6404   20872498.0584  -21570181.23848 -16793279.79447
       703.8504        548.4484         49.8004         47.0004
  21669641.5084   21669641.9384   21669645.9624  -15059323.95448 -11717162.39447
     -2616.5404      -2038.8664         48.1004         45.1004
  22971434.6414   22971434.8704   22971438.7274   -9518353.63947  -7404503.89146
      3282.6414       2557.9004         44.4004         41.4004
  20048470.4364   20048470.7744   20048474.8284  -25787798.75448 -19799793.67947
      1529.4534       1191.7814         50.5004         47.5004
  22945590.8954   22945591.8964   22945597.1324   -2016055.86546  -1546632.39946
      3371.3324       2627.0124         40.4004         37.9004
  22012570.2964   22012570.3984   22012573.5574  -14750758.94948 -11469364.99647
       741.2754        577.6184         48.2004         45.2004
  23160290.4534   23160289.4774   23160292.2304   -5562944.40146  -4325927.05746
     -1367.4034      -1065.5184         41.5004         38.8004
  23895062.2134   23895062.3904   23895064.1004   -3427025.42846  -2655485.87546
     -3035.8834      -2365.6364         39.4004         36.9004
  23724474.1784   23724474.3604   23724473.8494   -3965266.53246  -2929095.52846
       464.7714        362.1564         39.0004         36.7004
 10  1  1  1 26  0.0000000  0  9G27G15G12G 9G26G17G18G28G22
  20868503.4094   20868503.0804   20868507.1644  -21591152.73548 -16809621.22047
       694.2334        540.9614         50.0004         47.0004
  21684616.6394   21684617.4764   21684621.7874  -14980623.96847 -11655837.74347
     -2630.1304      -2049.4554         47.9004         44.9004
  22952719.6734   22952718.9634   22952721.3354   -9616711.44147  -7481146.30146
      3274.4944       2551.5494         44.4004         41.8004
  20039782.4464   20039782.9634   20039786.9894  -25833453.41148 -19835368.73247
      1514.1584       1179.8594         50.7004         47.7004
  22926377.0884   22926376.6444   22926381.9514   -2117033.29446  -1625316.07546
      3360.5004       2618.5684         40.3004         37.9004
  22008393.0334   22008393.3164   22008397.0484  -14772706.87848 -11486467.26247
       721.8974        562.5164         48.2004         45.2004
  23168143.2624   23168141.6584   23168145.8234   -5521675.53146  -4293769.53046
     -1383.8784      -1078.3484         41.5004         38.6004
  23912407.0514   23912406.6404   23912409.0044   -3335882.76246  -2584465.59646
     -3040.2694      -2369.0514         39.9004         37.6004
  23721873.1854   23721871.6114   23721873.2644   -3978932.01446  -2939743.94246
       446.2624        347.7374         38.9004         36.6004
 10  1  1  1 26 30.0000000  0  9G27G15G12G 9G26G17G18G28G22
  20864567.1024   20864567.3004   20864571.2704  -21611834.81248 -16825737.11947
       684.5744        533.4344         49.8004         47.0004
  21699672.2544   21699671.9154   21699674.8984  -14901516.39047 -11594195.48447
     -2643.6834      -2060.0134         47.9004         44.7004
  22934046.8474   22934048.5684   22934050.9754   -9714823.54547  -7557597.26246
      3266.2914       2545.1494         44.8004         41.9004
  20031183.4234   20031182.6744   20031186.7294  -25878648.25648 -19870585.48847
      1498.8154       1167.9034         50.7004         47.7004
  22907224.7744   22907224.1084   22907227.3944   -2217684.27046  -1703745.40246
      3349.5524       2610.0374         40.6004         38.3004
  22004328.0684   22004327.8844   22004330.9994  -14794073.01048 -11503116.18147
       702.5044        547.4074         48.2004         45.2004
  23176091.2524   23176089.5744   23176093.7174   -5479912.18546  -4261226.72746
     -1400.3234      -1091.1794         41.6004         38.5004
  23929773.9734   23929773.8514   23929777.6994   -3244609.11146  -2513343.28946
     -3044.6744      -2372.4924         40.1004         37.6004
  23719377.1814   23719377.4234   23719377.8474   -3992042.15546  -2949959.60946
       427.7564        333.3144         38.7004         36.2004
 10  1  1  1 27  0.0000000  0  9G27G15G12G 9G26G17G18G28G22
  20860686.5364   20860686.3854   20860690.9254  -21632226.89948 -16841627.04947
       674.8834        525.8834         49.8004         46.8004
  21714802.1524   21714802.1634   21714806.6784  -14822003.27847 -11532237.21947
     -2657.1754      -2070.5264         47.9004         44.9004
  22915425.5024   22915424.9694   22915427.7824   -9812688.72647  -7633855.82947
      3258.0394       2538.7354         44.9004         42.1004
  20022669.7584   20022669.8904   20022674.2164  -25923382.16948 -19905443.06847
      1483.4234       1155.9124         50.7004         47.7004
  22888133.4204   22888134.0534   22888136.9364   -2318005.81446  -1781918.04446
      3338.5454       2601.4604         40.8004         38.1004
  22000372.9494   22000373.1444   22000375.7314  -14814856.24948 -11519310.88547
       683.0514        532.2514         48.1004         45.1004
  23184130.4744   23184131.5214   23184134.4814   -5437656.03946  -4228299.85846
     -1416.7604      -1103.9704         41.5004         39.0004
  23947166.6624   23947166.6674   23947172.5264   -3153205.75546  -2442119.91046
     -3048.9254      -2375.7904         39.9004         37.4004
  23716990.7504   23716989.4904   23716991.7584   -4004596.37446  -2959742.08246
       409.2304        318.8824         39.0004         36.9004
 10  1  1  1 27 30.0000000  0  9G27G15G12G 9G26G17G18G28G22
  20856861.7584   20856861.5554   20856865.8204  -21652328.41648 -16857290.56647
       665.1834        518.3224         49.8004         47.0004
  21730009.4564   21730010.1434   21730013.6594  -14742086.85147 -11469964.69247
     -2670.5924      -2080.9884         47.9004         44.9004
  22896848.2294   22896848.7044   22896851.9484   -9910305.70647  -7709921.00046
      3249.7744       2532.2954         44.9004         41.9004
  20014245.6784   20014245.6764   20014249.4844  -25967653.67148 -19939940.34447
      1467.9944       1143.8974         50.7004         47.7004
  22869106.8674   22869107.0224   22869109.5424   -2417995.06846  -1859831.72646
      3327.4144       2592.7944         40.6004         38.1004
  21996528.6174   21996528.5024   21996531.9954  -14835055.78048 -11535050.76347
       663.5644        517.0754         48.1004         45.1004
  23192266.6684   23192266.4374   23192268.7904   -5394908.93146  -4194990.47746
     -1433.1264      -1116.7294         41.6004         39.2004
  23964584.5714   23964584.4034   23964589.5604   -3061674.52146  -2370796.87446
     -3053.1864      -2379.0934         39.7004         37.1004
  23714708.1434   23714706.5914   23714707.5414   -4016595.21446  -2969091.80846
       390.6724        304.4244         39.4004         37.1004
 10  1  1  1 28  0.0000000  0  9G27G15G12G 9G26G17G18G28G22
  20853092.1044   20853091.7864   20853096.1224  -21672138.59148 -16872727.07047
       655.4584        510.7504         50.0004         47.0004
  21745293.3794   21745294.3124   21745296.5534  -14661768.96947 -11407379.34147
     -2683.9294      -2091.3754         47.9004         44.7004
  22878319.6104   22878320.2284   22878324.2064  -10007672.81747  -7785791.45347
      3241.3794       2525.7424         44.8004         42.1004
  20005909.3914   20005909.4094   20005913.2194  -26011461.49448 -19974076.31047
      1452.5064       1131.8204         50.8004         47.8004
  22850142.6854   22850142.9114   22850146.2454   -2517648.89346  -1937484.07346
      3316.1734       2584.0294         40.8004         38.3004
  21992795.9174   21992796.5374   21992799.4194  -14854670.81748 -11550335.19447
       644.0874        501.8824         48.2004         45.2004
  23200492.7674   23200493.8544   23200497.5404   -5351673.10046  -4161300.27146
     -1449.3404      -1129.3594         41.6004         39.2004
  23982026.8024   23982026.1154   23982029.4324   -2970017.06046  -2299375.48346
     -3057.3404      -2382.3424         39.4004         37.3004
  23712530.9914   23712528.8544   23712527.9164   -4028037.90946  -2978008.20046
       372.2164        290.0344         38.5004         36.0004
 10  1  1  1 28 30.0000000  0  9G27G15G12G 9G26G17G18G28G22
  20849378.2604   20849377.7504   20849382.0694  -21691657.10148 -16887936.29447
       645.7534        503.1804         50.0004         47.0004
  21760653.7744   21760654.4444   21760658.1144  -14581051.32048 -11344482.46547
     -2697.2554      -2101.7614         48.1004         45.2004
  22859841.8484   22859840.3934   22859843.4424  -10104788.19747  -7861465.74847
      3232.9604       2519.1914         45.1004         42.5004
  19997662.1374   19997661.4884   19997665.2604  -26054803.97148 -20007849.66347
      1436.9744       1119.7144         50.8004         47.7004
  22831242.4674   22831243.7404   22831247.9424   -2616964.52046  -2014872.86046
      3304.9264       2575.2704         40.9004         38.3004
  21989175.4404   21989175.6884   21989178.1504  -14873700.42448 -11565163.45047
       624.5514        486.6584         48.2004         45.2004
  23208813.5364   23208814.7154   23208816.6814   -5307949.86546  -4127230.27346
     -1465.5464      -1141.9844         41.5004         38.6004
  23999494.9934   23999493.9794   23999495.8104   -2878234.80446  -2227856.82246
     -3061.4924      -2385.5834         39.6004         37.1004
  23710455.8264   23710455.7584   23710457.5064   -4038924.26946  -2986491.08545
       353.6474        275.5714         38.2004         35.7004
 10  1  1  1 29  0.0000000  0  9G27G15G12G 9G26G17G18G28G22
  20845719.1684   20845719.0664   20845722.9614  -21710883.26048 -16902917.71547
       635.9794        495.5654         49.8004         47.0004
  21776089.3784   21776089.2154   21776094.7334  -14499935.82548 -11281275.60547
     -2710.4724      -2112.0584         48.2004         45.2004
  22841405.3094   22841406.9174   22841410.9754  -10201650.61547  -7936942.91947
      3224.5124       2512.6144         45.1004         42.3004
  19989502.0664   19989502.0784   19989506.2704  -26097680.43248 -20041259.88747
      1421.4394       1107.6164         50.7004         47.7004
  22812408.0434   22812409.7324   22812413.1744   -2715938.79746  -2091995.66146
      3293.4854       2566.3534         40.9004         38.5004
  21985665.8924   21985665.7864   21985668.3974  -14892143.86448 -11579534.94747
       604.9914        471.4164         48.4004         45.4004
  23217225.5374   23217226.2064   23217228.4624   -5263741.56946  -4092782.30246
     -1481.7074      -1154.5854         41.3004         38.6004
  24016983.9954   24016980.3834   24016984.3444   -2786329.41946  -2156242.25346
     -3065.5434      -2388.7304         39.4004         36.6004
  23708492.8494   23708491.5034   23708492.9664   -4049254.40546  -2994540.57045
       335.0434        261.0794         37.0004         34.6004
 10  1  1  1 29 30.0000000  0  9G27G15G12G 9G26G17G18G28G22
  20842116.3254   20842115.9234   20842119.9934  -21729816.45048 -16917670.85047
       626.1914        487.9364         49.8004         47.0004
  21791600.5854   21791602.0494   21791603.7594  -14418424.77648 -11217760.50947
     -2723.6204      -2122.3034         48.1004         45.1004
  22823022.6804   22823023.1534   22823027.5644  -10298258.60147  -8012221.83747
      3216.0304       2505.9974         45.1004         42.3004
  19981431.9664   19981432.1244   19981435.8174  -26140089.50748 -20074305.92647
      1405.8234       1095.4474         50.7004         47.7004
  22793642.2844   22793640.4414   22793644.2984   -2814569.04446  -2168850.36946
      3281.8804       2557.3114         41.3004         39.0004
  21982267.5584   21982267.9584   21982270.7624  -14910000.46048 -11593449.16947
       585.4194        456.1824         48.4004         45.4004
  23225731.6834   23225730.4184   23225734.0094   -5219050.17146  -4057957.90046
     -1497.7554      -1167.0804         41.3004         38.8004
  24034495.9134   24034493.8994   24034498.6144   -2694302.83546  -2084533.24746
     -3069.5774      -2391.8804         38.7004         36.0004
  23706631.8664   23706629.4274   23706632.4464   -4059028.27945  -3002156.56345
       316.3894        246.5504         35.7004         33.6004
 10  1  1  1 30  0.0000000  0  9G27G15G12G 9G26G17G18G28G22
  20838569.0044   20838569.0514   20838573.0844  -21748456.13148 -16932195.27447
       616.4154        480.3264         49.8004         47.0004
  21807187.3344   21807187.0224   21807190.8414  -14336519.69447 -11153938.36947
     -2736.6974      -2132.4854         47.9004         44.9004
  22804688.9554   22804689.0594   22804692.4944  -10394610.49347  -8087301.18647
      3207.4274       2499.2984         45.5004         42.8004
  19973451.9144   19973451.3184   19973455.1784  -26182029.50948 -20106986.44247
      1390.1564       1083.2404         50.7004         47.8004
  22774937.8184   22774937.3904   22774942.1314   -2912852.22346  -2245434.64346
      3270.3274       2548.3054         41.6004         39.2004
  21978981.3214   21978982.1114   21978984.7644  -14927269.50548 -11606905.55347
       565.8424        440.9154         48.4004         45.6004
  23234326.7624   23234326.0574   23234331.0924   -5173877.58046  -4022758.49846
     -1513.7474      -1179.5264         41.5004         39.0004
  24052030.2774   24052028.4254   24052032.1434   -2602156.72246  -2012731.11846
     -3073.5234      -2394.9554         38.2004         36.0004
  23704878.2704   23704876.6764   23704877.8504   -4068245.49245  -3009338.81745
       297.9584        232.1794         35.9004         34.5004
 10  1  1  1 30 30.0000000  0  9G27G15G12G 9G26G17G18G28G22
  20835078.8934   20835078.1204   20835082.2384  -21766801.68448 -16946490.50147
       606.5904        472.6634         50.0004         47.2004
  21822845.8014   21822847.1924   21822852.6464  -14254222.56348 -11089810.75147
     -2749.7594      -2142.6634         48.1004         45.1004
  22786402.9404   22786403.1224   22786406.2674  -10490704.66847  -8162179.73447
      3198.8634       2492.6144         45.5004         42.8004
  19965559.7104   19965559.8724   19965563.9354  -26223499.05048 -20139300.36447
      1374.4744       1071.0224         50.8004         47.8004
  22756304.1754   22756302.4794   22756306.1654   -3010785.42047  -2321746.20546
      3258.5824       2539.1564         42.0004         39.5004
  21975806.9724   21975807.1124   21975810.1344  -14943950.11348 -11619903.42547
       546.1984        425.6144         48.6004         45.4004
  23243012.7724   23243013.2794   23243017.1994   -5128225.91046  -3987185.77746
     -1529.6794      -1191.9484         41.5004         38.8004
  24069587.8224   24069586.8664   24069590.0114   -2509892.41246  -1940836.84746
     -3077.4204      -2397.9904         38.9004         36.9004
  23703230.3714   23703229.5674   23703228.6354   -4076906.21346  -3016087.36145
       279.4244        217.7324         36.4004         35.0004
 10  1  1  1 31  0.0000000  0  9G27G15G12G 9G26G17G18G28G22
  20831643.4604   20831643.0544   20831647.0524  -21784852.37748 -16960555.97747
       596.7524        465.0004         50.0004         47.0004
  21838583.2114   21838583.2964   21838585.6474  -14171535.56847 -11025379.33547
     -2762.7094      -2152.7644         47.9004         44.9004
  22768164.6094   22768165.1714   22768169.4294  -10586540.08847  -8236856.67647
      3190.1534       2485.8324         45.5004         42.6004
  19957758.2964   19957758.1934   19957761.9924  -26264497.08648 -20171246.88047
      1358.7104       1058.7344         50.8004         47.8004
  22737733.3824   22737733.2874   22737737.5404   -3108365.82647  -2397782.89546
      3246.7554       2529.9334         42.5004         39.9004
  21972744.9924   21972745.1364   21972748.3904  -14960041.67648 -11632442.29347
       526.5644        410.3114         48.6004         45.6004
  23251791.8094   23251791.8434   23251795.5464   -5082097.43146  -3951241.57846
     -1545.5664      -1204.3404         41.5004         38.8004
  24087165.8444   24087165.9524   24087170.0464   -2417511.75146  -1868851.93846
     -3081.2814      -2401.0054         39.4004         36.9004
  23701686.5344   23701686.1934   23701688.2874   -4085010.48446  -3022402.36945
       260.8424        203.2594         37.5004         35.7004
 10  1  1  1 31 30.0000000  0  9G27G15G12G 9G26G17G18G28G22
  20828264.0074   20828264.3304   20828268.5444  -21802607.79048 -16974391.36447
       586.8934        457.3204         50.0004         47.0004
  21854391.5024   21854391.6624   21854394.6424  -14088460.62847 -10960645.61347
     -2775.6074      -2162.8124         47.7004         44.9004
  22749978.6234   22749978.4244   22749981.2654  -10682115.05547  -8311330.64747
      3181.4604       2479.0714         45.5004         42.6004
  19950047.1134   19950046.5904   19950050.2164  -26305022.37148 -20202825.02247
      1342.9324       1046.4384         50.8004         47.7004
  22719231.4504   22719230.7464   22719236.5314   -3205590.58147  -2473542.43046
      3234.8714       2520.6844         42.7004         39.9004
  21969795.8694   21969795.6074   21969798.3344  -14975543.46348 -11644521.60047
       506.8744        394.9744         48.6004         45.6004
  23260660.1184   23260659.8924   23260664.0294   -5035493.86146  -3914927.16546
     -1561.3664      -1216.6484         41.6004         38.8004
  24104769.1694   24104768.3754   24104770.2094   -2325016.12446  -1796777.46946
     -3085.0904      -2403.9654         39.4004         36.9004
  23700250.3714   23700250.3754   23700253.2344   -4092558.08446  -3028283.59846
       242.3134        188.8144         38.2004         36.2004
 10  1  1  1 32  0.0000000  0  9G27G15G12G 9G26G17G18G28G22
  20824942.6874   20824942.2894   20824946.2404  -21820067.18348 -16987996.07947
       577.0314        449.6364         50.0004         47.2004
  21870273.4694   21870273.8424   21870278.1614  -14004999.71448 -10895611.15447
     -2788.4374      -2172.8044         48.1004         45.4004
  22731840.5604   22731841.2814   22731844.8544  -10777428.22747  -8385600.60647
      3172.6924       2472.2214         45.6004         43.0004
  19942425.0054   19942425.1774   19942428.7994  -26345073.48948 -20234033.68447
      1327.1154       1034.1134         50.8004         47.8004
  22700798.5134   22700798.5604   22700803.0264   -3302456.50247  -2549022.37146
      3222.8524       2511.3164         42.3004         39.5004
  21966956.3164   21966957.0354   21966960.7094  -14990454.94048 -11656140.92147
       487.1974        379.6364         48.6004         45.4004
  23269618.2934   23269617.8184   23269622.6454   -4988417.29446  -3878244.15946
     -1577.0984      -1228.9054         41.5004         38.8004
  24122391.0064   24122390.4704   24122393.6904   -2232407.36646  -1724614.79646
     -3088.8084      -2406.8624         39.0004         36.4004
  23698918.2214   23698917.9094   23698919.1894   -4099548.93546  -3033731.00245
       223.7034        174.3144         38.0004         35.7004
 10  1  1  1 32 30.0000000  0  9G27G15G12G 9G26G17G18G28G22
  20821676.1134   20821675.9404   20821680.2944  -21837230.13348 -17001369.80347
       567.1514        441.9384         50.2004         47.2004
  21886227.7944   21886228.3864   21886232.2404  -13921154.76748 -10830277.43847
     -2801.1994      -2182.7414         48.1004         44.7004
  22713753.5424   22713753.8874   22713757.2034  -10872478.00747  -8459665.33347
      3163.8994       2465.3674         45.8004         43.0004
  19934894.4204   19934893.9484   19934898.0414  -26384649.13548 -20264871.84747
      1311.2494       1021.7524         50.8004         47.8004
  22682434.1204   22682433.7594   22682438.2394   -3398960.82747  -2624220.54846
      3210.7604       2501.8924         42.3004         39.5004
  21964232.7794   21964232.9344   21964235.9614  -15004775.48048 -11667299.77847
       467.4924        364.2734         48.6004         45.6004
  23278667.1614   23278666.3374   23278670.1924   -4940869.77246  -3841194.24046
     -1592.7024      -1241.0624         40.9004         37.9004
  24140036.2554   24140036.2644   24140037.8074   -2139686.98246  -1652365.14745
     -3092.5124      -2409.7484         38.3004         35.9004
  23697697.2604   23697695.5294   23697698.4364   -4105983.13746  -3038744.67646
       205.1094        159.8314         38.3004         36.2004
 10  1  1  1 33  0.0000000  0  9G27G15G12G 9G26G17G18G28G22
  20818466.5474   20818466.5584   20818470.8434  -21854095.98548 -17014512.02447
       557.2264        434.2054         50.2004         47.2004
  21902256.5184   21902257.0104   21902258.9674  -13836927.94547 -10764646.14847
     -2813.8964      -2192.6444         47.4004         44.4004
  22695714.3984   22695715.7544   22695720.5914  -10967262.71947  -8533523.51647
      3155.0464       2458.4714         45.8004         42.8004
  19927453.7784   19927453.4174   19927457.3014  -26423747.99848 -20295338.49247
      1295.3384       1009.3524         50.8004         47.7004
  22664140.5044   22664139.4774   22664144.2544   -3495100.54947  -2699134.59546
      3198.5414       2492.3674         42.3004         39.5004
  21961620.9684   21961620.5414   21961622.7424  -15018504.25448 -11677997.49647
       447.7584        348.9034         48.6004         45.6004
  23287803.2104   23287803.8904   23287806.5864   -4892853.65946  -3803779.09846
     -1608.3394      -1253.2414         40.8004         37.9004
  24157698.2014   24157699.3694   24157704.1824   -2046856.55946  -1580029.71745
     -3096.1564      -2412.5884         38.2004         35.9004
  23696574.0184   23696574.9214   23696576.4274   -4111860.95746  -3043324.81345
       186.6874        145.4744         37.8004         35.5004
 10  1  1  1 33 30.0000000  0  9G27G15G12G 9G26G17G18G28G22
  20815314.4184   20815314.0254   20815317.8204  -21870664.01748 -17027422.16747
       547.3044        426.4744         50.2004         47.2004
  21918357.1284   21918356.6294   21918360.7624  -13752321.18147 -10698718.80747
     -2826.5334      -2202.4844         47.5004         44.7004
  22677730.6044   22677730.3574   22677734.6544  -11061781.09147  -8607174.18347
      3146.1244       2451.5284         45.8004         43.0004
  19920104.1354   19920104.0904   19920108.1374  -26462369.27948 -20325432.99247
      1279.4024        996.9344         50.8004         47.8004
  22645915.5604   22645915.5684   22645919.0034   -3590872.79747  -2773762.31446
      3186.2414       2482.7844         42.2004         39.5004
  21959120.0894   21959120.2784   21959123.4364  -15031640.87548 -11688233.82147
       427.9884        333.5014         48.6004         45.6004
  23297029.6774   23297030.0594   23297033.9344   -4844370.68646  -3766000.21246
     -1623.8544      -1265.3304         40.6004         38.1004
  24175385.1714   24175382.2694   24175388.0854   -1953917.59646  -1507609.77045
     -3099.7544      -2415.3894         38.2004         35.7004
  23695564.1204   23695562.8894   23695566.5754   -4117182.21846  -3047471.28346
       168.1104        130.9924         38.0004         36.0004
 10  1  1  1 34  0.0000000  0  9G27G15G12G 9G26G17G18G28G22
  20812217.3084   20812217.3214   20812221.9384  -21886933.84248 -17040099.95347
       537.3524        418.7134         50.0004         47.2004
  21934527.2574   21934528.2304   21934531.5014  -13667336.77747 -10632497.22447
     -2839.1044      -2212.2894         47.4004         44.2004
  22659794.5024   22659794.9974   22659797.6724  -11156031.62047  -8680616.13847
      3137.2104       2444.5794         46.0004         43.0004
  19912846.5204   19912846.1084   19912850.3324  -26500511.32748 -20355154.07148
      1263.4024        984.4724         51.0004         48.0004
  22627761.8684   22627760.8464   22627764.9034   -3686274.54047  -2848101.31546
      3173.9204       2473.1804         42.3004         39.7004
  21956733.3964   21956733.5224   21956736.5904  -15044184.72248 -11698008.23347
       408.2294        318.0964         48.8004         45.8004
  23306344.3124   23306343.5414   23306348.3184   -4795423.23846  -3727859.38846
     -1639.3434      -1277.3964         41.1004         38.6004
  24193090.5764   24193092.1844   24193095.1614   -1860871.84346  -1435106.63545
     -3103.2314      -2418.1094         37.8004         35.5004
  23694657.2974   23694658.1794   23694658.7454   -4121946.96546  -3051184.11146
       149.5794        116.5614         38.3004         36.4004
 10  1  1  1 34 30.0000000  0  9G27G15G12G 9G26G17G18G28G22
  20809178.0964   20809178.3034   20809182.7864  -21902904.99548 -17052545.00147
       527.3794        410.9414         50.0004         47.2004
  21950772.3064   21950772.2454   21950774.6744  -13581976.41947 -10565982.65047
     -2851.5984      -2222.0144         47.2004         44.0004
  22641910.5184   22641910.9324   22641914.7224  -11250013.17047  -8753848.48847
      3128.2094       2437.5554         46.0004         43.3004
  19905679.4154   19905679.4724   19905683.5024  -26538173.01548 -20384500.83348
      1247.3714        971.9794         51.0004         48.0004
  22609677.0344   22609676.9574   22609681.5694   -3781303.00647  -2922149.47646
      3161.3424       2463.3924         42.3004         39.5004
  21954459.1674   21954459.3064   21954462.7914  -15056135.29848 -11707320.36147
       388.4544        302.6904         48.8004         45.8004
  23315746.6554   23315746.7974   23315750.3314   -4746013.27946  -3689358.14046
     -1654.7364      -1289.4004         41.3004         38.6004
  24210816.8124   24210818.0944   24210818.8704   -1767720.61146  -1362521.26245
     -3106.8094      -2420.8984         37.1004         34.6004
  23693856.1014   23693855.0594   23693858.7314   -4126155.33046  -3054463.40145
       130.9414        102.0374         38.0004         35.9004
 10  1  1  1 35  0.0000000  0  9G27G15G12G 9G26G17G18G28G22
  20806196.4844   20806196.1434   20806200.3744  -21918576.82148 -17064756.81447
       517.3934        403.1564         50.2004         47.2004
  21967087.3114   21967086.9694   21967090.8634  -13496242.14247 -10499176.70947
     -2864.0244      -2231.7054         47.2004         44.4004
  22624077.2294   22624078.6284   22624081.3734  -11343723.72147  -8826869.67647
      3119.1394       2430.4974         46.0004         43.2004
  19898604.2834   19898604.3474   19898607.8984  -26575352.93948 -20413472.19648
      1231.2754        959.4344         51.0004         48.0004
  22591666.3254   22591664.3814   22591669.6794   -3875955.25447  -2995904.46146
      3148.8044       2453.6154         42.2004         39.3004
  21952297.8354   21952297.8954   21952300.9314  -15067491.98448 -11716169.71047
       368.6304        287.2354         48.6004         45.6004
  23325237.2914   23325237.4854   23325240.7214   -4696143.46346  -3650498.61246
     -1670.0074      -1301.3054         40.9004         38.1004
  24228562.5894   24228563.6714   24228565.1284   -1674465.67646  -1289855.09645
     -3110.2554      -2423.5804         36.4004         34.5004
  23693162.7704   23693163.5244   23693163.1814   -4129807.46846  -3057309.27546
       112.4374         87.6124         38.5004         36.7004
 10  1  1  1 35 30.0000000  0  9G27G15G12G 9G26G17G18G28G22
  20803271.1684   20803271.0624   20803274.8914  -21933948.56848 -17076734.79447
       507.3854        395.3634         50.0004         47.0004
  21983471.8694   21983472.3634   21983475.7364  -13410136.11147 -10432081.13447
     -2876.3784      -2241.3394         47.4004         44.4004
  22606297.2014   22606297.1714   22606300.8774  -11437162.24247  -8899678.86047
      3110.0524       2423.4034         46.0004         43.2004
  19891621.1204   19891620.9004   19891624.7444  -26612050.05148 -20442067.35948
      1215.1764        946.8894         51.0004         48.0004
  22573724.4954   22573725.9644   22573730.8434   -3970228.41347  -3069364.06746
      3136.0654       2443.6814         42.3004         39.9004
  21950249.6674   21950249.8904   21950252.8484  -15078254.31648 -11724555.94147
       348.8264        271.8094         48.6004         45.6004
  23334816.0124   23334814.0934   23334817.5674   -4645815.21246  -3611281.82546
     -1685.2054      -1313.1564         40.8004         38.3004
  24246328.3784   24246327.6194   24246332.6464   -1581108.84646  -1217109.47545
     -3113.5674      -2426.1504         36.6004         34.8004
  23692570.7134   23692571.0354   23692574.2104   -4132903.81746  -3059722.00446
        93.9384         73.1914         38.7004         36.6004
 10  1  1  1 36  0.0000000  0  9G27G15G12G 9G26G17G18G28G22
  20800403.1754   20800402.9494   20800407.1954  -21949019.74548 -17088478.56347
       497.3614        387.5584         50.0004         47.0004
  21999928.4534   21999927.9044   21999930.6094  -13323660.45847 -10364697.49147
     -2888.6344      -2250.8844         47.0004         43.9004
  22588568.4334   22588568.4894   22588573.0194  -11530326.85747  -8972274.66247
      3100.9154       2416.3034         46.3004         43.3004
  19884729.9034   19884729.9894   19884733.8454  -26648263.28648 -20470285.45448
      1199.0364        934.3154         51.0004         48.0004
  22555858.0664   22555858.2314   22555864.0254   -4064119.52247  -3142525.95446
      3123.2734       2433.7124         42.5004         39.9004
  21948315.8534   21948315.5634   21948317.7524  -15088422.03448 -11732478.83247
       328.9944        256.3634         48.6004         45.8004
  23344478.0154   23344478.3994   23344482.2904   -4595031.21146  -3571709.92646
     -1700.3604      -1324.9504         40.8004         38.3004
  24264113.7614   24264112.7794   24264115.9994   -1487651.38146  -1144285.46145
     -3116.9494      -2428.7934         37.0004         35.3004
  23692090.6214   23692089.7414   23692091.4914   -4135444.17946  -3061701.52746
        75.4714         58.8094         39.6004         37.6004
 10  1  1  1 36 30.0000000  0  9G27G15G12G 9G26G17G18G28G22
  20797592.6194   20797591.9984   20797596.4124  -21963789.76148 -17099987.67047
       487.3034        379.7174         50.0004         47.0004
  22016454.4184   22016453.6104   22016457.3734  -13236817.11547 -10297027.37147
     -2900.8944      -2260.4344         47.0004         44.2004
  22570892.3934   22570891.9074   22570895.7484  -11623216.72747  -9044656.36147
      3091.7654       2409.1764         46.3004         43.3004
  19877931.1234   19877931.1204   19877934.9304  -26683991.23948 -20498125.41548
      1182.8324        921.6864         51.0004         48.0004
  22538065.6574   22538066.0854   22538070.2234   -4157625.52447  -3215387.76946
      3110.3804       2423.6774         42.7004         40.0004
  21946493.3884   21946493.8204   21946496.5864  -15097994.55548 -11739937.93947
       309.1574        240.9054         48.8004         45.8004
  23354229.6624   23354227.7084   23354230.0254   -4543793.56546  -3531784.54146
     -1715.4694      -1336.7124         40.3004         37.4004
  24281916.8144   24281916.9024   24281920.4244   -1394094.87146  -1071384.28145
     -3120.1864      -2431.3224         37.3004         35.2004
  23691710.9764   23691711.0054   23691712.8284   -4137429.04846  -3063248.14346
        56.9334         44.3644         40.1004         37.9004
 10  1  1  1 37  0.0000000  0  9G27G15G12G 9G26G17G18G28G22
  20794839.2844   20794839.0614   20794843.5124  -21978257.97148 -17111261.60047
       477.2164        371.8574         50.0004         47.0004
  22033047.8774   22033049.1114   22033052.9874  -13149608.19547 -10229072.39647
     -2913.0174      -2269.8844         47.4004         44.5004
  22553267.6654   22553267.9094   22553272.1844  -11715830.42047  -9116822.83247
      3082.5034       2401.9484         46.3004         43.2004
  19871224.5104   19871224.4074   19871228.8894  -26719232.88248 -20525586.43148
      1166.6034        909.0354         51.0004         48.0004
  22520345.8054   22520345.5464   22520349.7904   -4250743.68547  -3287947.37246
      3097.4624       2413.6164         42.9004         39.9004
  21944784.9364   21944785.5304   21944787.9524  -15106971.37148 -11746932.84447
       289.2874        225.4134         48.6004         45.4004
  23364063.4034   23364063.6404   23364065.8674   -4492104.76946  -3491507.60746
     -1730.4464      -1348.3864         40.3004         37.6004
  24299735.4724   24299737.1164   24299739.9604   -1300441.01746   -998407.27045
     -3123.3754      -2433.7924         37.3004         35.2004
  23691438.3084   23691438.8544   23691442.3444   -4138858.53146  -3064362.04446
        38.3794         29.9064         40.8004         38.5004
 10  1  1  1 37 30.0000000  0  9G27G15G12G 9G26G17G18G28G22
  20792143.5574   20792143.2054   20792147.6334  -21992423.84248 -17122299.93747
       467.1494        364.0104         50.0004         47.2004
  22049713.4394   22049713.7134   22049716.4394  -13062035.90347 -10160834.25347
     -2925.0904      -2279.2874         47.2004         44.0004
  22535698.1354   22535697.4594   22535700.9444  -11808165.96147  -9188772.57647
      3073.1454       2394.6684         46.2004         43.3004
  19864611.5184   19864611.4564   19864615.4474  -26753986.99348 -20552667.55548
      1150.3204        896.3504         51.0004         48.2004
  22502701.5184   22502700.7924   22502704.9914   -4343470.82647  -3360202.27846
      3084.4834       2403.4834         42.9004         40.2004
  21943190.7074   21943190.8874   21943192.8834  -15115352.09448 -11753463.27247
       269.4214        209.9474         48.6004         45.6004
  23373986.8024   23373984.3074   23373988.0454   -4439966.64146  -3450880.58146
     -1745.3604      -1360.0214         40.1004         37.3004
  24317578.1344   24317577.0424   24317580.2744   -1206691.22646   -925355.48845
     -3126.5894      -2436.2964         37.3004         35.2004
  23691273.7074   23691272.8204   23691273.7224   -4139732.45746  -3065043.00646
        19.8654         15.4774         40.8004         38.3004
 10  1  1  1 38  0.0000000  0  9G27G15G12G 9G26G17G18G28G22
  20789504.9264   20789504.9804   20789509.8054  -22006286.72848 -17133102.18247
       457.0294        356.1334         50.0004         47.0004
  22066447.3644   22066447.5244   22066450.3304  -12974102.30047 -10092314.55447
     -2937.1074      -2288.6444         47.2004         44.5004
  22518180.2614   22518179.4574   22518183.6594  -11900222.27747  -9260504.74447
      3063.9094       2387.4594         46.2004         43.5004
  19858090.9014   19858090.8154   19858094.8494  -26788252.34248 -20579367.82148
      1134.0074        883.6454         51.0004         48.0004
  22485129.2774   22485129.2264   22485134.5114   -4435804.27447  -3432150.42646
      3071.0964       2393.0644         42.9004         40.0004
  21941709.8844   21941709.9844   21941712.0754  -15123136.24448 -11759528.83847
       249.5334        194.4484         48.6004         45.6004
  23383991.8124   23383992.7234   23383995.6524   -4387381.61746  -3409905.27246
     -1760.2984      -1371.6624         40.1004         37.6004
  24335435.7864   24335434.1494   24335437.8424   -1112847.06846   -852230.20445
     -3129.6784      -2438.7024         37.1004         35.0004
  23691212.0034   23691212.1524   23691215.0634   -4140051.80646  -3065291.86046
         1.4434          1.1394         41.1004         38.5004
 10  1  1  1 38 30.0000000  0  9G27G15G12G 9G26G17G18G28G22
  20786924.9664   20786925.0214   20786929.3614  -22019846.04548 -17143667.88547
       446.9094        348.2444         50.0004         47.2004
  22083248.0204   22083248.3944   22083252.4754  -12885809.52947 -10023514.99947
     -2949.0294      -2297.9524         47.4004         44.5004
  22500715.0024   22500715.1844   22500719.7514  -11991998.02547  -9332018.27347
      3054.4234       2380.0584         46.3004         43.5004
  19851663.8454   19851663.1864   19851667.7604  -26822027.81448 -20605686.36348
      1117.6814        870.9204         51.0004         48.0004
  22467633.9754   22467634.1254   22467639.0784   -4527741.02147  -3503789.44146
      3057.9714       2382.8284         42.7004         39.9004
  21940340.9804   21940341.0324   21940344.4814  -15130323.88148 -11765129.57947
       229.6394        178.9424         48.4004         45.4004
  23394084.7874   23394084.8964   23394087.8694   -4334351.93246  -3368583.49346
     -1775.0924      -1383.1824         40.3004         37.8004
  24353310.3714   24353310.7374   24353315.7094   -1018909.91646   -779032.47545
     -3132.7474      -2441.0934         37.1004         35.0004
  23691257.4434   23691256.0124   23691259.2624   -4139816.71946  -3065108.65646
       -17.0704        -13.3044         41.5004         38.6004
 10  1  1  1 39  0.0000000  0  9G27G15G12G 9G26G17G18G28G22
  20784402.8114   20784402.8594   20784407.1004  -22033101.21548 -17153996.58147
       436.7804        340.3474         50.0004         47.2004
  22100116.6984   22100117.6384   22100120.7064  -12797159.65647  -9954437.19847
     -2960.9244      -2307.2124         47.2004         44.0004
  22483303.6374   22483304.9934   22483308.1704  -12083491.65247  -9403311.98147
      3045.0384       2372.7524         46.3004         43.5004
  19845329.2374   19845329.5684   19845333.9244  -26855312.26748 -20631622.30648
      1101.2794        858.1414         51.0004         48.0004
  22450215.7044   22450215.9904   22450218.4464   -4619278.29347  -3575117.20446
      3044.6154       2372.4244         42.7004         39.7004
  21939087.3734   21939087.4074   21939090.2774  -15136914.39648 -11770265.03547
       209.7234        163.4194         48.6004         45.8004
  23404260.1224   23404260.2844   23404262.6354   -4280879.79146  -3326916.91846
     -1789.8014      -1394.6494         40.6004         38.3004
  24371202.0724   24371203.2014   24371207.6874    -924881.41346   -705763.55245
     -3135.8144      -2443.4934         37.3004         35.5004
  23691406.8184   23691408.0184   23691409.0874   -4139027.24046  -3064493.46746
       -35.5434        -27.7004         41.5004         39.0004
 10  1  1  1 39 30.0000000  0  9G27G15G12G 9G26G17G18G28G22
  20781939.0254   20781938.5094   20781942.8664  -22046051.97248 -17164088.07347
       426.6064        332.4204         50.2004         47.3004
  22117055.4844   22117055.2604   22117058.8414  -12708154.68647  -9885082.66647
     -2972.7444      -2316.4174         47.2004         44.4004
  22465948.8564   22465948.6904   22465951.5344  -12174701.78947  -9474384.78747
      3035.6144       2365.4164         46.5004         43.7004
  19839089.3574   19839089.2484   19839093.5064  -26888104.46748 -20657174.66248
      1084.8434        845.3394         51.0004         48.0004
  22432875.0364   22432874.3874   22432878.4754   -4710413.05847  -3646131.29846
      3031.0484       2361.8454         42.7004         40.2004
  21937946.4684   21937946.3044   21937949.3714  -15142907.62548 -11774935.05747
       189.8024        147.8934         48.6004         45.6004
  23414518.2474   23414517.7474   23414522.5334   -4226967.48146  -3284907.37346
     -1804.4394      -1406.0474         40.6004         37.9004
  24389116.2164   24389114.0614   24389118.3854    -830762.95346   -632424.47845
     -3138.7684      -2445.8014         37.5004         35.5004
  23691663.2464   23691662.3994   23691664.4904   -4137683.73446  -3063446.59446
       -54.0044        -42.0854         40.9004         38.3004
 10  1  1  1 40  0.0000000  0  9G27G15G12G 9G26G17G18G28G22
  20779531.5964   20779531.8904   20779536.4454  -22058697.36548 -17173941.62147
       416.4164        324.4774         50.2004         47.2004
  22134058.8634   22134059.1264   22134062.9654  -12618796.76747  -9815453.15547
     -2984.4524      -2325.5504         47.2004         44.4004
  22448645.4074   22448645.4114   22448649.5994  -12265626.97847  -9545235.54347
      3026.0664       2357.9744         46.7004         43.9004
  19832943.2914   19832943.1694   19832947.1024  -26920403.25948 -20682342.54348
      1068.3804        832.5044         50.8004         48.0004
  22415608.6754   22415609.3174   22415611.7314   -4801142.32847  -3716829.43646
      3017.5084       2351.2984         42.9004         40.4004
  21936920.6854   21936920.0134   21936922.3964  -15148303.34348 -11779139.48747
       169.8774        132.3704         48.6004         45.6004
  23424861.6944   23424859.5734   23424865.7524   -4172617.23346  -3242556.57746
     -1818.9704      -1417.3794         40.4004         37.6004
  24407041.2484   24407040.7984   24407045.0274    -736556.28346   -559016.60945
     -3141.6654      -2448.0424         37.3004         35.2004
  23692024.1654   23692024.7064   23692024.6524   -4135786.51546  -3061968.26846
       -72.4554        -56.4554         40.9004         38.5004
 10  1  1  1 40 30.0000000  0  9G27G15G12G 9G26G17G18G28G22
  20777184.4434   20777183.7084   20777188.3324  -22071036.89048 -17183556.82747
       406.1924        316.5124         50.2004         47.3004
  22151129.8864   22151130.1914   22151134.3084  -12529088.42247  -9745550.55747
     -2996.1294      -2334.6474         47.4004         44.4004
  22431396.8594   22431397.3004   22431402.2204  -12356266.05447  -9615863.36847
      3016.5034       2350.5234         46.9004         44.0004
  19826891.3074   19826891.1894   19826895.2694  -26952207.45348 -20707125.02748
      1051.8814        819.6464         51.0004         48.2004
  22398420.3994   22398420.4044   22398424.0084   -4891463.40447  -3787209.51746
      3003.8754       2340.6954         43.2004         40.2004
  21936006.2394   21936006.8324   21936010.0054  -15153101.24048 -11782878.09547
       149.9564        116.8434         48.6004         45.6004
  23435284.8554   23435286.6894   23435290.0534   -4117831.59746  -3199866.51646
     -1833.4384      -1428.6634         40.1004         37.6004
  24424987.1264   24424986.5534   24424986.8274    -642263.10446   -485541.39245
     -3144.5154      -2450.2704         37.3004         35.7004
  23692492.0424   23692490.0984   23692491.9224   -4133336.39646  -3060059.11346
       -90.8644        -70.8084         40.6004         37.9004
 10  1  1  1 41  0.0000000  0  9G27G15G12G 9G26G17G18G28G22
  20774894.5324   20774894.3494   20774898.4514  -22083069.92648 -17192933.21947
       395.9864        308.5654         50.2004         47.3004
  22168267.0414   22168267.4034   22168270.8644  -12439031.34947  -9675376.22647
     -3007.7084      -2343.6634         47.2004         44.4004
  22414203.1684   22414203.3924   22414208.1764  -12446617.40847  -9686266.99047
      3006.9054       2343.0424         46.7004         43.5004
  19820933.5634   19820933.1714   19820937.4004  -26983515.92148 -20731521.23848
      1035.3524        806.7714         51.0004         48.0004
  22381312.6304   22381311.4424   22381316.0024   -4981373.43147  -3857269.25146
      2990.1334       2330.0024         43.2004         40.4004
  21935208.9154   21935208.7544   21935211.3004  -15157300.80148 -11786150.48347
       130.0074        101.3034         48.9004         45.9004
  23445793.8064   23445794.0054   23445797.4974   -4062613.19846  -3156839.27146
     -1847.7874      -1439.8334         40.3004         37.6004
  24442947.7044   24442945.5654   24442948.3524    -547884.45946   -411999.58445
     -3147.3914      -2452.5184         37.8004         35.9004
  23693065.0484   23693062.6074   23693063.6114   -4130333.65946  -3057719.37246
      -109.2864        -85.1574         39.9004         37.3004
 10  1  1  1 41 30.0000000  0  9G27G15G12G 9G26G17G18G28G22
  20772662.8194   20772662.7294   20772666.9734  -22094796.07548 -17202070.47447
       385.7484        300.5854         50.2004         47.3004
  22185471.7994   22185471.5094   22185474.1224  -12348628.13447  -9604932.17347
     -3019.1994      -2352.6184         47.5004         44.5004
  22397064.8914   22397064.7294   22397069.4654  -12536679.65947  -9756445.37447
      2997.1944       2335.4774         46.5004         43.5004
  19815070.4894   19815070.0544   19815074.2654  -27014327.86148 -20755530.54148
      1018.7694        793.8504         51.0004         48.2004
  22364281.1124   22364280.9194   22364284.8854   -5070869.49947  -3927006.44746
      2976.2744       2319.1764         43.2004         40.7004
  21934522.4654   21934522.4284   21934524.8994  -15160902.37648 -11788956.89047
       110.0774         85.7734         48.8004         45.6004
  23456383.5944   23456383.8534   23456386.9034   -4006964.42546  -3113476.59746
     -1862.0754      -1450.9704         40.3004         37.8004
  24460921.2754   24460921.4984   24460923.4124    -453421.98146   -338392.51345
     -3150.1384      -2454.6474         37.6004         35.5004
  23693737.1144   23693737.8854   23693739.4044   -4126778.64046  -3054949.22146
      -127.7214        -99.5304         39.2004         36.7004
 10  1  1  1 42  0.0000000  0  9G27G15G12G 9G26G17G18G28G22
  20770490.0714   20770489.9424   20770494.0004  -22106214.73848 -17210968.12647
       375.4884        292.5864         50.2004         47.2004
  22202738.8544   22202739.3204   22202742.4994  -12257880.55047  -9534219.76647
     -3030.6524      -2361.5484         47.2004         44.2004
  22379982.3804   22379983.1014   22379985.6814  -12626451.63647  -9826397.54847
      2987.5394       2327.9544         46.5004         43.5004
  19809302.3484   19809301.9084   19809305.7424  -27044641.96648 -20779151.91048
      1002.1624        780.9064         51.2004         48.2004
  22347328.3734   22347330.1174   22347334.3644   -5159948.49247  -3996418.65546
      2962.3354       2308.3104         43.4004         40.7004
  21933950.0564   21933951.2154   21933954.3144  -15163905.32648 -11791296.84347
        90.1174         70.2234         48.8004         45.9004
  23467055.3544   23467055.2164   23467057.6494   -3950887.20246  -3069780.11446
     -1876.3044      -1462.0444         40.3004         37.8004
  24478908.9024   24478910.7894   24478914.0924    -358877.19846   -264721.28845
     -3152.8474      -2456.7634         37.1004         35.0004
  23694518.6314   23694519.1894   23694520.8454   -4122671.74946  -3051749.02546
      -146.0944       -113.8424         39.2004         37.1004
 10  1  1  1 42 30.0000000  0  9G27G15G12G 9G26G17G18G28G22
  20768375.8114   20768375.6554   20768379.5904  -22117325.27048 -17219625.68947
       365.2074        284.5744         50.2004         47.3004
  22220074.1534   22220073.1664   22220075.6744  -12166791.04147  -9463240.94847
     -3042.0134      -2370.3934         47.0004         43.9004
  22362955.9614   22362956.1614   22362958.6604  -12715932.16647  -9896122.60747
      2977.7754       2320.3484         46.9004         44.0004
  19803628.3924   19803628.1424   19803631.9064  -27074456.97648 -20802384.38648
       985.5064        767.9254         51.2004         48.2004
  22330458.3264   22330458.1194   22330463.5114   -5248607.58147  -4065503.66746
      2948.2644       2297.3514         43.7004         41.1004
  21933494.1464   21933493.5044   21933496.4084  -15166309.60548 -11793170.30247
        70.1654         54.6694         48.9004         45.9004
  23477804.9254   23477805.4964   23477808.7694   -3894384.07646  -3025751.75746
     -1890.4824      -1473.1084         40.1004         37.4004
  24496917.5884   24496917.6214   24496918.7834    -264251.80546   -190987.28045
     -3155.5384      -2458.8604         36.8004         34.5004
  23695407.0274   23695406.4064   23695407.6224   -4118013.24346  -3048119.04246
      -164.4384       -128.1264         39.4004         37.3004
 10  1  1  1 43  0.0000000  0  9G27G15G12G 9G26G17G18G28G22
  20766320.1114   20766320.0944   20766324.3654  -22128126.90248 -17228042.54147
       354.8974        276.5424         50.2004         47.3004
  22237470.5004   22237471.5544   22237475.0764  -12075361.57447  -9391997.20547
     -3053.3064      -2379.1994         46.9004         44.0004
  22345982.1594   22345982.9574   22345986.8134  -12805119.47847  -9965619.18647
      2968.0164       2312.7354         47.0004         44.0004
  19798049.7014   19798049.4594   19798053.1544  -27103771.95148 -20825227.22748
       968.8244        754.9264         51.2004         48.0004
  22313669.2354   22313668.8054   22313672.1764   -5336843.90447  -4134259.26646
      2934.1384       2286.3444         44.1004         41.4004
  21933149.0024   21933149.6294   21933153.5304  -15168115.35248 -11794577.35847
        50.2094         39.1314         48.9004         45.9004
  23488641.0214   23488640.5284   23488643.1284   -3837457.26846  -2981393.23946
     -1904.6364      -1484.1274         40.1004         37.8004
  24514939.4194   24514939.5314   24514941.9154    -169546.88846   -117191.30745
     -3158.1104      -2460.8734         36.4004         34.6004
  23696395.2204   23696396.8264   23696399.5424   -4112803.76246  -3044059.70646
      -182.8744       -142.5014         39.6004         37.4004
 10  1  1  1 43 30.0000000  0  9G27G15G12G 9G26G17G18G28G22
  20764323.5084   20764323.5504   20764327.7194  -22138619.12948 -17236218.29947
       344.5794        268.5034         50.2004         47.3004
  22254932.3994   22254933.1054   22254937.9564  -11983594.34347  -9320490.30347
     -3064.5524      -2387.9564         46.9004         43.9004
  22329067.2564   22329067.1974   22329070.8474  -12894012.54747 -10034886.48947
      2958.1964       2305.0914         47.2004         44.0004
  19792565.6324   19792566.0984   19792570.2914  -27132585.87648 -20847679.63048
       952.0874        741.8894         51.0004         48.0004
  22296957.1414   22296957.4434   22296961.9424   -5424654.68147  -4202683.23946
      2919.9384       2275.2744         44.1004         41.4004
  21932919.6744   21932919.6164   21932923.0714  -15169322.32648 -11795517.83247
        30.2364         23.5544         48.8004         45.8004
  23499553.5194   23499553.1474   23499555.5904   -3780109.22546  -2936706.53846
     -1918.6414      -1495.0394         40.1004         37.6004
  24532979.9484   24532978.1614   24532980.0764     -74764.07046    -43334.58345
     -3160.7294      -2462.8984         36.8004         34.8004
  23697494.1174   23697493.5054   23697494.9424   -4107043.98146  -3039571.55946
      -201.0684       -156.6774         39.7004         37.6004
 10  1  1  1 44  0.0000000  0  9G27G15G12G 9G26G17G18G28G22
  20762385.9244   20762385.6534   20762390.1234  -22148801.55048 -17244152.65047
       334.2264        260.4344         50.2004         47.3004
  22272461.5734   22272461.1024   22272464.6104  -11891491.65847  -9248721.96447
     -3075.6604      -2396.6134         46.9004         43.9004
  22312208.4404   22312208.3994   22312211.0304  -12982609.90747 -10103923.38247
      2948.2704       2297.3424         47.0004         44.2004
  19787179.0614   19787178.7594   19787182.9054  -27160897.75348 -20869740.82748
       935.3514        728.8444         51.2004         48.2004
  22280329.0464   22280329.5094   22280334.1154   -5512036.97347  -4270773.34146
      2905.4974       2264.0134         44.1004         41.4004
  21932804.4144   21932804.8714   21932807.2334  -15169930.10948 -11795991.43047
        10.2844          8.0064         48.9004         45.9004
  23510546.9014   23510545.9584   23510550.3364   -3722342.74146  -2891693.74446
     -1932.5144      -1505.8564         40.6004         38.3004
  24551027.5354   24551028.8294   24551031.0154      20094.97846     30581.56145
     -3163.1814      -2464.8224         36.6004         34.6004
  23698694.9444   23698694.1224   23698696.4984   -4100734.29246  -3034654.83846
      -219.4744       -171.0174         39.7004         37.6004
 10  1  1  1 44 30.0000000  0  9G27G15G12G 9G26G17G18G28G22
  20760507.7294   20760507.4194   20760511.4134  -22158673.43248 -17251845.02047
       323.8774        252.3694         50.2004         47.3004
  22290049.9894   22290050.7924   22290054.3664  -11799055.59647  -9176693.88447
     -3086.7444      -2405.2634         46.7004         43.7004
  22295404.9714   22295405.1554   22295408.5864  -13070909.80347 -10172728.46647
      2938.3744       2289.6464         47.0004         44.0004
  19781886.2524   19781886.8774   19781891.1254  -27188706.15248 -20891409.70248
       918.5514        715.7574         51.2004         48.2004
  22263783.4964   22263784.1724   22263787.5574   -5598987.92547  -4338527.33046
      2891.1664       2252.8664         44.4004         41.9004
  21932802.6524   21932802.4034   21932805.1154  -15169938.98748 -11795998.34347
        -9.6864         -7.5484         48.8004         45.4004
  23521619.6804   23521619.0904   23521621.2814   -3664159.66246  -2846356.34246
     -1946.3774      -1516.6544         40.6004         38.1004
  24569092.3684   24569088.0384   24569097.3754     115029.09746    104556.25545
     -3165.7354      -2466.8104         36.3004         34.3004
  23699998.6574   23699999.9304   23700001.7954   -4093875.24046  -3029310.15946
      -237.8034       -185.2974         39.9004         37.6004
 10  1  1  1 45  0.0000000  0  9G27G15G12G 9G26G17G18G28G22
  20758688.4274   20758688.1664   20758692.2104  -22168234.33748 -17259295.07147
       313.5164        244.2984         50.2004         47.3004
  22307703.9204   22307704.0494   22307707.2174  -11706288.65447  -9104407.97147
     -3097.7074      -2413.8034         46.9004         43.9004
  22278659.4604   22278659.6244   22278661.8514  -13158911.31647 -10241301.07147
      2928.3564       2281.8424         47.0004         44.2004
  19776691.3764   19776690.9234   19776695.1184  -27216010.28648 -20912685.63648
       901.7204        702.6384         51.2004         48.2004
  22247319.5774   22247319.2224   22247323.1914   -5685504.57547  -4405942.88846
      2876.6154       2241.5154         44.6004         41.6004
  21932915.3394   21932915.5394   21932918.1764  -15169348.85048 -11795538.48747
       -29.6464        -23.1104         48.6004         45.9004
  23532769.4274   23532768.1844   23532772.0404   -3605563.07146  -2800696.75246
     -1960.0864      -1527.3354         40.3004         37.3004
  24587168.0054   24587169.4964   24587175.6704     210036.49145    178587.99545
     -3168.0794      -2468.6294         35.9004         34.1004
  23701409.0044   23701408.4284   23701410.3864   -4086467.50046  -3023537.85846
      -256.0364       -199.5054         39.9004         37.4004
 10  1  1  1 45 30.0000000  0  9G27G15G12G 9G26G17G18G28G22
  20756927.6334   20756927.8334   20756932.2884  -22177483.77848 -17266502.42747
       303.1244        236.2024         50.3004         47.3004
  22325418.6444   22325418.9244   22325423.2194  -11613192.81847  -9031865.76847
     -3108.6794      -2422.3514         46.7004         43.7004
  22261970.1964   22261969.9104   22261972.4554  -13246613.24947 -10309640.21247
      2918.3624       2274.0574         47.0004         44.2004
  19771591.0634   19771591.0804   19771595.6664  -27242809.24948 -20933567.93448
       884.8814        689.5174         51.0004         48.2004
  22230940.0844   22230939.6404   22230943.1584   -5771584.13347  -4473017.87646
      2862.0584       2230.1734         44.4004         41.6004
  21933142.2334   21933141.9734   21933144.5794  -15168159.71148 -11794611.86147
       -49.6434        -38.6774         49.1004         46.1004
  23543995.1894   23543996.3444   23544001.3404   -3546555.12746  -2754716.55546
     -1973.7824      -1538.0074         39.7004         37.1004
  24605264.4984   24605265.8484   24605268.1094     305116.12045    252676.00345
     -3170.4564      -2470.4884         35.7004         34.1004
  23702924.8774   23702922.7364   23702925.3374   -4078511.70046  -3017338.55146
      -274.3464       -213.7734         39.7004         37.1004
 10  1  1  1 46  0.0000000  0  9G27G15G12G 9G26G17G18G28G22
  20755226.8784   20755227.2634   20755231.7014  -22186421.14148 -17273466.59847
       292.6814        228.0584         50.3004         47.5004
  22343197.0144   22343197.1584   22343200.2304  -11519770.35047  -8959069.05447
     -3119.4914      -2430.7744         46.5004         43.7004
  22245337.0084   22245337.5944   22245340.9234  -13334014.06147 -10377744.70447
      2908.3374       2266.2364         47.0004         44.2004
  19766587.4704   19766588.0054   19766592.4844  -27269101.68848 -20954055.54548
       867.9544        676.3244         51.2004         48.4004
  22214641.9744   22214641.8374   22214647.6524   -5857223.60847  -4539749.92746
      2847.2604       2218.6404         44.1004         40.9004
  21933481.6294   21933481.6354   21933484.5264  -15166371.59048 -11793218.51747
       -69.6194        -54.2564         48.9004         45.8004
  23555302.8744   23555303.2134   23555307.8074   -3487138.25246  -2708417.77946
     -1987.3544      -1548.5874         39.7004         37.3004
  24623371.3144   24623369.2684   24623374.1304     400266.22045    326818.91145
     -3172.8394      -2472.3364         35.4004         34.0004
  23704540.5334   23704539.8164   23704543.0944   -4070008.51146  -3010712.69146
      -292.5294       -227.9494         39.0004         36.2004
 10  1  1  1 46 30.0000000  0  9G27G15G12G 9G26G17G18G28G22
  20753586.6074   20753586.2144   20753590.0244  -22195045.80648 -17280187.10847
       282.2694        219.9514         50.3004         47.3004
  22361036.3974   22361036.3744   22361039.9484  -11426023.32647  -8886019.42447
     -3130.3084      -2439.2044         46.5004         43.5004
  22228763.3224   22228763.7274   22228766.8544  -13421112.47947 -10445613.58047
      2898.2244       2258.3604         47.2004         44.4004
  19761681.4544   19761681.1624   19761685.2774  -27294886.88348 -20974147.90348
       851.0374        663.1484         51.2004         48.2004
  22198431.7494   22198430.7924   22198434.7214   -5942420.30547  -4606136.97346
      2832.4784       2207.1444         43.7004         40.9004
  21933935.7254   21933935.7414   21933938.2754  -15163984.59448 -11791358.52347
       -89.5744        -69.8004         48.8004         45.6004
  23566689.2124   23566686.4684   23566691.2694   -3427315.15446  -2661802.45346
     -2000.8024      -1559.0504         39.9004         37.6004
  24641492.6684   24641491.4834   24641491.6874     495485.35445    401015.63745
     -3175.0534      -2474.0654         35.2004         33.6004
  23706264.7234   23706264.0744   23706265.8194   -4060958.59546  -3003660.80546
      -310.7204       -242.1184         39.0004         36.7004
 10  1  1  1 47  0.0000000  0  9G27G15G12G 9G26G17G18G28G22
  20752004.8424   20752004.3154   20752008.4284  -22203357.17748 -17286663.49647
       271.8084        211.7904         50.3004         47.3004
  22378937.7304   22378937.2404   22378941.2774  -11331953.99447  -8812718.65947
     -3140.9924      -2447.5224         46.7004         43.7004
  22212248.2604   22212247.5654   22212251.3844  -13507907.33447 -10513245.90147
      2888.0344       2250.4094         47.5004         44.7004
  19756871.7434   19756871.4254   19756875.1104  -27320163.66548 -20993844.08048
       834.0754        649.9244         51.2004         48.2004
  22182301.7524   22182302.7624   22182307.4564   -6027171.40647  -4672176.79446
      2817.6214       2195.5604         43.9004         41.1004
  21934503.5744   21934504.0114   21934507.0904  -15160998.92048 -11789032.00247
      -109.4804        -85.3134         48.8004         45.8004
  23578149.8024   23578148.2264   23578152.8044   -3367088.17846  -2614872.40346
     -2014.2754      -1569.5664         40.1004         37.8004
  24659626.4334   24659622.2824   24659625.9384     590772.41245    475265.25745
     -3177.2764      -2475.7974         35.6004         33.8004
  23708089.3144   23708090.1044   23708090.4494   -4051362.57246  -2996183.40546
      -329.0214       -256.3854         39.2004         36.7004
 10  1  1  1 47 30.0000000  0  9G27G15G12G 9G26G17G18G28G22
  20750482.7904   20750482.4534   20750486.7294  -22211354.74048 -17292895.36347
       261.3374        203.6424         50.3004         47.3004
  22396898.2364   22396898.4834   22396902.1424  -11237564.80247  -8739168.65247
     -3151.5814      -2455.7884         46.5004         43.3004
  22195788.2094   22195788.4944   22195792.7644  -13594397.27347 -10580640.63947
      2877.8974       2242.5214         47.7004         44.7004
  19752158.2084   19752158.0954   19752162.1494  -27344931.17848 -21013143.43748
       817.0814        636.6894         51.2004         48.2004
  22166261.0254   22166261.1824   22166264.1804   -6111474.11947  -4737867.21546
      2802.5634       2183.8274         43.9004         41.1004
  21935186.0314   21935186.7244   21935189.6184  -15157414.34448 -11786238.82747
      -129.4954       -100.9044         48.9004         45.9004
  23589687.4484   23589685.4794   23589690.1414   -3306459.48546  -2567629.32446
     -2027.6014      -1579.9444         40.1004         37.4004
  24677769.3044   24677766.8594   24677772.4854     686125.66045    549566.48945
     -3179.4924      -2477.5294         35.4004         33.8004
  23710018.8224   23710018.2584   23710021.3564   -4041221.10746  -2988280.94646
      -347.1524       -270.5154         38.7004         36.0004
 10  1  1  1 48  0.0000000  0  9G27G15G12G 9G26G17G18G28G22
  20749020.5544   20749020.2484   20749024.7614  -22219037.82848 -17298882.17347
       250.8604        195.4764         50.3004         47.5004
  22414920.2114   22414920.2944   22414924.8354  -11142858.07847  -8665371.21147
     -3162.1684      -2464.0314         46.3004         43.3004
  22179388.8724   22179388.5484   22179392.2884  -13680580.78047 -10647796.58847
      2867.6414       2234.5274         47.9004         44.9004
  19747542.6594   19747542.3134   19747546.2474  -27369188.38048 -21032045.14348
       800.0424        623.4114         51.2004         48.2004
  22150304.1284   22150303.7964   22150309.3824   -6195325.57147  -4803205.97046
      2787.4914       2172.0734         44.2004         41.8004
  21935982.6644   21935982.5144   21935984.8984  -15153230.95548 -11782979.03747
      -149.4214       -116.4324         48.9004         45.8004
  23601298.0304   23601298.3764   23601303.0254   -3245432.21746  -2520075.65846
     -2040.8254      -1590.2574         40.1004         37.6004
  24695924.7744   24695923.4094   24695932.4704     781543.68545    623918.21245
     -3181.7254      -2479.2684         35.0004         33.4004
  23712050.9794   23712052.4834   23712054.8844   -4030534.74346  -2979953.93645
      -365.2594       -284.6154         38.0004         35.3004
 10  1  1  1 48 30.0000000  0  9G27G15G12G 9G26G17G18G28G22
  20747617.6184   20747617.9354   20747622.4454  -22226405.82148 -17304623.46447
       240.3384        187.2754         50.2004         47.3004
  22433002.6634   22433003.6054   22433007.0384  -11047835.86747  -8591327.95147
     -3172.6564      -2472.1994         46.5004         43.7004
  22163046.8284   22163047.4234   22163050.2224  -13766456.74047 -10714712.91247
      2857.3894       2226.5374         47.9004         44.9004
  19743023.8984   19743023.4294   19743027.2784  -27392934.19348 -21050548.37348
       782.9874        610.1184         51.2004         48.2004
  22134435.1994   22134435.7894   22134438.5074   -6278722.67347  -4868190.71446
      2772.3374       2160.2714         44.4004         41.4004
  21936892.1754   21936892.1074   21936895.0954  -15148448.94648 -11779252.79147
      -169.3654       -131.9684         48.8004         45.8004
  23612988.8104   23612988.3974   23612991.5554   -3184008.67346  -2472213.21646
     -2054.0224      -1600.5504         40.3004         37.8004
  24714096.7614   24714098.2224   24714099.9074     877025.14045    698319.36945
     -3183.8004      -2480.8864         35.4004         33.8004
  23714185.3364   23714187.8044   23714191.2034   -4019304.58746  -2971203.13945
      -383.3774       -298.7304         37.5004         35.2004
 10  1  1  1 49  0.0000000  0  9G27G15G12G 9G26G17G18G28G22
  20746276.7864   20746276.0544   20746280.2934  -22233458.35848 -17310118.93347
       229.8084        179.0744         50.2004         47.3004
  22451144.2314   22451144.5494   22451148.7604  -10952500.66347  -8517040.79547
     -3183.0494      -2480.3074         46.3004         43.3004
  22146763.8524   22146763.7854   22146767.3574  -13852023.89047 -10781388.58947
      2847.0694       2218.4944         47.7004         44.5004
  19738602.5284   19738602.3264   19738606.1064  -27416167.73948 -21068652.42948
       765.9234        596.8284         51.2004         48.2004
  22118651.7984   22118651.0404   22118654.1944   -6361662.95747  -4932819.50546
      2757.0504       2148.3654         43.9004         41.4004
  21937915.1414   21937915.6994   21937919.2994  -15143068.76248 -11775060.43847
      -189.3174       -147.5264         48.8004         45.9004
  23624751.1814   23624750.7334   23624755.2194   -3122191.38146  -2424043.93646
     -2067.1284      -1610.7534         40.3004         37.6004
  24732279.0174   24732280.8964   24732278.2234     972568.84845    772768.99445
     -3185.7074      -2482.3574         35.0004         33.4004
  23716431.5344   23716429.1024   23716432.5374   -4007531.31846  -2962029.16745
      -401.5004       -312.8504         37.6004         35.3004
 10  1  1  1 49 30.0000000  0  9G27G15G12G 9G26G17G18G28G22
  20744994.2744   20744994.2104   20744998.2874  -22240194.85448 -17315368.14947
       219.2814        170.8684         50.3004         47.3004
  22469346.1454   22469346.1244   22469348.9224  -10856854.38647  -8442511.23947
     -3193.3724      -2488.3444         46.3004         43.3004
  22130539.6794   22130539.7314   22130542.8764  -13937280.97747 -10847822.66547
      2836.6934       2210.4224         47.5004         44.4004
  19734278.7124   19734278.7204   19734282.6174  -27438888.05848 -21086356.56748
       748.7774        583.4644         51.2004         48.2004
  22102955.9604   22102955.8634   22102959.5604   -6444143.46847  -4997090.00646
      2741.6664       2136.3564         44.1004         41.4004
  21939053.9024   21939053.8914   21939056.3184  -15137090.45748 -11770402.01647
      -209.2614       -163.0604         48.9004         45.9004
  23636590.0704   23636589.5624   23636593.0814   -3059982.94746  -2375569.83846
     -2080.1654      -1620.8994         40.1004         37.3004
  24750469.9694   24750468.7584   24750473.4984    1068173.02345    847265.70545
     -3187.7404      -2483.9404         34.7004         33.1004
  23718774.0984   23718773.1834   23718775.5494   -3995215.68246  -2952432.59245
      -419.5634       -326.9354         37.8004         35.9004
 10  1  1  1 50  0.0000000  0  9G27G15G12G 9G26G17G18G28G22
  20743772.4444   20743772.0804   20743776.6304  -22246614.52548 -17320370.48847
       208.7124        162.6334         50.2004         47.3004
  22487605.7954   22487605.9134   22487608.9024  -10760899.56747  -8367741.24447
     -3203.6114      -2496.3154         46.3004         43.3004
  22114375.8634   22114375.2824   22114378.4704  -14022226.69447 -10914014.09847
      2826.3064       2202.3144         47.4004         44.5004
  19730053.8204   19730053.2134   19730057.1734  -27461093.94748 -21103659.85248
       731.6014        570.0744         51.2004         48.4004
  22087349.2254   22087347.9294   22087352.2724   -6526161.23147  -5060999.95846
      2726.2484       2124.3634         44.2004         41.4004
  21940304.5064   21940304.8424   21940308.1554  -15130514.14148 -11765277.60047
      -229.1894       -178.5914         48.8004         45.8004
  23648499.9214   23648499.0364   23648505.4674   -2997386.17746  -2326793.15446
     -2093.0174      -1630.9304         39.9004         37.3004
  24768674.0224   24768672.9044   24768676.4124    1163836.41245    921808.65345
     -3189.5974      -2485.4054         34.5004         33.1004
  23721219.9674   23721220.5304   23721222.3424   -3982358.38946  -2942413.96046
      -437.5814       -340.9714         38.2004         36.0004
 10  1  1  1 50 30.0000000  0  9G27G15G12G 9G26G17G18G28G22
  20742610.7514   20742611.1704   20742615.5214  -22252717.04648 -17325125.68847
       198.1134        154.3744         50.2004         47.3004
  22505922.3394   22505922.6394   22505927.6104  -10664638.27147  -8292732.44747
     -3213.7974      -2504.2584         46.2004         43.2004
  22098270.8824   22098270.4214   22098273.6534  -14106859.71647 -10979961.88547
      2815.8734       2194.1884         47.5004         44.5004
  19725925.7734   19725925.5854   19725929.4274  -27482784.76448 -21120561.78848
       714.4274        556.7004         51.2004         48.2004
  22071830.0034   22071830.5024   22071833.1874   -6607713.52047  -5124547.18147
      2710.6184       2112.1664         44.6004         42.5004
  21941670.2574   21941670.4764   21941672.8764  -15123340.03948 -11759687.38847
      -249.1034       -194.1154         48.8004         45.9004
  23660485.8604   23660486.7904   23660489.2994   -2934403.42046  -2277715.71546
     -2105.8354      -1640.9134         39.6004         36.9004
  24786888.0014   24786888.8264   24786891.8544    1259557.85445    996396.78945
     -3191.5204      -2486.9034         34.2004         33.1004
  23723772.5934   23723770.2674   23723771.5844   -3968960.42846  -2931973.99646
      -455.6454       -355.0494         38.7004         36.6004
 10  1  1  1 51  0.0000000  0  9G27G15G12G 9G26G17G18G28G22
  20741511.2344   20741510.6384   20741514.6674  -22258501.74748 -17329633.24647
       187.5084        146.1114         50.3004         47.3004
  22524299.3434   22524299.3994   22524303.5384  -10568072.72547  -8217486.60047
     -3223.8854      -2512.1184         46.2004         43.3004
  22082225.9144   22082225.5584   22082228.4274  -14191178.76847 -11045665.01447
      2805.3934       2186.0094         47.5004         44.5004
  19721895.7494   19721895.8694   19721899.8174  -27503959.59948 -21137061.64948
       697.2144        543.2864         51.2004         48.2004
  22056400.9494   22056400.6564   22056403.3064   -6688797.53447  -5187729.54147
      2694.9504       2099.9664         44.9004         42.3004
  21943149.5654   21943149.2764   21943152.0444  -15115568.28148 -11753631.46047
      -269.0214       -209.6284         48.9004         45.9004
  23672546.5274   23672544.1984   23672547.1894   -2871037.29746  -2228339.58946
     -2118.6114      -1650.8634         39.6004         37.1004
  24805115.6744   24805114.5494   24805121.4154    1355335.83645   1071028.91745
     -3193.5624      -2488.4924         34.3004         33.3004
  23726424.9044   23726423.1934   23726424.1414   -3955022.43546  -2921113.21846
      -473.5384       -368.9854         39.0004         36.9004
 10  1  1  1 51 30.0000000  0  9G27G15G12G 9G26G17G18G28G22
  20740469.7614   20740469.8714   20740474.3614  -22263968.10948 -17333892.74547
       176.8964        137.8384         50.3004         47.3004
  22542732.6024   22542732.7374   22542735.5064  -10471205.51447  -8142005.62847
     -3233.9184      -2519.9344         46.2004         42.8004
  22066239.7204   22066239.6504   22066242.3854  -14275182.95847 -11111122.79447
      2794.8744       2177.8264         47.5004         44.5004
  19717965.2424   19717965.1834   19717968.7654  -27524617.33148 -21153158.57848
       679.9604        529.8384         51.2004         48.4004
  22041060.5934   22041059.5624   22041063.7384   -6769410.69947  -5250544.97047
      2679.2504       2087.7144         45.3004         42.5004
  21944741.7684   21944741.9784   21944744.4934  -15107199.37848 -11747110.23847
      -288.9114       -225.1214         48.9004         45.8004
  23684675.3824   23684675.8544   23684680.3324   -2807290.20846  -2178666.58046
     -2131.2524      -1660.7084         38.9004         36.4004
  24823353.3324   24823353.3204   24823350.4964    1451168.92445   1145704.05445
     -3195.4134      -2489.9274         34.2004         32.7004
  23729178.5004   23729177.7514   23729178.9494   -3940545.08046  -2909832.15946
      -491.5584       -383.0334         39.6004         37.4004
 10  1  1  1 52  0.0000000  0  9G27G15G12G 9G26G17G18G28G22
  20739489.7524   20739489.8514   20739494.9204  -22269115.59248 -17337903.76147
       166.2644        129.5554         50.2004         47.3004
  22561222.4224   22561222.7844   22561226.1254  -10374038.76447  -8066291.29647
     -3243.8514      -2527.6764         46.0004         42.8004
  22050313.6614   22050314.0884   22050317.8054  -14358870.69347 -11176334.01547
      2784.3094       2169.5884         47.5004         44.7004
  19714132.8034   19714132.4324   19714136.3404  -27544757.27148 -21168852.03248
       662.7054        516.3934         51.4004         48.4004
  22025809.0264   22025809.5184   22025813.8834   -6849550.05447  -5312991.19947
      2663.3434       2075.3384         45.3004         42.5004
  21946447.5944   21946447.8404   21946450.0764  -15098233.46348 -11740123.80547
      -308.8194       -240.6404         48.8004         45.4004
  23696877.9304   23696877.4334   23696882.0924   -2743165.00346  -2128698.89046
     -2143.8214      -1670.5064         38.9004         36.6004
  24841596.8044   24841601.8414   24841606.2964    1547055.78245   1220421.13845
     -3197.3194      -2491.4134         33.8004         32.4004
  23732036.1194   23732034.6774   23732037.3164   -3925529.72746  -2898131.88446
      -509.4854       -397.0064         40.1004         37.8004
 10  1  1  1 52 30.0000000  0  9G27G15G12G 9G26G17G18G28G22
  20738571.6584   20738571.5794   20738576.4484  -22273943.76248 -17341665.97247
       155.5944        121.2444         50.2004         47.5004
  22579769.4734   22579769.4804   22579772.5964  -10276575.00747  -7990345.52347
     -3253.7254      -2535.3804         45.8004         43.0004
  22034449.0354   22034449.0274   22034453.3654  -14442240.91647 -11241297.79147
      2773.6844       2161.3114         47.7004         44.9004
  19710398.4424   19710398.8994   19710402.5594  -27564378.37948 -21184141.20448
       645.3744        502.8874         51.4004         48.4004
  22010649.7864   22010650.4514   22010654.0294   -6929212.90447  -5375066.13947
      2647.4744       2062.9754         45.3004         42.5004
  21948267.6364   21948267.5924   21948270.7764  -15088671.36648 -11732672.79547
      -328.6914       -256.1204         48.8004         45.9004
  23709153.4074   23709151.2254   23709155.7274   -2678664.10546  -2078438.51946
     -2156.2764      -1680.2094         39.0004         36.7004
  24859857.4554   24859856.4954   24859856.3644    1642994.88145   1295178.83145
     -3198.9564      -2492.6914         33.0004         32.2004
  23734993.0824   23734994.4984   23734995.4614   -3909977.26646  -2886013.09746
      -527.3744       -410.9404         40.3004         37.8004
 10  1  1  1 53  0.0000000  0  9G27G15G12G 9G26G17G18G28G22
  20737714.0494   20737714.0464   20737718.6664  -22278451.88248 -17345178.78747
       144.9164        112.9174         50.3004         47.5004
  22598371.3634   22598372.2564   22598376.1174  -10178816.22547  -7914169.86247
     -3263.5134      -2542.9994         45.8004         42.8004
  22018645.2774   22018645.3934   22018647.6224  -14525292.38747 -11306013.20647
      2763.0654       2153.0454         47.7004         44.7004
  19706764.5454   19706764.2704   19706767.7314  -27583479.77048 -21199025.39648
       628.0504        489.3894         51.4004         48.5004
  21995581.9084   21995581.5734   21995586.7724   -7008396.40347  -5436767.54947
      2631.4254       2050.4524         45.5004         42.6004
  21950200.0614   21950200.5394   21950203.8664  -15078512.88048 -11724757.10147
      -348.5204       -271.5764         48.9004         45.9004
  23721496.1594   23721495.3234   23721501.1304   -2613790.29346  -2027887.52046
     -2168.6364      -1689.8554         39.2004         36.9004
  24878123.0444   24878122.9964   24878124.8784    1738984.99645   1369976.24445
     -3200.6954      -2494.0544         32.8004         32.0004
  23738059.3724   23738056.9814   23738057.6224   -3893888.86346  -2873476.67346
      -545.1834       -424.8164         40.1004         37.6004
 10  1  1  1 53 30.0000000  0  9G27G15G12G 9G26G17G18G28G22
  20736917.3294   20736917.1884   20736921.4524  -22282639.43648 -17348441.81947
       134.2254        104.5914         50.3004         47.5004
  22617030.7574   22617031.0474   22617034.7504  -10080764.92447  -7837766.25847
     -3273.2424      -2550.5754         45.6004         42.8004
  22002902.0654   22002902.3134   22002905.3534  -14608023.74147 -11370479.18747
      2752.3264       2144.6724         47.7004         44.5004
  19703228.1774   19703228.1994   19703231.9834  -27602060.57948 -21213503.94248
       610.6364        475.8224         51.4004         48.5004
  21980605.8274   21980605.8334   21980609.2124   -7087097.81647  -5498093.33447
      2615.3394       2037.9194         45.5004         42.6004
  21952247.7264   21952247.4584   21952250.3274  -15067758.53948 -11716377.08647
      -368.4104       -287.0744         49.1004         46.1004
  23733913.7354   23733911.6874   23733917.4924   -2548546.25246  -1977048.06746
     -2180.9414      -1699.4214         39.2004         36.7004
  24896395.5984   24896393.0394                    1835024.70945   1444812.41645
     -3202.0604      -2495.1184         32.6004         31.7004
  23741218.1074   23741218.7624   23741221.7024   -3877265.06146  -2860523.07346
      -563.0634       -438.7514         40.6004         38.5004
 10  1  1  1 54  0.0000000  0  9G27G15G12G 9G26G17G18G28G22
  20736181.2014   20736181.1464   20736185.7534  -22286505.84548 -17351454.59647
       123.5104         96.2424         50.3004         47.5004
  22635746.3664   22635745.6914   22635748.6774   -9982423.17247  -7761136.34147
     -3282.8794      -2558.0904         45.8004         43.0004
  21987219.5014   21987219.4364   21987222.6584  -14690433.77947 -11434694.76647
      2741.6394       2136.3424         47.5004         44.5004
  19699791.8494   19699791.8064   19699795.4784  -27620119.78048 -21227576.04448
       593.2564        462.2804         51.4004         48.5004
  21965720.7364   21965720.7874   21965725.5384   -7165314.41747  -5559041.32447
      2599.1714       2025.3244         45.5004         42.6004
  21954406.2024   21954406.3694   21954409.7084  -15056408.77548 -11707533.10947
      -388.2414       -302.5334         48.9004         45.8004
  23746398.7324   23746398.1314   23746401.9484   -2482934.55446  -1925922.09246
     -2193.1454      -1708.9424         39.4004         37.1004
  24914685.0714   24914681.6414                    1931112.94445   1519686.43245
     -3203.7954      -2496.4574         32.3004         31.7004
  23744483.4594   23744483.4434   23744486.4874   -3860106.94446  -2847153.12746
      -580.7934       -452.5684         41.1004         38.6004
 10  1  1  1 54 30.0000000  0  9G27G15G12G 9G26G17G18G28G22
  20735507.1894   20735506.5904   20735511.3654  -22290050.54948 -17354216.69947
       112.7804         87.8794         50.3004         47.5004
  22654513.8954   22654513.8234   22654517.2114   -9883793.66147  -7684282.18047
     -3292.3994      -2565.5064         45.8004         42.8004
  21971598.4854   21971598.4304   21971601.6174  -14772521.27547 -11498659.02947
      2730.8574       2127.9384         47.5004         44.5004
  19696454.4644   19696454.3554   19696458.4544  -27637656.70248 -21241241.18248
       575.8704        448.7314         51.5004         48.5004
  21950929.6454   21950930.0594   21950934.5564   -7243043.39947  -5619609.37047
      2582.7864       2012.5684         45.3004         42.5004
  21956680.4484   21956680.2264   21956682.5764  -15044463.88848 -11698225.40347
      -408.0664       -317.9774         48.8004         45.8004
  23758954.9814   23758953.2794   23758956.7274   -2416957.97946  -1874511.81646
     -2205.2544      -1718.3834         39.2004         36.6004
  24932981.2154   24932978.8644   24932978.9074    2027248.27245   1594597.04145
     -3205.2664      -2497.6074         33.0004         32.2004
  23747851.8664   23747852.0434   23747853.3184   -3842415.29346  -2833367.46546
      -598.5724       -466.4174         41.5004         38.8004
 10  1  1  1 55  0.0000000  0  9G27G15G12G 9G26G17G18G28G22
  20734893.9654   20734893.8164   20734898.0204  -22293273.09148 -17356727.76747
       102.0544         79.5204         50.5004         47.5004
  22673335.4614   22673335.0974   22673339.3644   -9784878.76247  -7607205.64647
     -3301.8984      -2572.9054         45.5004         42.3004
  21956039.5184   21956039.4194   21956042.4774  -14854285.14047 -11562371.10047
      2720.0444       2119.5184         47.5004         44.5004
  19693216.5354   19693216.5874   19693220.6584  -27654670.74548 -21254498.87148
       558.4104        435.1264         51.4004         48.5004
  21936231.8464   21936231.7004   21936235.8544   -7320281.94947  -5679795.23247
      2566.4464       1999.8254         45.3004         42.3004
  21959066.2374   21959066.1664   21959068.9884  -15031924.41048 -11688454.37347
      -427.9024       -333.4334         48.8004         45.9004
  23771577.2584   23771576.4314   23771579.0174   -2350619.27046  -1822819.35046
     -2217.2414      -1727.7194         38.9004         36.4004
  24951282.5394   24951278.2654                    2123429.09845   1669543.09545
     -3206.9024      -2498.8794         32.8004         32.0004
  23751315.9064   23751316.8444   23751320.1954   -3824191.44246  -2819167.04746
      -616.2934       -480.2304         40.6004         37.3004
 10  1  1  1 55 30.0000000  0 10G27G14G15G12G 9G26G17G18G28G22
  20734342.2324   20734341.8624   20734346.0654  -22296172.99148 -17358987.42747
        91.2694         71.1194         50.5004         47.5004
                                  24788476.268     -314256.96145    -33621.943
      3506.2264       2742.754          33.1004          1.500
  22692211.6094   22692212.1284   22692216.3174   -9685680.83847  -7529908.58247
     -3311.3144      -2580.2464         45.5004         42.5004
  21940542.1144   21940542.3804   21940545.0774  -14935724.09347 -11625829.98047
      2709.1854       2111.0544         47.7004         44.7004
  19690080.0854   19690079.0224   19690082.6034  -27671161.02248 -21267348.43348
       540.9134        421.4894         51.4004         48.5004
  21921628.1594   21921626.8594   21921632.4884   -7397027.42147  -5739596.88747
      2549.9844       1986.9834         45.1004         42.3004
  21961565.1564   21961564.8584   21961568.2464  -15018790.71448 -11678220.31347
      -447.6744       -348.8394         48.9004         45.8004
  23784269.0024   23784267.5974   23784270.2924   -2283921.25046  -1770846.89346
     -2229.1674      -1737.0174         38.5004         36.0004
  24969587.5144   24969587.8084   24969589.1514    2219654.26545   1744523.66945
     -3208.4044      -2500.0484         32.8004         31.7004
  23754886.7454   23754886.7404   23754887.9434   -3805436.40746  -2804552.74246
      -633.9994       -494.0274         39.6004         36.7004
 10  1  1  1 56  0.0000000  0 10G27G14G15G12G 9G26G17G18G28G22
  20733851.8234   20733851.6104   20733855.8134  -22298749.67648 -17360995.23447
        80.4854         62.7134         50.5004         47.5004
                                                    -68810.23944
      3500.9184                         26.4004        -24.200
  22711142.4874   22711143.4084   22711146.6534   -9586201.50947  -7452392.22847
     -3320.6384      -2587.5084         45.5004         42.6004
  21925106.9464   21925107.2954   21925110.8204  -15016837.27547 -11689035.03447
      2698.3104       2102.5824         47.9004         45.1004
  19687040.7214   19687040.4474   19687044.4014  -27687126.52848 -21279789.08748
       523.4344        407.8694         51.4004         48.4004
  21907117.3804   21907118.2864   21907121.7394   -7473277.13047  -5799012.23847
      2533.3604       1974.0424         45.5004         42.6004
  21964177.4314   21964177.7414   21964180.7694  -15005063.47548 -11667523.76047
      -467.4924       -364.2734         48.9004         45.9004
  23797029.4284   23797029.2384   23797032.9404   -2216866.47246  -1718596.49345
     -2241.0864      -1746.3084         38.2004         35.9004
  24987904.9874   24987906.5764   24987907.7514    2315922.49645   1819537.85745
     -3209.4474      -2500.8704         32.8004         32.2004
  23758558.6304   23758557.4394   23758559.3274   -3786151.18246  -2789525.30046
      -651.7034       -507.8234         39.7004         37.6004
 10  1  1  1 56 30.0000000  0 10G27G14G15G12G 9G26G17G18G28G22
  20733423.3314   20733422.9194   20733427.0714  -22301002.62948 -17362750.78147
        69.6884         54.3084         50.5004         47.5004
                                                   -173753.32444
      3495.4204                         26.4004        -24.200
  22730125.9534   22730126.0464   22730130.1434   -9486443.46247  -7374658.70947
     -3329.8824      -2594.7234         45.5004         42.6004
  21909734.2564   21909734.2584   21909737.7494  -15097623.24048 -11751985.10947
      2687.3824       2094.0654         48.1004         45.1004
  19684102.2944   19684102.5104   19684106.4734  -27702566.57448 -21291820.28148
       505.8934        394.2034         51.4004         48.4004
  21892702.9434   21892702.7564   21892707.0274   -7549028.36147  -5858039.16547
      2516.7354       1961.0954         45.6004         42.8004
  21966902.3784   21966902.6804   21966906.0364  -14990743.11448 -11656365.03347
      -487.2124       -379.6424         49.1004         46.1004
  23809857.2094   23809857.2974   23809860.7724   -2149457.25046  -1666069.89346
     -2252.8074      -1755.4314         38.5004         36.4004
  25006240.7334   25006238.4934   25006240.6314    2412232.29145   1894584.48045
     -3211.0274      -2502.1054         32.3004         31.9004
  23762328.5454   23762329.2414   23762330.5674   -3766336.78346  -2774085.54646
      -669.3294       -521.5464         39.9004         37.6004
 10  1  1  1 57  0.0000000  0 10G27G14G15G12G 9G26G17G18G28G22
  20733056.4924   20733055.9904   20733060.0454  -22302931.24448 -17364253.59647
        58.8654         45.8674         50.5004         47.7004
                                                   -278529.74544
      3489.7314                         28.8004        -24.200
  22749162.8104   22749162.8514   22749166.0584   -9386409.10147  -7296709.85647
     -3339.0404      -2601.8504         45.5004         42.8004
  21894423.2964   21894423.5144   21894426.6994  -15178080.72748 -11814679.22947
      2676.4224       2085.5264         48.1004         45.2004
  19681265.0704   19681264.4154   19681268.3454  -27717480.11548 -21303441.21648
       488.3194        380.5084         51.4004         48.4004
  21878384.2834   21878384.6744   21878388.0724   -7624278.33747  -5916675.50247
      2499.9624       1948.0094         46.0004         43.3004
  21969739.5314   21969740.1934   21969743.2214  -14975830.32148 -11644744.67047
      -506.9644       -395.0344         48.8004         45.8004
  23822749.4164   23822750.2934   23822755.0064   -2081696.64846  -1613269.40946
     -2264.5654      -1764.5994         38.9004         36.6004
  25024571.2724   25024570.7874                    2508582.56755   1969662.58955
     -3212.2814      -2503.0694         31.9004         31.2004
  23766198.2694   23766199.0954   23766199.7904   -3745994.70946  -2758234.59046
      -686.9134       -535.2584         39.7004         37.1004
 10  1  1  1 57 30.0000000  0 10G27G14G15G12G 9G26G17G18G28G22
  20732750.9494   20732750.7004   20732754.8614  -22304535.04248 -17365503.30647
        48.0504         37.4374         50.5004         47.5004
  24663082.4794                   24663079.1204    -383136.95245   -283845.09345
      3484.1794       2714.9454         34.2004         33.8004
  22768249.7364   22768250.0734   22768254.1384   -9286101.13047  -7218547.82147
     -3348.1074      -2608.9054         45.5004         42.3004
  21879175.2394   21879175.5054   21879178.6254  -15258208.71448 -11877116.60547
      2665.4184       2076.9464         48.1004         45.1004
  19678526.6344   19678526.8834   19678530.6634  -27731866.48448 -21314651.37348
       470.7334        366.8054         51.4004         48.4004
  21864160.1284   21864160.0594   21864163.2074   -7699024.51747  -5974919.29747
      2483.1174       1934.9024         46.0004         43.0004
  21972690.4904   21972690.9794   21972693.7154  -14960325.47848 -11632662.96647
      -526.6974       -410.4134         48.8004         45.8004
  23835715.2324   23835714.0164   23835716.3174   -2013587.38746  -1560197.29546
     -2276.0494      -1773.5424         39.4004         37.1004
  25042909.1404                                    2604971.81555   2044771.05855
     -3213.7014      -2504.1794         30.4004         30.8004
  23770169.8764   23770169.0144   23770173.5284   -3725125.79446  -2741973.15546
      -704.3974       -548.8764         39.0004         36.0004
 10  1  1  1 58  0.0000000  0 10G27G14G15G12G 9G26G17G18G28G22
  20732507.7464   20732507.5014   20732511.4884  -22305813.52848 -17366499.53347
        37.1804         28.9694         50.5004         47.5004
  24643206.3724   24643204.1674   24643207.7464    -487572.44245   -365223.45345
      3478.3244       2710.3824         35.0004         33.8004
  22787390.4534   22787389.9794   22787393.0424   -9185521.52147  -7140174.10647
     -3357.1204      -2615.9484         45.5004         42.6004
  21863991.5904   21863990.8014   21863994.1844  -15338006.04448 -11939296.31647
      2654.3644       2068.3464         48.2004         45.2004
  19675889.9454   19675889.6894   19675893.6064  -27745725.02548 -21325450.22848
       453.1464        353.0994         51.4004         48.5004
  21850031.5254   21850032.0104   21850036.3614   -7773264.22947  -6032768.41447
      2466.1824       1921.7094         46.0004         43.0004
  21975753.3044   21975753.8264   21975756.5674  -14944228.97048 -11620120.21247
      -546.4154       -425.7784         48.8004         45.8004
  23848739.0654   23848739.4794   23848742.5744   -1945131.89246  -1506855.35146
     -2287.6344      -1782.5694         39.0004         36.6004
  25061263.9874                                    2701398.99455   2119909.17855
     -3214.8614      -2505.0844         30.7004         31.0004
  23774239.8654   23774243.2154   23774242.9234   -3703731.09646  -2725301.96346
      -721.9334       -562.5434         38.3004         36.0004
 10  1  1  1 58 30.0000000  0 10G27G14G15G12G 9G26G17G18G28G22
  20732326.7104   20732326.2984   20732330.1004  -22306765.91248 -17367241.64647
        26.3014         20.4984         50.5004         47.5004
  24623366.3824   24623366.4554   24623367.1954    -591833.75155   -446466.03155
      3472.4744       2705.8234         35.9004         34.1004
  22806579.2264   22806580.6604   22806584.4954   -9084672.82347  -7061590.71947
     -3366.0924      -2622.9204         45.5004         42.5004
  21848868.8564   21848868.9764   21848872.5624  -15417471.37748 -12001217.32247
      2643.2964       2059.7154         48.2004         45.2004
  19673353.1314   19673352.8624   19673357.0744  -27759055.02748 -21335837.22948
       435.5064        339.3554         51.4004         48.4004
  21836002.6524   21836002.8194   21836006.0154   -7846994.51547  -6090220.56747
      2449.1714       1908.4494         46.2004         43.2004
  21978929.5244   21978929.4174   21978932.3224  -14927541.50848 -11607116.99247
      -566.1084       -441.1224         48.8004         45.6004
  23861831.2304   23861831.3084   23861835.2284   -1876333.41446  -1453246.08746
     -2298.9734      -1791.4094         38.5004         36.0004
  25079625.1684                                    2797862.55454     26837.70853
     -3215.9924      -2505.9694         26.4004         23.4004
  23778412.9484   23778412.9514   23778413.4594   -3681811.91146  -2708222.05445
      -739.4314       -576.1854         37.8004         35.7004
 10  1  1  1 59  0.0000000  0  9G27G14G15G12G 9G26G17G18G22
  20732206.9484   20732206.9834   20732211.1424  -22307391.74748 -17367729.30747
        15.4054         12.0084         50.5004         47.5004
  24603559.7624   24603559.4534   24603560.3054    -695918.24146   -527570.83945
      3466.4994       2701.1684         36.4004         34.8004
  22825823.7924   22825822.4874   22825825.8194   -8983557.42147  -6982799.50947
     -3374.9624      -2629.8424         45.5004         42.3004
  21833810.7644   21833810.5104   21833814.3554  -15496603.80948 -12062878.93647
      2632.1694       2051.0364         48.2004         45.2004
  19670917.2024   19670917.0294   19670921.3194  -27771855.51748 -21345811.63548
       417.8494        325.6004         51.4004         48.5004
  21822068.5494   21822068.7594   21822072.6734   -7920213.03947  -6147273.95247
      2432.0484       1895.1014         46.0004         42.8004
  21982217.2474   21982217.4884   21982219.7864  -14910263.89148 -11593653.91747
      -585.7584       -456.4314         48.6004         45.6004
  23874988.3064   23874987.0054   23874991.2184   -1807194.48346  -1399371.66846
     -2310.2764      -1800.2124         38.2004         36.0004
  23782686.6804   23782684.4074   23782684.6254   -3659369.44946  -2690734.45445
      -756.7384       -589.6574         37.0004         34.6004
