     2.11           OBSERVATION DATA    G (GPS)             RINEX VERSION / TYPE
teqc  2009Mar23     root                20100106 01:16:03UTCPGM / RUN BY / DATE
Linux 2.4.20-8|Pentium IV|gcc|Linux|486/DX+                 COMMENT
teqc  2009Mar23     root                20100105 01:00:00UTCCOMMENT
BIT 2 OF LLI FLAGS DATA COLLECTED UNDER A/S CONDITION       COMMENT
PTBB                                                        MARKER NAME
14234M001                                                   MARKER NUMBER
Automatic           BKG/GOWettzell+PTB                      OBSERVER / AGENCY
RT820013901         ASHTECH Z-XII3T     1L01-1D04           REC # / TYPE / VERS
CR15930             ASH700936E      SNOW                    ANT # / TYPE
  3844060.0000   709661.2700  5023129.5100                  APPROX POSITION XYZ
        0.0562        0.0000        0.0000                  ANTENNA: DELTA H/E/N
     1     1                                                WAVELENGTH FACT L1/2
     9    C1    P1    P2    L1    L2    D1    D2    S1    S2# / TYPES OF OBSERV
    30.0000                                                 INTERVAL
Forced Modulo Decimation to 30 seconds                      COMMENT
 SNR is mapped to RINEX snr flag value [0-9]                COMMENT
  L1 & L2: min(max(int(snr_dBHz/6), 0), 9)                  COMMENT
pseudorange smoothing corrections not applied               COMMENT
  2010     1     5     0     0    0.0000000     GPS         TIME OF FIRST OBS
                                                            END OF HEADER
 10  1  5  0  0  0.0000000  0  6G15G 8G27G18G17G 9
  20466941.6574   20466942.1844   20466945.5574  -20950168.97248 -16303244.78848
      -330.4634       -257.5034         52.1004         49.2004
  23798665.0174   23798663.6574   23798668.1324   -4631701.03246  -3585953.48646
     -3221.1774      -2510.0104         40.3004         37.8004
  21907532.9614   21907532.6764   21907537.1924  -14818035.01347 -11101810.84047
      1862.2094       1451.0784         47.9004         44.9004
  23078371.8404   23078370.6674   23078372.7984   -5692079.47447  -4418603.58246
      1195.4544        931.5164         42.5004         40.0004
  23524936.9164   23524937.1114   23524942.2284   -6496448.11647  -5041420.30746
      2847.6134       2218.9264         42.2004         39.5004
  21956440.1454   21956439.9734   21956444.4844  -15367027.99147 -11935871.89747
      3158.0934       2460.8584         45.6004         43.0004
 10  1  5  0  0 30.0000000  0  7G28G15G 8G27G18G17G 9
  21904507.0574   21904506.3964   21904509.3264  -13544688.67048 -10537268.39247
     -1850.3704      -1441.8554         48.4004         45.6004
  20468878.9754   20468879.3384   20468882.7504  -20939990.17448 -16295313.26148
      -348.1324       -271.2714         52.1004         49.2004
  23817061.6324   23817061.4794   23817067.8924   -4535008.78346  -3510608.84346
     -3224.9654      -2512.9624         39.7004         36.9004
  21896922.3224   21896922.2944   21896927.0694  -14873792.77047 -11145258.43547
      1854.9584       1445.4254         47.9004         44.9004
  23071598.8744   23071598.0724   23071599.9304   -5727671.00947  -4446337.26146
      1177.2924        917.3674         42.9004         40.0004
  23508707.8964   23508708.3674   23508711.1794   -6581736.66847  -5107878.89746
      2838.1774       2211.5674         42.0004         39.5004
  21938436.2454   21938435.2334   21938439.6004  -15461647.28247 -12009601.20347
      3149.8404       2454.4384         45.8004         43.0004
 10  1  5  0  1  0.0000000  0  7G28G15G 8G27G18G17G 9
  21915107.1954   21915107.0024   21915109.9534  -13488983.17748 -10493861.52647
     -1863.3134      -1451.9324         48.4004         45.6004
  20470917.6204   20470917.5954   20470920.5694  -20929280.68448 -16286968.21748
      -365.8264       -285.0594         52.1004         49.2004
  23835484.4214   23835485.2854   23835488.2504   -4438201.78946  -3435174.84346
     -3228.8374      -2515.9754         39.0004         36.2004
  21886353.9854   21886354.0634   21886358.2564  -14929332.50947 -11188536.13947
      1847.6964       1439.7694         47.9004         45.1004
  23064929.0384   23064928.4744   23064931.2374   -5762717.49847  -4473646.21946
      1159.1294        903.2084         42.9004         39.9004
  23492531.9554   23492533.0854   23492536.4164   -6666740.23347  -5174115.42446
      2828.6614       2204.1524         42.2004         39.5004
  21920477.4964   21920476.8804   21920481.1854  -15556017.41747 -12083136.34647
      3141.4704       2447.9034         46.0004         43.3004
 10  1  5  0  1 30.0000000  0  7G28G15G 8G27G18G17G 9
  21925781.5444   21925780.9994   21925784.4384  -13432889.94648 -10450152.51047
     -1876.2464      -1462.0124         48.6004         45.6004
  20473055.6424   20473056.1944   20473059.4664  -20918040.36648 -16278209.53248
      -383.5164       -298.8474         52.1004         49.2004
  23853931.6934   23853930.3544   23853932.5134   -4341281.97846  -3359652.91946
     -3232.5344      -2518.8534         38.9004         36.6004
  21875825.9674   21875826.3404   21875830.2724  -14984653.99748 -11231643.78847
      1840.4024       1434.0774         48.1004         44.9004
  23058363.9774   23058362.9004   23058366.4564   -5797217.82947  -4500529.59546
      1140.9134        889.0244         42.5004         40.0004
  23476413.5334   23476410.5854   23476415.4754   -6751456.08547  -5240127.75746
      2819.0224       2196.6444         42.5004         39.7004
  21902566.8704   21902565.9234   21902570.4284  -15650136.81747 -12156476.12647
      3133.1424       2441.4094         46.2004         43.2004
 10  1  5  0  2  0.0000000  0  7G28G15G 8G27G18G17G 9
  21936529.1144   21936528.7824   21936531.6614  -13376410.75148 -10406142.74647
     -1889.0644      -1472.0034         48.6004         45.4004
  20475295.8724   20475296.1784   20475299.2264  -20906269.19648 -16269037.19748
      -401.2164       -312.6384         52.1004         49.2004
  23872392.3204   23872393.1934   23872397.3784   -4244249.74046  -3284043.41646
     -3236.2424      -2521.7434         38.7004         36.2004
  21865341.6704   21865341.1744   21865345.2194  -15039756.61348 -11274580.87947
      1833.0884       1428.3814         48.1004         45.1004
  23051902.5304   23051901.9594   23051906.2274   -5831170.65547  -4526986.36246
      1122.6234        874.7554         42.9004         40.2004
  23460343.2844   23460345.3714   23460348.9664   -6835881.07447  -5305913.46046
      2809.2744       2189.0434         42.5004         39.9004
  21884703.4644   21884703.3674   21884708.4124  -15744004.00447 -12229619.36247
      3124.6784       2434.8124         46.2004         43.2004
 10  1  5  0  2 30.0000000  0  7G28G15G 8G27G18G17G 9
  21947348.7794   21947348.8004   21947352.3374  -13319547.86548 -10361834.00747
     -1901.8364      -1481.9434         48.4004         45.2004
  20477637.6734   20477637.7134   20477640.5094  -20893966.82948 -16259450.94648
      -418.9324       -326.4414         52.1004         49.2004
  23890876.6094   23890877.6594   23890882.9574   -4147106.83546  -3208347.63645
     -3239.8714      -2524.5814         38.2004         35.9004
  21854897.1124   21854896.9194   21854901.2994  -15094639.97348 -11317347.12547
      1825.7854       1422.6864         48.1004         45.1004
  23045545.5124   23045545.8774   23045549.7434   -5864574.98247  -4553015.72446
      1104.3504        860.5564         42.9004         40.0004
  23444335.0364   23444336.2774   23444340.0494   -6920012.54147  -5371470.41046
      2799.4624       2181.4034         42.7004         40.2004
  21866889.7804   21866889.2924   21866893.8404  -15837617.56647 -12302564.96647
      3116.1954       2428.2054         46.2004         43.0004
 10  1  5  0  3  0.0000000  0  7G28G15G 8G27G18G17G 9
  21958242.3874   21958242.2084   21958245.8454  -13262302.68148 -10317227.37647
     -1914.5244      -1491.8284         48.2004         45.2004
  20480079.8454   20480079.6014   20480082.6724  -20881133.56548 -16249451.00748
      -436.6324       -340.2344         52.1004         49.2004
  23909387.1904   23909386.4424   23909391.3714   -4049853.46846  -3132565.81145
     -3243.6824      -2527.5414         37.8004         35.5004
  21844494.9004   21844494.4304   21844498.6174  -15149303.64148 -11359942.18147
      1818.4414       1416.9684         48.1004         44.9004
  23039293.3054   23039292.5304   23039296.7574   -5897429.56747  -4578616.71446
      1085.9144        846.1594         42.7004         39.9004
  23428383.7424   23428383.3994   23428386.8114   -7003847.54647  -5436796.35646
      2789.5364       2173.6664         43.2004         40.6004
  21849124.9954   21849123.9204   21849128.5264  -15930976.02547 -12375311.82347
      3107.7104       2421.6004         46.3004         43.3004
 10  1  5  0  3 30.0000000  0  7G28G15G 8G27G18G17G 9
  21969209.2684   21969208.3944   21969211.3584  -13204677.20648 -10272324.41547
     -1927.1724      -1501.6894         48.2004         45.2004
  20482621.9664   20482622.6814   20482626.0434  -20867768.41648 -16239036.61048
      -454.3704       -354.0524         52.1004         49.2004
  23927912.6024   23927913.3914   23927916.9164   -3952491.25046  -3056699.16246
     -3247.1414      -2530.2484         38.2004         36.2004
  21834134.7534   21834134.2084   21834138.3014  -15203747.26348 -11402365.77647
      1811.1014       1411.2484         48.1004         45.1004
  23033147.5404   23033146.5104   23033148.5454   -5929733.41347  -4603788.53046
      1067.6854        831.9464         42.5004         39.7004
  23412486.6814   23412486.7704   23412490.5744   -7087383.10747  -5501888.99046
      2779.4914       2165.8184         43.4004         40.6004
  21831407.4214   21831407.6014   21831411.4364  -16024077.52747 -12447858.40947
      3099.0794       2414.8614         46.3004         43.5004
 10  1  5  0  4  0.0000000  0  7G28G15G 8G27G18G17G 9
  21980245.8724   21980246.0944   21980249.2394  -13146673.36348 -10227126.61947
     -1939.7314      -1511.4844         48.1004         45.1004
  20485267.1794   20485267.4824   20485270.6494  -20853871.69848 -16228208.00248
      -472.0984       -367.8704         52.1004         49.2004
  23946462.7584   23946460.5944   23946465.1354   -3855021.06446  -2980748.40645
     -3250.8424      -2533.1244         37.8004         35.5004
  21823815.6074   21823815.8344   21823820.1144  -15257970.34747 -11444617.52647
      1803.7404       1405.5094         47.9004         45.1004
  23027104.2894   23027103.0864   23027107.4124   -5961485.43847  -4628530.39146
      1049.1804        817.5384         42.5004         39.7004
  23396647.5644   23396647.6324   23396651.8784   -7170616.06247  -5566745.82146
      2769.3234       2157.9084         43.2004         40.4004
  21813740.9154   21813740.7454   21813743.9444  -16116920.49847 -12520203.56247
      3090.4224       2408.1134         46.5004         43.5004
 10  1  5  0  4 30.0000000  0  7G28G15G 8G27G18G17G 9
  21991355.6404   21991355.1154   21991358.2594  -13088292.76847 -10181635.25347
     -1952.2804      -1521.2484         47.9004         44.9004
  20488012.3834   20488012.9424   20488016.2564  -20839443.21948 -16216965.04248
      -489.8224       -381.6784         52.1004         49.2004
  23965028.5504   23965028.7974   23965032.3114   -3757443.96346  -2904714.36745
     -3254.3174      -2535.8314         37.3004         34.6004
  21813540.4684   21813539.5394   21813544.1264  -15311972.44148 -11486697.07547
      1796.3794       1399.7754         48.1004         45.2004
  23021168.7884   23021168.2614   23021170.2104   -5992684.82247  -4652841.61146
      1030.7334        803.1754         42.9004         40.4004
  23380866.3314   23380868.1914   23380870.3914   -7253544.02147  -5631365.00046
      2759.1114       2149.9674         43.2004         40.4004
  21796122.4884   21796122.8564   21796126.1484  -16209503.61147 -12592346.23547
      3081.7594       2401.3664         46.5004         43.7004
 10  1  5  0  5  0.0000000  0  7G28G15G 8G27G18G17G 9
  22002536.7094   22002535.9954   22002539.1024  -13029537.45647 -10135851.88447
     -1964.7364      -1530.9624         47.9004         44.9004
  20490859.4854   20490859.8614   20490863.0674  -20824482.76048 -16205307.54348
      -507.5564       -395.4984         52.1004         49.2004
  23983616.0414   23983614.5744   23983623.9304   -3659760.91746  -2828597.69645
     -3257.9604      -2538.6524         36.4004         34.3004
  21803306.0114   21803305.7404   21803310.3284  -15365753.16148 -11528604.12047
      1788.9854       1394.0224         48.2004         45.4004
  23015335.3164   23015336.2374   23015339.0154   -6023330.28847  -4676721.20146
      1012.2364        788.7514         42.9004         40.0004
  23365145.8994   23365146.2554   23365147.4864   -7336163.95147  -5695744.13846
      2748.8444       2141.9594         43.2004         40.6004
  21778553.6784   21778553.6314   21778557.8804  -16301825.62747 -12664285.45447
      3073.0074       2394.5544         46.5004         43.5004
 10  1  5  0  5 30.0000000  0  7G28G15G 8G27G18G17G 9
  22013787.2944   22013787.3724   22013791.3174  -12970409.30147 -10089778.00547
     -1977.1414      -1540.6274         47.7004         44.7004
  20493808.2344   20493808.1344   20493811.4244  -20808990.13348 -16193235.37048
      -525.2974       -409.3254         52.1004         49.2004
  24002223.8924   24002224.7264   24002230.2994   -3561972.92246  -2752399.29645
     -3261.2794      -2541.2554         36.1004         34.0004
  21793113.4064   21793113.4154   21793117.7334  -15419311.90548 -11570338.20147
      1781.5914       1388.2474         48.2004         45.2004
  23009610.2584   23009610.9834   23009613.0314   -6053420.64147  -4700168.24646
       993.7484        774.3554         42.9004         40.0004
  23349482.3404   23349482.9914   23349486.7334   -7418472.99147  -5759881.01846
      2738.4134       2133.8204         43.4004         40.6004
  21761034.6494   21761035.3534   21761039.3534  -16393884.63747 -12736019.71947
      3064.2324       2387.7154         46.3004         43.5004
 10  1  5  0  6  0.0000000  0  7G28G15G 8G27G18G17G 9
  22025111.4114   22025110.5284   22025114.0104  -12910910.07447 -10043414.97747
     -1989.4734      -1550.2454         47.9004         45.1004
  20496857.0254   20496857.3274   20496860.5594  -20792965.50348 -16180748.65148
      -543.0394       -423.1464         52.1004         49.2004
  24020858.7724   24020855.0204   24020856.9324   -3464080.75746  -2676119.70145
     -3264.7464      -2543.9624         36.4004         34.6004
  21782964.9224   21782964.2374   21782968.5584  -15472648.29148 -11611899.02447
      1774.1524       1382.4524         48.2004         45.2004
  23003989.7564   23003989.8684   23003992.9504   -6082955.25047  -4723182.22146
       975.1844        759.8764         42.5004         39.9004
  23333879.2374   23333879.8714   23333882.8254   -7500468.19447  -5823773.39846
      2727.8924       2125.6284         43.6004         40.6004
  21743567.7574   21743567.2924   21743571.7784  -16485679.18447 -12807547.91547
      3055.3804       2380.8194         46.5004         43.7004
 10  1  5  0  6 30.0000000  0  7G28G15G 8G27G18G17G 9
  22036502.3944   22036502.1794   22036506.3464  -12851041.72547  -9996764.31647
     -2001.7814      -1559.8334         47.9004         44.9004
  20500007.9134   20500008.1714   20500011.3954  -20776408.47548 -16167847.07748
      -560.7594       -436.9554         52.1004         49.2004
  24039501.0924   24039502.3034   24039505.5564   -3366085.37846  -2599759.68345
     -3268.2744      -2546.7064         36.8004         35.0004
  21772857.4374   21772857.0474   21772861.5784  -15525761.92048 -11653286.26347
      1766.7394       1376.6764         48.2004         45.4004
  22998473.4454   22998474.7614   22998478.3584   -6111932.97047  -4745762.26146
       956.6134        745.4144         42.3004         39.5004
  23318335.2134   23318336.2334   23318340.8444   -7582146.59247  -5887418.86946
      2717.2944       2117.3624         43.4004         40.7004
  21726150.7994   21726150.0814   21726155.5034  -16577207.74847 -12878868.86147
      3046.4854       2373.8774         46.7004         43.9004
 10  1  5  0  7  0.0000000  0  7G28G15G 8G27G18G17G 9
  22047965.5764   22047965.2934   22047968.7134  -12790806.02747  -9949827.40747
     -2013.9334      -1569.3044         47.7004         44.7004
  20503259.2164   20503259.7654   20503263.6074  -20759319.23648 -16154530.79548
      -578.5324       -450.8044         52.1004         49.2004
  24058171.3304   24058167.7544   24058174.4904   -3267988.56446  -2523320.58445
     -3271.4884      -2549.2154         37.0004         35.0004
  21762792.3424   21762792.0964   21762796.5924  -15578652.30848 -11694499.54447
      1759.2844       1370.8674         48.2004         45.2004
  22993067.9374   22993066.9604   22993069.6764   -6140352.80547  -4767907.57246
       938.0114        730.9414         42.3004         39.5004
  23302854.7224   23302854.8614   23302857.0934   -7663505.37447  -5950815.31446
      2706.5924       2109.0214         43.4004         40.6004
  21708783.5134   21708783.8824   21708788.2524  -16668468.63047 -12949981.22547
      3037.5524       2366.9264         46.9004         43.9004
 10  1  5  0  7 30.0000000  0  7G28G15G 8G27G18G17G 9
  22059497.8734   22059497.1264   22059500.2144  -12730204.96047  -9902605.80447
     -2026.0894      -1578.7724         47.7004         44.7004
  20506612.7604   20506613.0964   20506616.4294  -20741697.74048 -16140799.76548
      -596.2584       -464.6184         51.9004         49.1004
  24076856.8444   24076857.0064   24076860.9154   -3169790.58646  -2446802.69245
     -3274.9234      -2551.8854         37.3004         35.3004
  21752770.9254   21752770.4874   21752774.1184  -15631319.06548 -11735538.57147
      1751.8224       1365.0494         48.2004         45.2004
  22987765.4614   22987764.9104   22987768.6224   -6168213.99847  -4789617.58446
       919.3804        716.4064         42.2004         39.7004
  23287432.3684   23287433.2794   23287436.4894   -7744541.80047  -6013960.55946
      2695.8074       2100.6264         43.4004         40.7004
  21691468.6664   21691468.7764   21691472.8414  -16759460.50447 -13020883.95647
      3028.5364       2359.8944         46.9004         43.9004
 10  1  5  0  8  0.0000000  0  7G28G15G 8G27G18G17G 9
  22071098.3844   22071098.3254   22071101.4584  -12669240.26847  -9855100.85347
     -2038.2034      -1588.2094         47.7004         44.7004
  20510067.3994   20510067.6984   20510071.2514  -20723543.85848 -16126653.89248
      -614.0294       -478.4624         51.9004         49.1004
  24095561.4004   24095559.6404   24095564.7524   -3071492.96646  -2370207.14945
     -3278.2044      -2554.4594         36.6004         34.1004
  21742790.7784   21742790.8534   21742794.9134  -15683761.82548 -11776403.06347
      1744.3634       1359.2394         48.2004         45.4004
  22982570.0354   22982569.4414   22982572.3624   -6195515.58747  -4810891.55646
       900.6844        701.8314         42.3004         39.9004
  23272074.9234   23272075.4234   23272077.0204   -7825253.10747  -6076852.49546
      2684.9074       2092.1364         43.6004         40.9004
  21674204.9704   21674204.9084   21674209.4394  -16850181.67847 -13091575.77247
      3019.5064       2352.8694         46.7004         43.9004
 10  1  5  0  8 30.0000000  0  7G28G15G 8G27G18G17G 9
  22082768.9944   22082768.8094   22082771.5274  -12607914.04947  -9807314.18747
     -2050.2004      -1597.5594         47.7004         44.5004
  20513623.6034   20513623.8994   20513626.7484  -20704857.57848 -16112093.15848
      -631.7514       -492.2804         51.7004         49.1004
  24114285.2524   24114283.0524   24114290.5044   -2973095.99145  -2293534.09245
     -3281.5254      -2557.0374         35.9004         34.1004
  21732854.4004   21732853.7624   21732857.8334  -15735980.19148 -11817092.70047
      1736.8524       1353.3914         48.4004         45.4004
  22977481.4384   22977481.6234   22977484.8194   -6222256.79547  -4831728.87146
       882.0154        687.2764         42.5004         39.7004
  23256778.1834   23256778.5584   23256782.6744   -7905636.33247  -6139488.72346
      2673.9584       2083.6034         43.9004         41.4004
  21656992.9034   21656993.3064   21656996.7554  -16940630.52047 -13162055.36647
      3010.4164       2345.7704         46.9004         43.9004
 10  1  5  0  9  0.0000000  0  7G28G15G 8G27G18G17G 9
  22094508.3944   22094507.0074   22094509.9344  -12546228.14047  -9759247.23447
     -2062.1794      -1606.8884         47.7004         44.7004
  20517280.6634   20517280.9934   20517283.6904  -20685639.09848 -16097117.73148
      -649.4904       -506.0984         51.7004         48.9004
  24133029.9374   24133029.5124   24133034.6734   -2874601.10346  -2216784.88845
     -3284.9414      -2559.6944         36.3004         34.8004
  21722960.3384   21722959.8664   21722963.6214  -15787973.47148 -11857606.94747
      1729.3614       1347.5574         48.2004         45.2004
  22972499.2224   22972500.2534   22972502.6744   -6248436.60847  -4852128.74446
       863.2934        672.7064         42.5004         39.9004
  23241545.6124   23241545.3454   23241548.3834   -7985688.39647  -6201866.95646
      2662.8624       2074.9494         44.1004         41.2004
  21639833.2104   21639832.9794   21639837.7414  -17030805.54047 -13232321.60547
      3001.2524       2338.6344         46.9004         43.9004
 10  1  5  0  9 30.0000000  0  7G28G15G 8G27G18G17G 9
  22106314.3044   22106313.7384   22106316.4254  -12484184.27847  -9710901.37247
     -2074.0864      -1616.1664         47.7004         44.7004
  20521038.9444   20521039.2434   20521042.1284  -20665888.19448 -16081727.42348
      -667.2314       -519.9204         51.5004         48.7004
  24151788.6944   24151787.6294   24151796.7284   -2776009.17446  -2139960.01945
     -3288.1484      -2562.1924         36.3004         34.3004
  21713107.9414   21713108.2554   21713112.6244  -15839741.37848 -11897945.57047
      1721.8204       1341.6824         48.2004         45.2004
  22967624.9284   22967624.9014   22967628.0274   -6274054.18247  -4872090.48846
       844.5024        658.0394         42.7004         40.2004
  23226373.7534   23226374.8434   23226377.9314   -8065406.83347  -6263985.20346
      2651.6764       2066.2404         43.9004         40.9004
  21622726.7084   21622726.0994   21622730.8734  -17120705.31547 -13302373.36447
      2992.0684       2331.4834         47.0004         44.0004
 10  1  5  0 10  0.0000000  0  7G28G15G 8G27G18G17G 9
  22118187.8514   22118187.5384   22118190.4264  -12421784.50547  -9662278.16447
     -2085.8984      -1625.3754         47.5004         44.5004
  20524898.9224   20524899.2124   20524902.0604  -20645605.02648 -16065922.36848
      -684.9794       -533.7484         51.5004         48.9004
  24170571.8204   24170569.6984   24170573.1954   -2677321.26045  -2063060.41245
     -3291.3124      -2564.6544         35.7004         34.0004
  21703300.9824   21703300.2064   21703304.6514  -15891283.48948 -11938108.24947
      1714.3054       1335.8184         48.2004         45.2004
  22962857.0614   22962857.0804   22962860.4714   -6299108.71847  -4891613.51646
       825.7744        643.4564         42.7004         39.9004
  23211268.7384   23211268.8354   23211273.1224   -8144788.85547  -6325841.32746
      2640.4094       2057.4644         43.9004         41.2004
  21605671.1844   21605671.6104   21605675.5034  -17210328.40647 -13372209.51947
      2982.7994       2324.2584         47.0004         44.0004
 10  1  5  0 10 30.0000000  0  7G28G15G 8G27G18G17G 9
  22130130.2694   22130129.3584   22130131.6834  -12359030.77347  -9613379.14347
     -2097.6794      -1634.5504         47.5004         44.4004
  20528859.9264   20528860.1254   20528863.1344  -20624789.73048 -16049702.67048
      -702.7374       -547.5854         51.5004         48.7004
  24189367.6214   24189367.3024   24189370.0244   -2578538.49245  -1986086.81845
     -3294.4804      -2567.1294         35.4004         33.6004
  21693535.9214   21693535.5044   21693539.2834  -15942599.23248 -11978094.54147
      1706.7434       1329.9284         48.2004         45.2004
  22958197.6074   22958196.8124   22958201.2314   -6323599.36247  -4910697.13746
       806.9414        628.7864         42.7004         39.9004
  23196228.2704   23196228.6704   23196231.6234   -8223831.47447  -6387432.95746
      2629.0434       2048.6024         44.1004         41.4004
  21588670.0994   21588669.7824   21588673.1064  -17299673.23047 -13441828.85147
      2973.5054       2317.0124         47.0004         44.2004
 10  1  5  0 11  0.0000000  0  7G28G15G 8G27G18G17G 9
  22142138.2124   22142138.2484   22142141.1064  -12295924.89747  -9564205.74747
     -2109.3764      -1643.6734         47.4004         44.4004
  20532921.3714   20532922.0894   20532925.3684  -20603442.18248 -16033068.23248
      -720.4514       -561.3904         51.5004         48.5004
  24208183.1524   24208183.5294   24208186.3114   -2479661.49845  -1909039.82745
     -3297.4014      -2569.3904         34.7004         33.1004
  21683813.9204   21683813.7454   21683817.4464  -15993688.22048 -12017904.13647
      1699.1574       1324.0104         48.4004         45.4004
  22953643.8134   22953644.4324   22953646.6684   -6347525.32247  -4929340.76946
       788.1024        614.1254         42.7004         40.2004
  23181250.6794   23181251.9034   23181254.4684   -8302531.84347  -6448757.91146
      2617.6124       2039.6944         43.9004         40.7004
  21571721.0434   21571721.1644   21571725.1264  -17388738.11447 -13511230.05747
      2964.1344       2309.7124         47.2004         44.4004
 10  1  5  0 11 30.0000000  0  7G28G15G 8G27G18G17G 9
  22154215.0744   22154213.7584   22154215.7404  -12232468.90547  -9514759.51247
     -2121.0164      -1652.7374         47.5004         44.5004
  20537086.1804   20537086.2104   20537088.8404  -20581562.69348 -16016019.29448
      -738.2044       -575.2244         51.5004         48.7004
  24227017.8314   24227014.4394   24227020.8994   -2380691.44745  -1831920.27345
     -3300.6264      -2571.9144         34.9004         33.4004
  21674135.0984   21674134.9784   21674138.5544  -16044549.79948 -12057536.53647
      1691.5704       1318.1084         48.4004         45.4004
  22949199.2344   22949198.9224   22949199.6484   -6370886.21747  -4947544.07046
       769.2264        599.4124         42.9004         40.4004
  23166341.7074   23166340.3674   23166342.8304   -8380887.22947  -6509814.02946
      2606.0304       2030.6744         43.7004         40.9004
  21554826.7344   21554826.4034   21554830.3034  -17477521.45647 -13580411.87647
      2954.7174       2302.3774         47.5004         44.7004
 10  1  5  0 12  0.0000000  0  7G28G15G 8G27G18G17G 9
  22166355.4374   22166354.8524   22166357.6004  -12168664.45547  -9465041.75747
     -2132.6184      -1661.7754         47.4004         44.2004
  20541350.7794   20541350.8914   20541353.9184  -20559151.12248 -15998555.74548
      -755.9264       -589.0314         51.5004         48.7004
  24245864.3094   24245865.1254   24245869.9264   -2281629.44845  -1754729.10045
     -3303.7354      -2574.3434         34.9004         33.4004
  21664500.1044   21664499.4864   21664503.2854  -16095183.71348 -12096991.52647
      1683.9934       1312.2014         48.4004         45.4004
  22944860.3914   22944860.3014   22944862.0804   -6393680.97847  -4965306.24346
       750.3734        584.7204         42.7004         39.9004
  23151497.1904   23151497.1514   23151499.1654   -8458894.76747  -6570599.11946
      2594.4084       2021.6204         43.7004         41.1004
  21537984.7714   21537985.0344   21537989.5114  -17566021.78347 -13649373.17047
      2945.2634       2295.0154         47.5004         44.7004
 10  1  5  0 12 30.0000000  0  7G28G15G 8G27G18G17G 9
  22178562.7194   22178562.5874   22178565.9764  -12104513.44747  -9415053.95847
     -2144.1144      -1670.7354         47.2004         44.4004
  20545716.6954   20545716.9104   20545719.9854  -20536207.66148 -15980677.72948
      -773.6494       -602.8464         51.5004         48.5004
  24264736.0364   24264735.3974   24264739.2674   -2182476.42345  -1677466.97845
     -3306.5854      -2576.5604         35.0004         33.6004
  21654907.8564   21654907.5914   21654911.9764  -16145589.38448 -12136268.67447
      1676.3844       1306.2704         48.4004         45.4004
  22940631.3474   22940630.1134   22940631.9414   -6415908.64947  -4982626.48346
       731.4424        569.9484         42.5004         39.7004
  23136719.2244   23136719.3084   23136722.4614   -8536551.83847  -6631111.12446
      2582.6934       2012.4954         43.7004         40.9004
  21521197.9434   21521197.9424   21521202.3514  -17654237.62847 -13718112.78747
      2935.7654       2287.6114         47.7004         44.7004
 10  1  5  0 13  0.0000000  0  7G28G15G 8G27G18G17G 9
  22190835.9994   22190835.3074   22190838.7814  -12040017.88847  -9364797.67947
     -2155.5524      -1679.6444         47.4004         44.5004
  20550183.7474   20550183.7744   20550187.4884  -20512732.61548 -15962385.49948
      -791.3604       -616.6454         51.4004         48.5004
  24283623.7884   24283622.7684   24283626.0774   -2083233.22046  -1600134.64945
     -3309.6624      -2578.9564         37.0004         35.5004
  21645359.9574   21645359.5564   21645363.4654  -16195766.32748 -12175367.58547
      1668.7504       1300.3254         48.4004         45.4004
  22936509.1934   22936509.3484   22936512.7624   -6437568.84247  -4999504.55746
       712.5494        555.2284         42.7004         40.2004
  23122007.7254   23122008.0874   23122012.6224   -8613855.55347  -6691347.76246
      2570.8404       2003.2314         43.9004         41.1004
  21504465.6694   21504465.3474   21504470.3584  -17742167.14347 -13786629.27547
      2926.2004       2280.1494         47.7004         44.5004
 10  1  5  0 13 30.0000000  0  7G28G15G 8G27G18G17G 9
  22203173.8034   22203173.6354   22203176.6734  -11975179.88347  -9314274.56447
     -2166.9714      -1688.5584         47.4004         44.2004
  20554751.7294   20554752.1814   20554755.4624  -20488726.25148 -15943679.25048
      -809.0814       -630.4524         51.4004         48.5004
  24302523.4204   24302520.0344   24302527.2994   -1983900.94646  -1522732.96445
     -3312.4934      -2581.1604         36.8004         34.5004
  21635854.6954   21635854.5004   21635858.4604  -16245714.08548 -12214287.90747
      1661.1004       1294.3614         48.4004         45.4004
  22932494.1504   22932494.9124   22932497.2294   -6458661.22147  -5015940.19546
       693.5704        540.4414         43.0004         40.4004
  23107367.0094   23107367.2014   23107369.5164   -8690802.96447  -6751306.77346
      2558.9684       1994.0034         44.1004         41.4004
  21487788.0824   21487787.7904   21487792.0584  -17829809.03547 -13854921.64247
      2916.5874       2272.6594         47.5004         44.5004
 10  1  5  0 14  0.0000000  0  7G28G15G 8G27G18G17G 9
  22215576.7374   22215577.0324   22215580.3464  -11910001.19047  -9263485.97647
     -2178.2704      -1697.3604         47.2004         44.4004
  20559421.2504   20559421.3494   20559424.5464  -20464188.45148 -15924558.89548
      -826.7794       -644.2424         51.4004         48.5004
  24321433.1574   24321437.5194   24321447.7974   -1884480.10355  -1445262.21955
     -3315.5314      -2583.5274         35.0004         33.1004
  21626393.6874   21626393.4984   21626397.4414  -16295432.25948 -12253029.34147
      1653.4304       1288.3794         48.4004         45.4004
  22928589.4004   22928589.3514   22928593.0064   -6479184.80747  -5031932.60946
       674.6444        525.6944         42.9004         40.0004
  23092790.2494   23092790.9794   23092795.2044   -8767391.50047  -6810986.13846
      2546.9414       1984.6464         43.9004         41.1004
  21471165.4994   21471165.4924   21471169.1574  -17917161.85447 -13922988.76247
      2906.9024       2265.1164         47.4004         44.4004
 10  1  5  0 14 30.0000000  0  7G28G15G 8G27G18G17G 9
  22228044.6904   22228044.4614   22228047.1034  -11844483.73947  -9212433.40647
     -2189.5484      -1706.1444         47.2004         44.0004
  20564191.7004   20564191.6954   20564195.3994  -20439119.54948 -15905024.70248
      -844.4924       -658.0474         51.4004         48.5004
  24340382.6514   24340382.6684   24340381.8174   -1784972.39545  -1367723.78345
     -3318.3454      -2585.7184         34.3004         33.1004
  21616976.7384   21616976.0164   21616979.6364  -16344920.44848 -12291591.55247
      1645.7604       1282.4074         48.2004         45.2004
  22924792.8034   22924791.0764   22924795.2264   -6499138.91247  -5047481.27946
       655.6404        510.8934         42.3004         39.5004
  23078285.8214   23078286.1094   23078290.1534   -8843618.61247  -6870383.87846
      2534.8504       1975.1994         44.1004         41.4004
  21454598.2224   21454598.2894   21454601.1434  -18004223.58247 -13990829.06947
      2897.1914       2257.5494         47.4004         44.2004
 10  1  5  0 15  0.0000000  0  7G28G15G 8G27G18G17G 9
  22240576.6764   22240576.3944   22240579.2464  -11778629.47847  -9161118.39347
     -2200.7394      -1714.8524         47.0004         44.2004
  20569063.1514   20569063.4544   20569066.8074  -20413519.56248 -15885076.67148
      -862.1984       -671.8354         51.4004         48.4004
  24359336.0724   24359333.8604   24359336.4974   -1685377.87345  -1290117.69745
     -3321.3124      -2588.0244         34.0004         32.9004
  21607602.9674   21607602.6964   21607606.7404  -16394178.15148 -12329974.17247
      1638.0584       1276.4064         48.4004         45.4004
  22921103.4884   22921102.4684   22921106.1314   -6518523.02847  -5062585.78646
       636.6384        496.0704         42.3004         39.7004
  23063848.8154   23063850.1114   23063853.0034   -8919481.24547  -6929497.60446
      2522.6584       1965.7184         44.1004         41.2004
  21438086.7864   21438086.8254   21438090.5124  -18090992.64147 -14058441.32047
      2887.4064       2249.9264         47.4004         44.5004
 10  1  5  0 15 30.0000000  0  7G28G15G 8G27G18G17G 9
  22253171.9994   22253171.2184   22253174.9944  -11712440.35047  -9109542.46247
     -2211.8494      -1723.5224         47.0004         43.9004
  20574035.8764   20574035.8504   20574039.3604  -20387388.98248 -15864715.19148
      -879.8614       -685.6074         51.2004         48.4004
  24378300.8304   24378301.5784   24378304.3184   -1585697.85645  -1212445.13245
     -3324.0454      -2590.1754         34.3004         33.3004
  21598272.3894   21598272.6634   21598277.5154  -16443204.97148 -12368176.87947
      1630.3664       1270.4104         48.4004         45.4004
  22917523.9044   22917524.4154   22917526.3424   -6537336.49047  -5077245.65646
       617.5964        481.2544         42.7004         39.9004
  23049484.5884   23049483.5204   23049486.8674   -8994976.98547  -6988325.44446
      2510.3454       1956.1234         44.2004         41.6004
  21421630.3584   21421630.7184   21421634.3314  -18177467.90247 -14125824.63447
      2877.5884       2242.2744         47.5004         44.4004
 10  1  5  0 16  0.0000000  0  7G28G15G 8G27G18G17G 9
  22265830.3764   22265830.1334   22265833.3464  -11645918.34947  -9057707.15347
     -2222.9314      -1732.1524         46.9004         43.9004
  20579109.0534   20579109.5654   20579112.7554  -20360728.29348 -15843940.64048
      -897.5584       -699.3974         51.2004         48.4004
  24397276.4364   24397280.4964                   -1485933.49355  -1134706.62455
     -3326.9704      -2592.4574         33.0004         31.7004
  21588988.1944   21588987.6214   21588991.7304  -16492000.41748 -12406199.29347
      1622.6464       1264.3944         48.4004         45.6004
  22914052.6704   22914052.0804   22914054.4594   -6555578.90247  -5091460.53246
       598.5664        466.4154         42.5004         39.9004
  23035186.7984   23035187.1624   23035190.4694   -9070102.53847  -7046864.82346
      2497.9764       1946.4704         44.1004         41.2004
  21405232.3934   21405231.7284   21405235.1644  -18263647.76147 -14192977.76247
      2867.7104       2234.5834         47.5004         44.7004
 10  1  5  0 16 30.0000000  0  7G28G15G 8G27G18G17G 9
  22278551.7524   22278551.3324   22278555.5544  -11579065.22247  -9005613.79647
     -2233.9384      -1740.7224         46.9004         43.9004
  20584283.7514   20584283.6434   20584286.9264  -20333537.06348 -15822752.68148
      -915.2274       -713.1634         51.2004         48.4004
  24416291.3254   24416283.5274   24416289.8674   -1386085.82745  -1056903.18545
     -3329.7464      -2594.6114         32.1004         31.7004
  21579747.3404   21579746.5634   21579750.3914  -16540564.06248 -12444041.10047
      1614.9144       1258.3724         48.6004         45.6004
  22910691.3494   22910690.3874   22910692.9134   -6573249.52947  -5105229.85846
       579.4574        451.5174         42.7004         40.2004
  23020962.4904   23020963.3324   23020966.0974   -9144855.46647  -7105113.83746
      2485.5284       1936.7804         44.2004         41.4004
  21388888.4704   21388888.8484   21388892.2244  -18349530.44447 -14259899.32447
      2857.7924       2226.8544         47.7004         44.9004
 10  1  5  0 17  0.0000000  0  7G28G15G 8G27G18G17G 9
  22291336.3774   22291335.1134   22291340.0954  -11511882.74447  -8953263.82247
     -2244.8834      -1749.2654         46.7004         43.7004
  20589558.3074   20589558.9924   20589562.2374  -20305815.91248 -15801151.80348
      -932.8654       -726.9124         51.2004         48.4004
  24435297.1874                   24435303.2944   -1286155.46045   -979035.47945
     -3332.5054      -2596.7524         32.3004         32.0004
  21570549.1414   21570549.1684   21570553.2794  -16588895.31448 -12481701.80847
      1607.1594       1252.3324         48.6004         45.6004
  22907437.2944   22907435.6654   22907437.6414   -6590348.12747  -5118553.45646
       560.4724        436.7184         42.9004         40.0004
  23006809.2784   23006809.8734   23006811.9364   -9219233.22247  -7163070.52146
      2472.9474       1926.9554         44.4004         41.6004
  21372602.2814   21372602.2134   21372606.4474  -18435114.42947 -14326588.14547
      2847.7934       2219.0564         47.9004         44.9004
 10  1  5  0 17 30.0000000  0  7G28G15G 8G27G18G17G 9
  22304182.2324   22304182.2544   22304186.5714  -11444373.23147  -8900658.99947
     -2255.7444      -1757.7304         46.7004         43.7004
  20594934.6454   20594934.7544   20594938.1164  -20277565.12648 -15779138.20248
      -950.5274       -740.6744         51.2004         48.4004
  24454333.8474   24454325.9394                   -1186143.57745   -901104.10545
     -3335.1694      -2598.8464         31.9004         31.5004
  21561396.4644   21561396.4784   21561400.8344  -16636993.67848 -12519181.05047
      1599.3764       1246.2624         48.6004         45.8004
  22904292.7504   22904291.8544   22904294.7154   -6606874.06947  -5131430.82046
       541.3094        421.8024         42.9004         40.2004
  22992726.4004   22992727.6884   22992730.5704   -9293232.82547  -7220732.53846
      2460.3214       1917.1294         44.2004         41.4004
  21356373.3394   21356373.0434   21356377.5044  -18520398.03847 -14393042.89147
      2837.7344       2211.2294         47.9004         44.9004
 10  1  5  0 18  0.0000000  0  7G28G15G 8G27G18G17G 9
  22317091.6414   22317090.8864   22317095.5254  -11376538.52747  -8847800.79847
     -2266.5474      -1766.1454         46.7004         43.9004
  20600411.6224   20600411.6674   20600414.8474  -20248785.08948 -15756712.21448
      -968.1544       -754.4064         51.2004         48.4004
  24473379.5194                                   -1086050.92645   -823109.84045
     -3337.9134      -2600.9564         31.9004         31.3004
  21552288.5724   21552288.3754   21552292.3784  -16684858.55548 -12556478.35447
      1591.5874       1240.1984         48.8004         45.8004
  22901256.9284   22901255.8624   22901258.6904   -6622826.65447  -5143861.42346
       522.1894        406.9044         43.0004         40.2004
  22978718.1444   22978718.6624   22978720.5814   -9366851.76747  -7278097.92946
      2447.5884       1907.1984         44.1004         41.2004
  21340202.3684   21340202.0474   21340205.8694  -18605379.79447 -14459262.42647
      2827.6634       2203.3664         47.9004         44.7004
 10  1  5  0 18 30.0000000  0  8G22G28G15G 8G27G18G17G 9
                                  24519462.416     -205428.08445    -99949.420 3
      2174.0294       1703.731          31.2004         21.300
  22330061.0884   22330060.6834   22330065.4214  -11308380.72647  -8794690.82447
     -2277.3044      -1774.5204         46.5004         43.5004
  20605988.4804   20605988.6534   20605991.8744  -20219476.34548 -15733874.23548
      -985.7654       -768.1294         51.2004         48.2004
  24492439.3174                                    -985878.93145   -745053.81445
     -3340.3274      -2602.8484         31.6004         31.2004
  21543224.6654   21543223.9164   21543228.5934  -16732489.71648 -12593593.53347
      1583.8054       1234.1314         48.8004         45.9004
  22898330.3564   22898330.2204   22898333.2664   -6638205.78447  -5155845.16846
       503.0844        392.0004         43.4004         40.9004
  22964781.4914   22964781.9854   22964785.0494   -9440087.45747  -7335164.70946
      2434.7804       1897.2384         43.9004         41.1004
  21324087.7074   21324087.6954   21324092.2334  -18690058.38047 -14525245.72947
      2817.5474       2195.4924         47.9004         44.9004
 10  1  5  0 19  0.0000000  0  8G22G28G15G 8G27G18G17G 9
                                  24496883.798      -37000.85044     -8054.427
      2159.7854       1684.140          26.4004          1.500
  22343093.1864   22343092.3344   22343095.9824  -11239901.57647  -8741330.45347
     -2287.9794      -1782.8334         46.5004         43.7004
  20611666.0414   20611666.5704   20611669.7054  -20189638.94048 -15710624.31448
     -1003.3904       -781.8644         51.0004         48.0004
  24511512.1644                                    -885627.88854     29378.78053
     -3343.1184      -2605.0284         26.4004         23.4004
  21534204.9954   21534204.8184   21534209.4324  -16779886.90948 -12630526.39947
      1575.9904       1228.0454         48.9004         45.9004
  22895513.0684   22895511.5734   22895515.0184   -6653010.95847  -5167381.68646
       483.9364        377.1144         43.4004         40.6004
  22950919.1864   22950919.1554   22950922.9864   -9512937.17947  -7391930.72746
      2421.8594       1887.1524         44.2004         41.6004
  21308032.4024   21308031.7914   21308036.3144  -18774432.25047 -14590991.59147
      2807.3724       2187.5614         47.9004         44.9004
 10  1  5  0 19 30.0000000  0  7G22G28G15G27G18G17G 9
  24483187.4314                                    -101576.00744    -64266.13344
      2145.2804       1671.7384         26.4004         27.7004
  22356184.9324   22356184.2864   22356187.3154  -11171102.99947  -8687721.17747
     -2298.5904      -1791.1174         46.5004         43.3004
  20617444.3824   20617444.7784   20617448.4164  -20159273.51348 -15686962.93648
     -1020.9914       -795.5794         51.0004         48.2004
  21525230.0094   21525229.9554   21525234.0444  -16827049.68448 -12667276.61447
      1568.1814       1221.9614         48.8004         45.8004
  22892804.0934   22892803.3354   22892807.3904   -6667241.83747  -5178470.67646
       464.7834        362.1534         43.2004         40.2004
  22937127.3104   22937128.8164   22937133.6764   -9585398.27647  -7448393.91346
      2408.8544       1877.0174         44.2004         41.4004
  21292035.0914   21292034.8604   21292038.8304  -18858499.57347 -14656498.57747
      2797.1034       2179.5624         47.9004         45.1004
 10  1  5  0 20  0.0000000  0  7G22G28G15G27G18G17G 9
                                  24481935.694     -165718.83644    -69279.698 1
      2130.9344       1670.652          26.4004          8.800
  22369337.5284   22369337.1094   22369339.9714  -11101987.30247  -8633864.78447
     -2309.1444      -1799.3374         46.3004         43.5004
  20623323.0934   20623323.5444   20623327.0734  -20128380.14848 -15662890.17348
     -1038.5644       -809.2704         51.0004         48.2004
  21516299.8244   21516300.1034   21516304.0284  -16873977.16048 -12703843.47547
      1560.3194       1215.8304         48.8004         45.8004
  22890206.2704   22890204.9854   22890208.7304   -6680897.70247  -5189111.61246
       445.6424        347.2384         43.2004         40.4004
  22923415.6214   22923414.6394   22923420.0674   -9657467.97447  -7504552.10346
      2395.7564       1866.8244         44.6004         41.9004
  21276095.3224   21276095.5214   21276099.4824  -18942258.68148 -14721765.38947
      2786.8084       2171.5354         48.1004         45.1004
 10  1  5  0 20 30.0000000  0  7G22G28G15G27G18G17G 9
  24458852.7944                                    -229427.79844     -9496.87043
      2116.3974       1649.1394         26.4004         23.4004
  22382550.9484   22382549.4674   22382551.6414  -11032556.06447  -8579762.53847
     -2319.6054      -1807.4864         46.5004         43.5004
  20629302.4464   20629302.4274   20629305.9704  -20096959.41048 -15638406.48548
     -1056.1244       -822.9574         50.8004         48.0004
  21507415.4314   21507414.7264   21507419.1204  -16920668.87948 -12740226.63247
      1552.4574       1209.7084         48.8004         45.8004
  22887717.0974   22887717.4474   22887719.1764   -6693978.66547  -5199304.57946
       426.4424        332.2884         43.4004         40.7004
  22909775.2694   22909776.1184   22909780.5254   -9729143.63647  -7560403.24646
      2382.5854       1856.5624         44.6004         41.9004
  21260215.7604   21260216.0684   21260219.7874  -19025708.03548 -14786790.84947
      2776.4614       2163.4804         48.1004         45.1004
 10  1  5  0 21  0.0000000  0  8G22G12G28G15G27G18G17G 9
  24446815.2834                                    -292700.52844    -58799.77445
      2101.8444       1637.7914         26.4004         35.7004
                                  24965230.317      -89917.62044    -37917.517
      3809.8084       2968.806          26.4004          1.500
  22395822.0024   22395821.4614   22395822.9554  -10962810.93447  -8525415.68147
     -2330.0554      -1815.6264         46.2004         43.2004
  20635381.4144   20635381.9244   20635385.6594  -20065011.53248 -15613512.02748
     -1073.7044       -836.6514         50.8004         48.0004
  21498575.1194   21498574.8474   21498578.8194  -16967124.65048 -12776425.94047
      1544.5804       1203.5664         48.8004         45.9004
  22885336.0564   22885335.9064   22885340.4714   -6706484.21147  -5209049.16646
       407.2414        317.3384         43.6004         40.9004
  22896212.3964   22896212.4644   22896214.9444   -9800422.69747  -7615945.34946
      2369.3404       1846.2294         44.8004         41.9004
  21244395.5824   21244395.1054   21244399.2564  -19108846.38748 -14851573.95547
      2766.0804       2155.3894         48.1004         45.1004
 10  1  5  0 21 30.0000000  0  8G22G12G28G15G27G18G17G 9
  24434857.4254                                    -355534.81644   -107761.64446
      2087.1824       1626.3794         26.4004         36.2004
                                  24956037.058     -204173.59644    -75022.355
      3807.2094       2969.044          26.4004          1.500
  22409153.4784   22409153.2554   22409155.5114  -10892754.24247  -8470826.04847
     -2340.3984      -1823.6874         46.3004         43.3004
  20641563.3094   20641562.4834   20641565.5024  -20032537.36248 -15588207.47348
     -1091.2544       -850.3274         50.8004         48.0004
  21489779.3554   21489779.3314   21489783.6744  -17013343.63948 -12812440.72747
      1536.6784       1197.4084         48.9004         45.9004
  22883066.7894   22883065.1114   22883068.9884   -6718413.95447  -5218345.07846
       388.0384        302.3614         43.4004         40.4004
  22882724.5034   22882724.7434   22882728.9304   -9871302.38447  -7671176.27347
      2355.9444       1835.8094         45.1004         42.3004
  21228634.7984   21228634.2654   21228637.8124  -19191671.88348 -14916113.29547
      2755.6174       2147.2344         48.1004         45.1004
 10  1  5  0 22  0.0000000  0  8G22G12G28G15G27G18G17G 9
  24422984.8814                   24422985.2884    -417928.87146   -156380.44945
      2072.4504       1614.9004         36.4004         35.9004
  24920539.0514                                    -318349.82144   -220374.85445
      3804.5064       2964.6314         26.4004         30.1004
  22422543.1904   22422542.7954   22422545.9374  -10822387.90747  -8415995.14247
     -2350.7074      -1831.7234         46.3004         43.3004
  20647841.4524   20647841.6334   20647845.4354  -19999537.09348 -15562492.98248
     -1108.7814       -863.9884         50.8004         48.0004
  21481028.9144   21481029.2374   21481033.6914  -17059325.30948 -12848270.58747
      1528.7494       1191.2374         48.9004         45.9004
  22880906.6514   22880904.9774   22880908.0404   -6729767.80947  -5227192.22046
       368.8454        287.3874         43.0004         40.0004
  22869312.6114   22869312.2714   22869316.2014   -9941780.31547  -7726094.12447
      2342.5574       1825.3784         45.3004         42.3004
  21212932.7254   21212932.8154   21212936.7344  -19274182.98548 -14980407.64947
      2745.0994       2139.0314         48.1004         45.2004
 10  1  5  0 22 30.0000000  0  8G22G12G28G15G27G18G17G 9
  24411197.7114   24411196.2374   24411197.7334    -479880.52846   -204654.42846
      2057.6764       1603.3864         38.3004         36.4004
  24898826.150
                                       -24.200         -24.200
  22435992.4694   22435992.1114   22435994.7974  -10751713.90347  -8360924.50247
     -2360.9244      -1839.6794         46.2004         43.3004
  20654221.3694   20654221.5194   20654225.0034  -19966010.97648 -15536368.72847
     -1126.2784       -877.6224         50.8004         47.8004
  21472325.1124   21472325.0364   21472328.9104  -17105069.37348 -12883915.30947
      1520.8264       1185.0564         48.9004         45.9004
  22878854.8024   22878854.3034   22878857.8824   -6740545.47347  -5235590.40646
       349.6394        272.4434         43.0004         40.0004
  22855977.7104   22855978.5264   22855982.1674  -10011853.67547  -7780696.74047
      2328.9884       1814.7914         45.1004         42.3004
  21197291.9694   21197291.8104   21197295.2754  -19356378.02448 -15044455.72347
      2734.5684       2130.8274         48.1004         45.1004
 10  1  5  0 23  0.0000000  0  8G22G12G28G15G27G18G17G 9
  24399491.0414   24399491.3084   24399494.3644    -541387.78756   -252582.15556
      2042.7444       1591.7494         38.9004         36.4004
  24877130.3654                                    -159087.50944    -77775.89842
      3798.9054       2960.2704         26.4004         15.2004
  22449499.0584   22449499.3604   22449501.9514  -10680734.11147  -8305615.57547
     -2371.0674      -1847.5864         46.3004         43.3004
  20660701.0234   20660701.2014   20660704.2144  -19931960.03848 -15509835.53847
     -1143.7874       -891.2644         50.7004         47.7004
  21463665.4684   21463665.2824   21463669.2894  -17150575.39548 -12919374.54747
      1512.8914       1178.8834         48.9004         45.9004
  22876914.0194   22876913.7854   22876915.6314   -6750746.52947  -5243539.29546
       330.4254        257.4734         43.0004         40.4004
  22842721.1004   22842721.9144   22842725.2114  -10081520.07547  -7834982.22647
      2315.3714       1804.1944         45.1004         42.3004
  21181710.9264   21181711.1034   21181714.7714  -19438255.52748 -15108256.35847
      2723.9694       2122.5804         48.1004         45.1004
 10  1  5  0 23 30.0000000  0  8G22G12G28G15G27G18G17G 9
  24387870.9204   24387871.3904   24387873.4684    -602448.99446   -300162.33046
      2027.9374       1580.2114         38.5004         36.4004
                                  24856537.532     -273013.30444   -162112.671 3
      3796.0634       2957.494          26.4004         23.700
  22463063.6804   22463063.9564   22463066.3594  -10609450.48847  -8250069.89447
     -2381.1604      -1855.4504         46.2004         43.0004
  20667280.2804   20667280.4464   20667284.2134  -19897384.10548 -15482893.25747
     -1161.2794       -904.8914         50.7004         47.7004
  21455051.7504   21455051.1264   21455054.7184  -17195842.80748 -12954647.85847
      1504.9224       1172.6584         48.9004         45.9004
  22875082.5734   22875082.5034   22875085.9474   -6760370.76647  -5251038.70646
       311.1654        242.4654         42.9004         40.0004
  22829542.3754   22829542.2024   22829546.4054  -10150776.70247  -7888948.41447
      2301.6904       1793.5274         45.5004         42.6004
  21166190.7314   21166190.9144   21166194.6934  -19519813.74348 -15171808.21347
      2713.2504       2114.2244         48.1004         45.1004
 10  1  5  0 24  0.0000000  0  8G22G12G28G15G27G18G17G 9
  24376339.0064   24376338.1704   24376340.6614    -663062.10546   -347393.32646
      2012.9684       1568.5484         39.9004         37.9004
  24833786.0594                   24833791.2324    -386852.32045   -255255.32045
      3793.0784       2955.6454         34.5004         35.7004
  22476686.5564   22476685.4754   22476689.4084  -10537864.95247  -8194288.95347
     -2391.2044      -1863.2824         46.0004         43.0004
  20673960.1994   20673960.2524   20673963.5624  -19862284.28648 -15455542.75547
     -1178.7334       -918.4924         50.7004         47.8004
  21446482.3164   21446482.3814   21446486.5164  -17240871.29748 -12989734.99047
      1496.9624       1166.4654         48.8004         45.8004
  22873360.1644   22873360.0254   22873362.3464   -6769418.18947  -5258088.67446
       291.9574        227.5044         42.7004         39.9004
  22816440.9464   22816440.3004   22816443.6994  -10219620.95447  -7942593.27947
      2287.9314       1782.8154         45.5004         42.3004
  21150731.8094   21150731.1914   21150735.9194  -19601051.20348 -15235110.11547
      2702.5484       2105.8924         48.2004         45.2004
 10  1  5  0 24 30.0000000  0  8G22G12G28G15G27G18G17G 9
  24364887.4304   24364889.0144   24364890.7334    -723224.68046   -394273.26146
      1997.8594       1556.7744         39.7004         36.9004
  24812143.5954   24812141.3414   24812146.5834    -500602.37946   -343891.69445
      3790.1694       2953.3744         37.3004         35.7004
  22490365.2764   22490365.4294   22490368.3094  -10465979.51747  -8138274.33947
     -2401.1464      -1871.0244         45.8004         42.6004
  20680738.5194   20680738.6734   20680741.8894  -19826661.07348 -15427784.41247
     -1196.1644       -932.0774         50.5004         47.7004
  21437959.3734   21437959.4174   21437963.2814  -17285660.28348 -13024635.50047
      1488.9674       1160.2324         48.8004         45.9004
  22871750.5124   22871749.1664   22871751.3524   -6777888.64247  -5264689.04546
       272.7144        212.4884         42.7004         40.2004
  22803419.7264   22803419.9394   22803422.5914  -10288050.69347  -7995915.13547
      2274.0384       1771.9744         45.3004         42.5004
  21135334.0074   21135333.9454   21135337.5684  -19681966.47748 -15298160.97447
      2691.7824       2097.4894         48.2004         45.4004
 10  1  5  0 25  0.0000000  0  8G22G12G28G15G27G18G17G 9
  24353526.7684   24353525.9414   24353527.6404    -782935.56646   -440801.24446
      1982.7494       1545.0044         39.0004         36.4004
  24790515.1604   24790512.4944   24790515.3894    -614262.00446   -432457.57345
      3787.0644       2950.9574         37.6004         35.3004
  22504101.2654   22504100.5314   22504103.7164  -10393796.26947  -8082027.65447
     -2411.0704      -1878.7444         45.6004         42.6004
  20687617.0354   20687617.2804   20687620.6854  -19790514.87248 -15399618.54447
     -1213.5904       -945.6514         50.5004         47.5004
  21429482.3044   21429481.9074   21429486.0594  -17330209.18248 -13059348.92947
      1480.9474       1153.9824         48.9004         45.9004
  22870244.5834   22870245.2324   22870249.0734   -6785781.99247  -5270839.72146
       253.4914        197.5534         42.5004         39.9004
  22790477.7644   22790476.5724   22790480.3414  -10356063.32547  -8048911.97547
      2260.0964       1761.1114         45.3004         42.3004
  21119998.3604   21119998.3674   21120002.0574  -19762558.15548 -15360959.68347
      2680.9734       2089.0674         48.6004         45.6004
 10  1  5  0 25 30.0000000  0  8G22G12G28G15G27G18G17G 9
  24342252.4004   24342250.9864   24342252.5984    -842192.40646   -486975.42146
      1967.6934       1533.2734         38.5004         36.0004
  24768899.5614   24768900.0744   24768904.3674    -727828.95046   -520951.26445
      3784.0044       2948.5724         37.3004         35.2004
  22517894.1084   22517893.3204   22517896.4754  -10321316.65747  -8025550.04747
     -2420.8964      -1886.4204         45.6004         42.6004
  20694595.1754   20694595.4964   20694598.4384  -19753846.12248 -15371045.49747
     -1231.0084       -959.2264         50.5004         47.5004
  21421050.5444   21421050.3184   21421054.7134  -17374517.60348 -13093874.97347
      1472.9134       1147.7214         48.9004         45.9004
  22868854.8604   22868854.3344   22868856.5534   -6793098.03647  -5276540.55046
       234.2294        182.4924         42.3004         39.5004
  22777614.9664   22777614.6554   22777617.6284  -10423655.73447  -8101581.38547
      2246.0524       1750.1784         45.1004         42.1004
  21104724.3224   21104723.8744   21104727.4644  -19842824.28548 -15423504.71047
      2670.0914       2080.5924         48.6004         45.4004
 10  1  5  0 26  0.0000000  0  8G22G12G28G15G27G18G17G 9
  24331061.9714   24331058.9124   24331062.8034    -900993.54946   -532794.47445
      1952.4814       1521.4184         37.6004         35.3004
  24747307.5444   24747308.0864   24747311.8124    -841301.61346   -609371.47445
      3780.8594       2946.1224         37.5004         35.3004
  22531742.5234   22531741.9794   22531745.0654  -10248543.07447  -7968843.35147
     -2430.6624      -1894.0144         45.6004         42.6004
  20701672.3314   20701672.3534   20701675.7144  -19716655.55348 -15342065.84347
     -1248.3804       -972.7634         50.5004         47.7004
  21412664.1704   21412664.1594   21412668.8514  -17418585.12448 -13128213.29847
      1464.8894       1141.4704         48.9004         45.9004
  22867572.0554   22867571.5434   22867574.4214   -6799836.76447  -5281791.51446
       215.0214        167.5614         42.3004         39.5004
  22764831.4524   22764832.6874   22764837.3414  -10490825.71747  -8153921.62347
      2231.9134       1739.1714         45.1004         42.3004
  21089511.9374   21089511.8504   21089516.1094  -19922763.26248 -15485794.81147
      2659.1704       2072.0824         48.6004         45.6004
 10  1  5  0 26 30.0000000  0  8G22G12G28G15G27G18G17G 9
  24319959.1094   24319958.1484   24319959.4184    -959336.94546   -578256.84145
      1937.0854       1509.4184         37.8004         35.7004
  24725730.4484   24725732.8894   24725737.3144    -954678.16046   -697716.79546
      3777.4984       2943.5114         38.0004         36.2004
  22545645.1774   22545644.7404   22545648.8994  -10175477.43147  -7911909.10247
     -2440.3834      -1901.6014         45.5004         42.5004
  20708847.6544   20708848.2374   20708852.1014  -19678943.77648 -15312680.03647
     -1265.7544       -986.2964         50.5004         47.5004
  21404325.1184   21404324.6464   21404329.0894  -17462411.10648 -13162363.40647
      1456.8254       1135.1904         48.9004         46.1004
  22866399.3934   22866399.4694   22866402.0604   -6805998.06647  -5286592.55546
       195.7294        152.4984         42.2004         39.7004
  22752131.3794   22752131.1594   22752135.7834  -10557570.84647  -8205930.80447
      2217.7094       1728.1034         45.3004         42.5004
  21074362.8024   21074362.2694   21074366.5014  -20002373.60548 -15547828.83947
      2648.1704       2063.5084         48.4004         45.4004
 10  1  5  0 27  0.0000000  0  8G22G12G28G15G27G18G17G 9
  24308944.5534   24308944.5254   24308944.2344   -1017220.69946   -623361.10746
      1921.8334       1497.5274         38.5004         36.4004
  24704176.4524   24704175.5284   24704180.4754   -1067956.51146   -785985.62846
      3774.2684       2940.9824         38.5004         36.4004
  22559604.6504   22559604.8254   22559608.0504  -10102121.54347  -7854748.67947
     -2450.0494      -1909.1224         45.6004         42.6004
  20716124.1484   20716124.1474   20716127.4304  -19640711.44648 -15282888.62147
     -1283.0644       -999.7914         50.3004         47.5004
  21396031.4544   21396030.8414   21396035.2814  -17505995.21148 -13196325.03947
      1448.7614       1128.9084         49.1004         46.1004
  22865336.9694   22865336.3034   22865339.2614   -6811581.85847  -5290943.56346
       176.5094        137.5504         42.3004         39.7004
  22739511.7154   22739511.9424   22739515.0604  -10623888.60047  -8257606.97047
      2203.4314       1716.9504         45.3004         42.5004
  21059276.8044   21059276.3124   21059280.2024  -20081653.57948 -15609605.43947
      2637.1544       2054.9244         48.6004         45.6004
 10  1  5  0 27 30.0000000  0  8G22G12G28G15G27G18G17G 9
  24298016.5684   24298016.5414   24298018.5224   -1074643.19846   -668105.92546
      1906.3714       1485.4834         39.2004         37.1004
  24682641.9134   24682640.8724   24682644.6164   -1181135.53346   -874177.09946
      3770.9004       2938.3644         39.0004         36.7004
  22573619.5564   22573618.9984   22573622.1434  -10028477.46647  -7797363.68347
     -2459.5864      -1916.5684         45.5004         42.6004
  20723497.3584   20723498.1124   20723501.4304  -19601959.31448 -15252692.16447
     -1300.3984      -1013.2974         50.3004         47.5004
  21387783.7444   21387783.5724   21387787.4364  -17549336.99448 -13230097.85547
      1440.6634       1122.5944         49.1004         45.9004
  22864384.2694   22864384.4144   22864388.2614   -6816588.04647  -5294844.49946
       157.2354        122.5024         42.5004         39.9004
  22726974.1324   22726973.8814   22726976.6264  -10689776.57247  -8308948.23047
      2189.0474       1705.7524         45.5004         42.6004
  21044252.7784   21044252.7274   21044256.6994  -20160601.91048 -15671123.61747
      2626.0434       2046.2684         48.6004         45.6004
 10  1  5  0 28  0.0000000  0  8G22G12G28G15G27G18G17G 9
  24287178.5544   24287175.8754   24287178.8604   -1131602.67446   -712489.95746
      1890.9384       1473.4644         38.7004         36.2004
  24661122.8614   24661122.2124   24661125.9934   -1294213.11946   -962289.45846
      3767.5604       2935.7634         39.2004         36.9004
  22587687.4334   22587687.2204   22587690.2164   -9954547.17447  -7739755.66647
     -2469.1094      -1923.9914         45.5004         42.5004
  20730971.1294   20730971.5914   20730974.5294  -19562688.05448 -15222091.18747
     -1317.6984      -1026.7774         50.3004         47.5004
  21379582.6354   21379581.9804   21379586.0074  -17592435.81148 -13263681.35047
      1432.5584       1116.2864         49.1004         46.1004
  22863540.8924   22863540.7444   22863544.3234   -6821016.88147  -5298295.53946
       138.0064        107.5294         42.3004         39.3004
  22714517.8224   22714518.4284   22714521.2614  -10755232.18947  -8359952.58947
      2174.5964       1694.4954         45.6004         43.0004
  21029292.9984   21029292.8044   21029296.7084  -20239217.01148 -15732382.13147
      2614.9374       2037.6134         48.8004         45.8004
 10  1  5  0 28 30.0000000  0  8G22G12G28G15G27G18G17G 9
  24276426.0784   24276426.8124   24276427.5754   -1188097.06546   -756511.60145
      1875.3544       1461.3144         38.0004         35.3004
  24639625.2114   24639622.8384   24639627.1184   -1407187.57146  -1050321.39746
      3764.0504       2933.0244         38.9004         36.6004
  22601809.9494   22601809.8824   22601812.8804   -9880332.53947  -7681926.07947
     -2478.5454      -1931.3304         45.5004         42.5004
  20738543.1214   20738543.1174   20738546.2804  -19522898.10748 -15191086.04847
     -1334.9924      -1040.2554         50.3004         47.3004
  21371427.3524   21371426.7774   21371430.6584  -17635291.23848 -13297075.18447
      1424.4634       1109.9704         49.1004         46.1004
  22862808.8194   22862809.7044   22862811.7254   -6824867.99747  -5301296.40546
       118.7564         92.5534         42.5004         39.9004
  22702145.0824   22702145.6714   22702148.2064  -10820252.77647  -8410617.96947
      2160.0794       1683.1674         45.6004         43.0004
  21014397.0554   21014396.8254   21014400.4544  -20317497.21248 -15793379.68647
      2603.7344       2028.8804         48.9004         45.9004
 10  1  5  0 29  0.0000000  0  8G22G12G28G15G27G18G17G 9
  24265766.8354   24265765.2594   24265766.5874   -1244124.54246   -800169.35845
      1859.6734       1449.0924         37.8004         35.5004
  24618144.1454   24618145.6094   24618148.0924   -1520056.88346  -1138271.50046
      3760.5344       2930.2904         39.0004         36.6004
  22615987.4084   22615986.2544   22615989.4314   -9805835.41847  -7623876.38047
     -2487.9244      -1938.6384         45.3004         42.5004
  20746213.3164   20746213.5494   20746217.0614  -19482590.07248 -15159677.19547
     -1352.2364      -1053.6884         50.3004         47.5004
  21363318.5754   21363318.4554   21363322.0444  -17677902.71848 -13330278.94347
      1416.3094       1103.6224         49.1004         46.1004
  22862185.7574   22862185.9344   22862187.7174   -6828141.91447  -5303847.51746
        99.5194         77.5524         42.5004         39.9004
  22689854.9054   22689854.9934   22689857.9844  -10884836.05447  -8460942.59647
      2145.4664       1671.7784         45.8004         42.8004
  20999564.4274   20999564.3804   20999568.1914  -20395440.58748 -15854114.77847
      2592.4864       2020.1204         48.9004         45.9004
 10  1  5  0 29 30.0000000  0  8G22G12G28G15G27G18G17G 9
  24255194.0854   24255193.6164   24255194.1044   -1299683.48946   -843461.96245
      1844.1364       1436.9844         37.6004         35.5004
  24596682.7174   24596685.0174   24596690.5504   -1632819.33746  -1226138.33646
      3756.9314       2927.4754         38.9004         36.6004
  22630215.8784   22630215.8614   22630219.9524   -9731057.70247  -7565608.04247
     -2497.2474      -1945.9004         45.5004         42.6004
  20753982.5714   20753982.4754   20753985.7454  -19441764.83248 -15127865.32347
     -1369.4454      -1067.1034         50.3004         47.5004
  21355256.3764   21355255.9344   21355259.6154  -17720269.79448 -13363292.24847
      1408.1524       1097.2674         49.1004         45.9004
  22861672.8354   22861671.9724   22861675.8494   -6830838.23147  -5305948.55546
        80.2604         62.5274         43.0004         40.6004
  22677648.2754   22677649.4784   22677652.8374  -10948979.82547  -8510924.75147
      2130.7504       1660.3214         45.8004         43.0004
  20984797.1414   20984796.7294   20984800.3724  -20473045.85848 -15914586.41647
      2581.1944       2011.3234         49.1004         45.9004
 10  1  5  0 30  0.0000000  0  8G22G12G28G15G27G18G17G 9
  24244706.8464   24244708.4944   24244710.7284   -1354772.02046   -886388.17945
      1828.4264       1424.7584         37.0004         34.6004
  24575247.7914   24575248.7334   24575252.9904   -1745473.25246  -1313920.56846
      3753.3244       2924.6684         38.9004         36.6004
  22644499.0804   22644499.1924   22644502.1804   -9656001.62747  -7507122.81947
     -2506.5154      -1953.1304         45.5004         42.6004
  20761849.4234   20761849.5414   20761852.7344  -19400423.26248 -15095651.12047
     -1386.6534      -1080.5134         50.3004         47.3004
  21347240.0674   21347240.3984   21347244.6264  -17762391.76648 -13396114.56147
      1399.9744       1090.8954         49.1004         46.1004
  22861270.7844   22861269.9914   22861272.4824   -6832957.27647  -5307599.76746
        61.0144         47.5284         43.0004         40.2004
  22665527.6514   22665527.5294   22665530.1834  -11012681.22547  -8560562.18847
      2115.9734       1648.8124         45.8004         42.8004
  20970093.6714   20970093.6814   20970097.1534  -20550311.62748 -15974793.49847
      2569.8544       2002.4764         48.9004         45.9004
 10  1  5  0 30 30.0000000  0  8G22G12G28G15G27G18G17G 9
  24234314.2224   24234312.9624   24234315.6954   -1409388.50545   -928946.44745
      1812.6524       1412.4584         35.9004         34.0004
  24553832.9224   24553833.7304   24553836.9564   -1858016.61046  -1401616.65046
      3749.5974       2921.7614         39.2004         36.9004
  22658834.0124   22658834.1494   22658837.8964   -9580669.21047  -7448422.23947
     -2515.6754      -1960.2574         45.5004         42.6004
  20769814.0804   20769814.4644   20769818.3414  -19358565.99048 -15063035.06847
     -1403.8074      -1093.8774         50.3004         47.3004
  21339271.3024   21339271.1814   21339275.9024  -17804268.21148 -13428745.55447
      1391.7744       1084.4964         49.1004         45.9004
  22860975.2494   22860975.4294   22860978.0554   -6834499.52947  -5308801.51746
        41.8054         32.5604         42.7004         39.9004
  22653489.8724   22653489.5684   22653492.9634  -11075937.97347  -8609853.13847
      2101.1594       1637.2674         45.8004         42.6004
  20955455.1624   20955455.3374   20955458.7924  -20627236.09548 -16034734.64347
      2558.4434       1993.5894         48.9004         45.9004
 10  1  5  0 31  0.0000000  0  8G22G12G28G15G27G18G17G 9
  24224013.3284   24224016.3484   24224016.3804   -1463530.82946   -971135.32645
      1796.7884       1400.0934         37.0004         35.2004
  24532441.2704   24532440.4264   24532443.6954   -1970447.71246  -1489225.28546
      3745.8364       2918.8354         39.7004         37.4004
  22673223.6344   22673222.3354   22673224.2424   -9505062.07847  -7389507.59947
     -2524.8074      -1967.3904         45.5004         42.6004
  20777877.3194   20777877.7444   20777880.9634  -19316194.29748 -15030018.17947
     -1420.9864      -1107.2594         50.3004         47.5004
  21331350.1134   21331349.6514   21331353.5724  -17845898.68948 -13461184.88647
      1383.5614       1078.0964         49.1004         46.1004
  22860792.8234   22860792.2904   22860794.6794   -6835464.84147  -5309553.73246
        22.5594         17.6014         42.9004         40.2004
  22641536.3994   22641536.4934   22641540.5784  -11138748.16847  -8658796.12147
      2086.1654       1625.5804         45.6004         42.8004
  20940881.6884   20940881.6354   20940885.9094  -20703817.75148 -16094408.65147
      2546.9744       1984.6604         48.8004         45.8004
 10  1  5  0 31 30.0000000  0  8G22G12G28G15G27G18G17G 9
  24213805.3864   24213801.2434   24213802.0934   -1517197.68246  -1012953.69445
      1780.8564       1387.6774         37.5004         35.3004
  24511065.4244   24511065.0424   24511068.8924   -2082764.80546  -1576745.06146
      3742.0004       2915.8404         39.4004         36.7004
  22687662.6784   22687662.3434   22687664.1934   -9429182.27447  -7330380.47947
     -2533.8914      -1974.4794         45.6004         42.6004
  20786038.7064   20786038.5184   20786041.7394  -19273307.95548 -14996600.25347
     -1438.1154      -1120.6064         50.3004         47.3004
  21323474.6964   21323474.4414   21323478.3954  -17887282.59648 -13493432.08347
      1375.3414       1071.6944         48.9004         45.9004
  22860719.3904   22860716.6064   22860720.7644   -6835853.32847  -5309856.45246
         3.3134          2.5134         43.0004         40.0004
  22629669.6574   22629670.3684   22629674.2814  -11201108.84747  -8707388.83447
      2071.1744       1613.8934         45.8004         42.8004
  20926374.5844   20926374.6774   20926378.5454  -20780055.16148 -16153814.41047
      2535.4864       1975.7014         48.9004         45.9004
 10  1  5  0 32  0.0000000  0  8G22G12G28G15G27G18G17G 9
  24203673.1274   24203675.8224   24203677.7804   -1570386.99446  -1054399.87945
      1765.0044       1375.3204         36.1004         34.1004
  24489713.1304   24489714.0544   24489716.4874   -2194966.13246  -1664174.65246
      3738.0714       2912.7864         39.4004         37.1004
  22702152.4124   22702152.0474   22702155.2704   -9353031.87347  -7271042.51047
     -2542.8214      -1981.4294         45.5004         42.3004
  20794297.2604   20794297.3594   20794300.3414  -19229908.38348 -14962782.43047
     -1455.1784      -1133.9064         50.2004         47.3004
  21315645.8274   21315646.2504   21315650.1774  -17928419.53548 -13525486.84847
      1367.1174       1065.2924         48.9004         46.1004
  22860754.9354   22860753.8094   22860756.8784   -6835664.98747  -5309709.70946
       -15.9014        -12.3824         43.0004         40.2004
  22617888.1214   22617889.5814   22617893.3994  -11263017.75747  -8755629.56747
      2056.0544       1602.1294         45.6004         43.0004
  20911932.5984   20911932.7934   20911936.7844  -20855946.82548 -16212950.78047
      2523.9324       1966.6994         48.9004         45.9004
 10  1  5  0 32 30.0000000  0  8G22G12G28G15G27G18G17G 9
  24193654.1324   24193651.9654   24193651.0584   -1623097.31046  -1095472.77745
      1749.0494       1362.8884         37.0004         35.0004
  24468383.1854   24468384.5454   24468388.1794   -2307049.98646  -1751512.73046
      3734.1504       2909.7214         39.6004         37.3004
  22716694.6884   22716693.7044   22716697.0784   -9276612.74847  -7211495.14347
     -2551.7774      -1988.4094         45.3004         42.5004
  20802653.1254   20802653.4774   20802657.2704  -19185996.10648 -14928565.06947
     -1472.3004      -1147.2394         50.2004         47.3004
  21307865.8504   21307865.6054   21307869.4654  -17969309.08348 -13557348.83747
      1358.8504       1058.8394         49.1004         46.3004
  22860899.4594   22860899.9474   22860903.4314   -6834900.23347  -5309113.82346
       -35.1024        -27.3464         42.9004         40.0004
  22606194.2114   22606194.6074   22606197.9544  -11324472.53547  -8803516.39047
      2040.8884       1590.3064         45.8004         43.0004
  20897558.3524   20897557.5794   20897561.0764  -20931490.75648 -16271816.18047
      2512.3264       1957.6594         49.1004         46.1004
 10  1  5  0 33  0.0000000  0  8G22G12G28G15G27G18G17G 9
  24183705.2514   24183706.5724   24183712.3434   -1675326.93146  -1136171.17045
      1733.0144       1350.3984         36.8004         34.6004
  24447077.8394   24447077.7864   24447082.7534   -2419014.41046  -1838757.70946
      3730.1134       2906.5784         40.1004         37.3004
  22731287.8964   22731286.7064   22731290.3604   -9199926.62347  -7151739.73947
     -2560.6474      -1995.3154         45.1004         42.1004
  20811107.0034   20811107.1314   20811110.4524  -19141572.16648 -14893949.03047
     -1489.3124      -1160.4994         50.2004         47.2004
  21300132.1054   21300131.6164   21300135.8904  -18009950.58048 -13589017.53047
      1350.5644       1052.3864         49.3004         46.3004
  22861156.0564   22861155.0174   22861157.2514   -6833559.32547  -5308068.97346
       -54.3384        -42.3544         42.7004         40.0004
  22594588.3944   22594588.1594   22594591.5474  -11385470.83547  -8851047.51047
      2025.6274       1578.4024         46.2004         43.5004
  20883248.5084   20883248.2664   20883252.5634  -21006685.59448 -16330409.55047
      2500.6464       1948.5534         49.1004         46.1004
 10  1  5  0 33 30.0000000  0  8G22G12G28G15G27G18G17G 9
  24173860.9644   24173863.8574   24173865.1234   -1727073.72046  -1176493.31045
      1716.8584       1337.8144         36.4004         34.6004
  24425793.6064   24425794.7434   24425798.2694   -2530857.65046  -1925908.25146
      3726.0634       2903.4314         39.6004         36.7004
  22745930.7754   22745929.9864   22745933.4774   -9122975.59347  -7091777.90047
     -2569.4394      -2002.1584         45.1004         42.3004
  20819657.0634   20819657.8934   20819661.0224  -19096637.62148 -14858935.10847
     -1506.3194      -1173.7554         50.2004         47.2004
  21292444.7804   21292445.1204   21292449.1394  -18050343.49648 -13620492.52647
      1342.2734       1045.9234         49.3004         46.3004
  22861519.2934   22861517.7754   22861522.3334   -6831642.51847  -5306575.36046
       -73.4694        -57.2644         42.5004         39.5004
  22583066.1464   22583067.0214   22583069.9724  -11446010.39547  -8898221.17647
      2010.3494       1566.4964         46.3004         43.3004
  20869006.9514   20869006.1414   20869009.8584  -21081529.56448 -16388729.52447
      2488.9304       1939.4264         49.1004         46.1004
 10  1  5  0 34  0.0000000  0  8G22G12G28G15G27G18G17G 9
  24164108.7684   24164109.8094   24164107.6284   -1778336.72446  -1216438.58145
      1700.7994       1325.2994         36.4004         34.8004
  24404537.1924   24404535.7834   24404540.0414   -2642578.06646  -2012963.11446
      3721.9004       2900.1804         39.4004         36.9004
  22760624.2604   22760623.2474   22760626.5994   -9045761.57047  -7031611.14747
     -2578.1744      -2008.9624         45.1004         42.3004
  20828305.6544   20828305.7754   20828308.8334  -19051193.06248 -14823523.78847
     -1523.3524      -1187.0184         50.0004         47.2004
  21284805.8784   21284805.6074   21284810.5234  -18090487.35048 -13651773.44347
      1333.9644       1039.4504         49.3004         46.3004
  22861993.8174   22861993.7794   22861996.0154   -6829150.26847  -5304633.35246
       -92.6614        -72.1964         42.3004         40.0004
  22571635.1504   22571634.9144   22571638.2074  -11506088.91247  -8945035.59547
      1994.9004       1554.4684         46.3004         43.5004
  20854830.9334   20854830.6154   20854834.8064  -21156021.26148 -16446774.99847
      2477.1754       1930.2624         49.1004         46.1004
 10  1  5  0 34 30.0000000  0  8G22G12G28G15G27G18G17G 9
  24154447.5404   24154446.6274   24154446.7934   -1829113.82946  -1256005.19645
      1684.4524       1312.5654         37.1004         35.3004
  24383299.2714   24383299.5624   24383304.0154   -2754173.95046  -2099920.94846
      3717.7414       2896.9374         39.7004         37.6004
  22775367.1794   22775366.9354   22775369.8524   -8968286.51147  -6971240.97546
     -2586.8274      -2015.6984         45.1004         41.9004
  20837050.3284   20837050.4394   20837053.9004  -19005239.31548 -14787715.67447
     -1540.2844      -1200.2184         50.2004         47.2004
  21277214.3824   21277214.2834   21277218.6694  -18130381.59748 -13682859.87047
      1325.6204       1032.9544         49.3004         46.3004
  22862579.6834   22862577.9214   22862580.2454   -6826082.61447  -5302243.00146
      -111.8414        -87.1404         42.5004         39.9004
  22560289.8864   22560290.2814   22560293.0444  -11565704.33447  -8991489.17247
      1979.4104       1542.3994         46.3004         43.3004
  20840721.8944   20840722.4924   20840726.2044  -21230159.14448 -16504544.78047
      2465.3564       1921.0594         48.9004         45.9004
 10  1  5  0 35  0.0000000  0  8G22G12G28G15G27G18G17G 9
  24144878.7144   24144876.8414   24144877.6114   -1879403.62246  -1295191.97545
      1668.2674       1299.9474         37.5004         35.3004
  24362090.7734   24362089.8874   24362092.4004   -2865643.15746  -2186780.04746
      3713.5394       2893.6654         40.3004         37.9004
  22790159.2254   22790158.3914   22790161.8124   -8890552.35347  -6910668.89246
     -2595.4264      -2022.3924         44.8004         41.8004
  20845891.3494   20845891.7834   20845895.1794  -18958777.28548 -14751511.51147
     -1557.1964      -1213.4004         50.0004         47.2004
  21269670.5804   21269670.2644   21269674.4024  -18170025.59648 -13713751.30247
      1317.2824       1026.4564         49.3004         46.3004
  22863269.5524   22863270.5504   22863273.1874   -6822440.08247  -5299404.64346
      -131.0274       -102.1134         42.3004         39.5004
  22549034.5164   22549034.7784   22549037.6174  -11624853.84547  -9037579.67947
      1963.8504       1530.2664         46.3004         43.2004
  20826682.7934   20826682.0364   20826686.3884  -21303941.77148 -16562037.73547
      2453.4884       1911.8064         48.9004         46.1004
 10  1  5  0 35 30.0000000  0  8G22G12G28G15G27G18G17G 9
  24135400.2984   24135400.5124   24135398.7674   -1929204.80846  -1333998.11345
      1651.8944       1287.1934         37.3004         35.3004
  24340902.0354   24340902.0094   24340904.4614   -2976984.16146  -2273539.29146
      3709.1954       2890.2854         40.6004         37.8004
  22805000.6224   22805000.5064   22805003.6914   -8812560.90847  -6849896.35146
     -2603.9804      -2029.0674         44.6004         41.8004
  20854831.1004   20854830.6844   20854833.3904  -18911808.06248 -14714912.13047
     -1574.0634      -1226.5414         50.0004         47.2004
  21262174.1554   21262173.9424   21262177.9714  -18209419.08748 -13744447.52547
      1308.9424       1019.9584         49.3004         46.3004
  22864073.2484   22864073.3784   22864075.8004   -6818222.86347  -5296118.50846
      -150.1484       -117.0024         42.5004         40.0004
  22537867.7404   22537867.5114   22537871.0324  -11683535.48547  -9083305.62647
      1948.2324       1518.1094         46.3004         43.5004
  20812709.7794   20812709.6624   20812713.6204  -21377367.39648 -16619252.50147
      2441.5404       1902.4974         48.9004         45.9004
 10  1  5  0 36  0.0000000  0  8G22G12G28G15G27G18G17G 9
  24126016.0674   24126015.1894   24126017.2034   -1978515.33446  -1372421.91645
      1635.4374       1274.3684         37.6004         35.5004
  24319740.3484   24319739.6974   24319742.2174   -3088195.14846  -2360197.18746
      3704.8734       2886.9124         40.4004         37.8004
  22819890.8644   22819890.6104   22819893.6814   -8734314.53547  -6788925.15446
     -2612.4794      -2035.6924         44.6004         41.6004
  20863863.5754   20863863.9834   20863867.4174  -18864332.43448 -14677918.14247
     -1590.9444      -1239.7004         50.0004         47.0004
  21254725.4454   21254725.3574   21254729.4044  -18248561.59248 -13774948.17547
      1300.5554       1013.4244         49.3004         46.3004
  22864984.0524   22864984.3304   22864988.0544   -6813431.39447  -5292384.88046
      -169.2534       -131.8864         42.5004         39.5004
  22526791.0264   22526790.2404   22526793.4554  -11741746.93247  -9128665.16847
      1932.5374       1505.8804         46.3004         43.5004
  20798806.6574   20798805.9074   20798809.2234  -21450434.45348 -16676187.87847
      2429.5424       1893.1484         49.1004         46.1004
 10  1  5  0 36 30.0000000  0  8G22G12G28G15G27G18G17G 9
  24116726.6494   24116725.2724   24116728.7404   -2027333.61546  -1410462.14845
      1619.1054       1261.6444         37.6004         35.3004
  24298600.6094   24298601.5224   24298603.3854   -3199274.43946  -2446752.47946
      3700.4504       2883.4734         40.6004         38.1004
  22834828.6644   22834828.2914   22834831.6024   -8655814.75347  -6727756.51346
     -2620.8464      -2042.2004         44.6004         41.9004
  20872994.9774   20872994.5144   20872998.0914  -18816351.33048 -14640530.28647
     -1607.7914      -1252.8254         49.8004         47.0004
  21247325.1304   21247324.6974   21247328.8664  -18287452.54248 -13805252.81047
      1292.1704       1006.8944         49.3004         46.3004
  22866007.1084   22866005.8444   22866009.3594   -6808066.06347  -5288204.14646
      -188.4104       -146.8044         42.3004         39.7004
  22515802.8874   22515802.9624   22515806.6284  -11799485.93747  -9173656.59047
      1916.7384       1493.5604         46.5004         43.7004
  20784969.9214   20784970.1904   20784973.9104  -21523141.12248 -16732842.41947
      2417.5544       1883.8134         49.1004         46.1004
 10  1  5  0 37  0.0000000  0  8G22G12G28G15G27G18G17G 9
  24107530.2294   24107530.5264   24107530.7314   -2075658.19146  -1448117.66145
      1602.5564       1248.7454         37.3004         35.2004
  24277486.9214   24277487.0664   24277491.0304   -3310220.17846  -2533203.65946
      3695.9744       2879.9764         40.1004         37.3004
  22849814.6694   22849814.2334   22849816.4434   -8577063.52647  -6666391.91846
     -2629.1454      -2048.6754         44.6004         41.6004
  20882220.5844   20882220.9114   20882224.6214  -18767865.86648 -14602749.42047
     -1624.6084      -1265.9334         49.8004         46.8004
  21239972.7394   21239971.8974   21239975.8614  -18326091.32048 -13835360.94747
      1283.7534       1000.3294         49.3004         46.5004
  22867136.4174   22867136.2294   22867139.2604   -6802127.80047  -5283576.94146
      -207.5084       -161.6984         42.5004         40.2004
  22504905.6054   22504906.3204   22504908.5074  -11856750.27647  -9218278.15947
      1900.8554       1481.1884         46.3004         43.3004
  20771203.5594   20771203.2774   20771207.3924  -21595485.83748 -16789214.91647
      2405.4574       1874.3914         49.1004         46.3004
 10  1  5  0 37 30.0000000  0  8G22G12G28G15G27G18G17G 9
  24098428.0714   24098427.3644   24098430.0324   -2123487.34546  -1485387.18345
      1586.0404       1235.8734         37.5004         35.5004
  24256401.2914   24256400.0234   24256405.4794   -3421030.53046  -2619549.40346
      3691.3744       2876.3984         40.3004         37.8004
  22864846.6714   22864846.7454   22864850.2864   -8498063.01747  -6604833.08346
     -2637.4494      -2055.1474         44.2004         40.9004
  20891542.7324   20891542.8344   20891546.7194  -18718876.93948 -14564576.24047
     -1641.3604      -1278.9834         49.8004         46.8004
  21232667.5764   21232667.4864   21232671.2564  -18364477.36648 -13865272.15447
      1275.3164        993.7574         49.5004         46.5004
  22868375.8354   22868374.8914   22868376.7934   -6795616.50547  -5278503.23546
      -226.5554       -176.5354         42.3004         39.7004
  22494101.0034   22494100.2264   22494102.9384  -11913537.67247  -9262528.05147
      1884.9254       1468.7664         46.3004         43.5004
  20757505.3004   20757505.2384   20757509.6504  -21667467.42648 -16845304.46647
      2393.2954       1864.9034         49.1004         46.1004
 10  1  5  0 38  0.0000000  0  8G22G12G28G15G27G18G17G 9
  24089422.7374   24089422.7544   24089423.2334   -2170819.76446  -1522269.59546
      1569.4154       1222.9234         38.0004         36.0004
  24235338.3094   24235339.7494   24235345.2514   -3531703.82746  -2705788.27246
      3686.7864       2872.8124         40.1004         37.6004
  22879926.6384   22879926.3434   22879929.6404   -8418814.84847  -6543081.25946
     -2645.7224      -2061.6144         43.7004         40.9004
  20900961.4154   20900961.8284   20900964.3074  -18669385.46548 -14526011.47647
     -1658.0784      -1292.0114         49.8004         46.8004
  21225411.1704   21225411.3614   21225415.0304  -18402610.15748 -13894986.01747
      1266.8564        987.1574         49.5004         46.5004
  22869721.3984   22869722.2664   22869725.7334   -6788532.85847  -5272983.51246
      -245.7034       -191.4854         42.2004         39.3004
  22483384.4334   22483384.3444   22483387.3474  -11969845.88447  -9306404.58747
      1868.9254       1456.3094         46.3004         43.5004
  20743877.3034   20743877.1994   20743881.3804  -21739084.01948 -16901109.58347
      2381.1064       1855.4064         49.3004         46.3004
 10  1  5  0 38 30.0000000  0  8G22G12G28G15G27G18G17G 9
  24080506.0904   24080507.9974   24080510.7914   -2217653.80246  -1558763.65445
      1552.8234       1209.9924         38.2004         35.9004
  24214309.6354   24214308.2414   24214310.9014   -3642238.18646  -2791918.92346
      3682.1294       2869.1914         40.8004         38.3004
  22895054.4444   22895055.3044   22895057.8774   -8339321.17847  -6481138.15546
     -2653.8424      -2067.9384         43.9004         41.1004
  20910475.0734   20910474.9104   20910477.9084  -18619392.51648 -14487055.95447
     -1674.7724      -1305.0204         49.8004         47.0004
  21218203.2144   21218202.8654   21218206.9184  -18440489.08248 -13924502.06247
      1258.3954        980.5654         49.3004         46.3004
  22871179.0144   22871178.3134   22871183.3484   -6780877.21847  -5267018.07346
      -264.7264       -206.2944         42.2004         39.5004
  22472760.6964   22472760.9994   22472763.7964  -12025672.87347  -9349906.13247
      1852.8574       1443.7814         46.5004         43.7004
  20730319.6434   20730319.2624   20730322.5554  -21810334.20248 -16956629.20547
      2368.8654       1845.8684         49.3004         46.3004
 10  1  5  0 39  0.0000000  0  9G22G12G28G15G27G18G26G17G 9
  24071691.2654   24071690.5194   24071693.4194   -2263988.16046  -1594868.36146
      1536.1404       1196.9914         38.7004         36.6004
  24193298.1234   24193300.2124   24193303.2234   -3752632.10646  -2877940.16646
      3677.4714       2865.5524         40.8004         38.1004
  22910229.8714   22910229.3544   22910231.1444   -8259583.71247  -6419005.05146
     -2661.9554      -2074.2764         44.1004         41.2004
  20920083.0064   20920083.3964   20920086.6444  -18568899.26148 -14447710.57847
     -1691.4274      -1317.9974         49.8004         46.8004
  21211043.1714   21211043.1344   21211047.5864  -18478113.72348 -13953819.96247
      1249.9274        973.9754         49.3004         46.5004
  22872745.4074   22872744.0544   22872748.3654   -6772650.22447  -5260607.44646
      -283.7364       -221.0764         42.2004         39.5004
                                  24228094.888     -291535.07544    -30876.627
      3848.4754       3005.853          26.4004          1.500
  22462230.2424   22462230.0954   22462232.9854  -12081016.61947  -9393031.11247
      1836.7244       1431.2244         46.7004         43.9004
  20716830.8014   20716830.3084   20716834.1594  -21881216.35748 -17011862.04447
      2356.5994       1836.3154         49.3004         46.3004
 10  1  5  0 39 30.0000000  0  8G22G12G28G15G27G18G17G 9
  24062970.3324   24062969.6714   24062972.0194   -2309821.07046  -1630582.35746
      1519.4054       1183.9534         39.0004         36.9004
  24172320.7024   24172319.5114   24172323.4154   -3862883.64046  -2963850.41246
      3672.5874       2861.7534         40.8004         38.1004
  22925447.4074   22925447.8834   22925450.7584   -8179604.48047  -6356683.58046
     -2669.9624      -2080.4934         43.9004         40.9004
  20929786.6204   20929787.0134   20929789.9124  -18517906.45048 -14407975.93247
     -1708.0724      -1330.9674         49.8004         46.8004
  21203931.8584   21203931.5674   21203935.8814  -18515483.64348 -13982939.37847
      1241.4264        967.3464         49.5004         46.5004
  22874421.0864   22874419.1164   22874423.5104   -6763852.26747  -5253751.90746
      -302.8104       -235.9504         42.3004         39.7004
  22451790.8564   22451791.0254   22451793.5404  -12135874.84247  -9435777.75347
      1820.5184       1418.5844         46.9004         44.0004
  20703413.1174   20703412.3944   20703416.3944  -21951728.95248 -17066806.91747
      2344.2344       1826.6824         49.5004         46.5004
 10  1  5  0 40  0.0000000  0  8G22G12G28G15G27G18G17G 9
  24054344.0634   24054343.4544   24054345.9074   -2355151.30146  -1665904.61446
      1502.6464       1170.8914         39.7004         37.4004
  24151367.7974   24151367.0254   24151370.2864   -3972990.88346  -3049648.24046
      3667.8014       2858.0254         40.6004         38.1004
  22940713.8774   22940713.2684   22940715.8174   -8099385.42147  -6294175.24046
     -2677.9444      -2086.7034         43.9004         41.1004
  20939584.7564   20939585.0984   20939588.3404  -18466415.30648 -14367852.98147
     -1724.6454      -1343.8814         49.6004         46.6004
  21196869.1094   21196869.1534   21196873.2564  -18552598.23048 -14011859.83447
      1232.8854        960.6944         49.5004         46.5004
  22876202.6304   22876202.3134   22876204.4844   -6754484.05147  -5246452.02046
      -321.7704       -250.7294         42.2004         39.5004
  22441443.1794   22441443.5994   22441447.4424  -12190245.13747  -9478144.20647
      1804.1904       1405.8584         47.0004         44.2004
  20690064.7264   20690064.9804   20690069.1494  -22021870.25848 -17121462.47847
      2331.8384       1817.0184         49.6004         46.6004
 10  1  5  0 40 30.0000000  0  8G22G12G28G15G27G18G17G 9
  24045814.1394   24045814.0714   24045815.1864   -2399977.34246  -1700834.02546
      1485.7494       1157.7294         39.6004         37.1004
  24130444.0664   24130442.8804   24130445.8994   -4082952.40946  -3135332.54146
      3662.8834       2854.1934         40.8004         38.5004
  22956023.4734   22956023.1574   22956027.3764   -8018928.51047  -6231481.54946
     -2685.8454      -2092.8744         43.9004         40.9004
  20949477.7534   20949478.5334   20949481.3694  -18414427.20548 -14327342.78947
     -1741.2274      -1356.8044         49.6004         46.6004
  21189855.1284   21189854.7044   21189859.2544  -18589457.01148 -14040580.96147
      1224.3564        954.0424         49.3004         46.1004
  22878093.8164   22878093.8214   22878096.7054   -6744546.09647  -5238708.17446
      -340.7714       -265.5384         42.7004         40.4004
  22431191.3034   22431190.3884   22431193.7294  -12244125.75147  -9520129.07247
      1787.8314       1393.1024         47.0004         43.7004
  20676788.5654   20676788.7654   20676792.6484  -22091638.99448 -17175827.72347
      2319.3914       1807.3164         49.6004         46.6004
 10  1  5  0 41  0.0000000  0  8G22G12G28G15G27G18G17G 9
  24037377.7664   24037377.6104   24037381.5354   -2444297.85846  -1735369.46246
      1468.9414       1144.6294         38.9004         36.6004
  24109546.6404   24109546.0844   24109549.3534   -4192766.36246  -3220901.84046
      3657.9224       2850.3274         41.3004         39.2004
  22971379.1004   22971379.1304   22971382.2074   -7938235.65947  -6168604.00346
     -2693.6934      -2098.9944         43.9004         41.1004
  20959465.1004   20959465.4934   20959468.9134  -18361942.69448 -14286445.76447
     -1757.7714      -1369.6924         49.6004         46.6004
  21182889.5704   21182889.8004   21182893.7244  -18626059.55148 -14069102.42047
      1215.8154        947.3854         49.3004         46.3004
  22880094.2854   22880093.2514   22880097.3234   -6734039.17047  -5230520.98146
      -359.7324       -280.3084         42.9004         40.4004
  22421030.7564   22421031.2044   22421034.5374  -12297514.66947  -9561730.81547
      1771.3724       1380.2924         46.9004         43.9004
  20663583.1054   20663582.5634   20663587.0444  -22161033.48048 -17229901.33947
      2306.8964       1797.5824         49.6004         46.5004
 10  1  5  0 41 30.0000000  0  8G22G12G28G15G27G18G17G 9
  24029044.8294   24029043.7314   24029043.3634   -2488111.26546  -1769509.81946
      1451.9864       1131.4164         38.9004         36.4004
  24088675.8784   24088675.7044   24088680.2354   -4302431.03346  -3306354.80946
      3652.9134       2846.4214         41.1004         37.9004
  22986778.6584   22986778.2304   22986781.3224   -7857308.80347  -6105544.14446
     -2701.4644      -2105.0294         43.7004         40.7004
  20969547.4654   20969547.5984   20969551.1904  -18308963.20248 -14245163.05547
     -1774.2314      -1382.5154         49.6004         46.6004
  21175973.4844   21175973.4764   21175977.3864  -18662405.23248 -14097423.73247
      1207.2344        940.6994         49.3004         46.3004
  22882200.9584   22882199.2884   22882203.7924   -6722964.05947  -5221891.04146
      -378.6304       -295.0434         43.2004         40.4004
  22410965.3684   22410965.6284   22410969.6214  -12350409.38947  -9602947.45547
      1754.8784       1367.4424         46.9004         44.0004
  20650449.0144   20650448.7894   20650453.4054  -22230052.14648 -17283682.11347
      2294.3414       1787.8024         49.6004         46.6004
 10  1  5  0 42  0.0000000  0  8G22G12G28G15G27G18G17G 9
  24020801.2784   24020798.7514   24020803.5104   -2531416.19946  -1803253.94646
      1434.9974       1118.1804         38.7004         36.6004
  24067838.3244   24067837.2014   24067840.2824   -4411944.57446  -3391690.02546
      3647.9304       2842.5424         40.8004         38.3004
  23002222.6684   23002223.0294   23002226.0294   -7776149.64347  -6042303.23446
     -2709.1374      -2111.0174         43.2004         40.4004
  20979723.1504   20979723.3924   20979726.5884  -18255489.79548 -14203495.47247
     -1790.6834      -1395.3404         49.6004         46.6004
  21169106.5274   21169106.2744   21169110.2954  -18698493.33148 -14125544.33047
      1198.6404        934.0004         49.3004         46.3004
  22884416.7664   22884416.0004   22884418.8964   -6711320.96147  -5212818.52946
      -397.5734       -309.7924         43.0004         39.9004
  22400993.6024   22400993.8034   22400998.2154  -12402807.89347  -9643777.44647
      1738.3394       1354.5534         46.9004         43.9004
  20637387.4624   20637387.1104   20637391.7244  -22298693.58448 -17337168.94947
      2281.7294       1777.9744         49.6004         46.6004
 10  1  5  0 42 30.0000000  0  8G22G12G28G15G27G18G17G 9
  24012658.3894   24012658.7564   24012659.5384   -2574211.38946  -1836600.83746
      1417.9774       1104.9184         39.0004         36.9004
  24047025.6474   24047026.7434   24047030.3734   -4521305.29246  -3476906.12446
      3642.8114       2838.5594         40.9004         38.5004
  23017712.1894   23017710.9374   23017713.7684   -7694760.15047  -5978882.86346
     -2716.7814      -2116.9844         43.4004         40.6004
  20989991.6794   20989992.2544   20989995.8774  -18201523.66348 -14161443.95247
     -1807.0454      -1408.0844         49.6004         46.5004
  21162287.4454   21162287.7144   21162292.0344  -18734323.28948 -14153463.77747
      1189.9934        927.2584         49.3004         46.3004
  22886739.7834   22886739.6924   22886742.8604   -6699110.98847  -5203304.29446
      -416.4014       -324.4694         43.0004         40.2004
  22391116.2764   22391117.6964   22391121.3864  -12454708.38747  -9684219.37747
      1721.6884       1341.5864         46.9004         43.9004
  20624397.7774   20624397.6164   20624401.2534  -22366956.05748 -17390360.49647
      2269.0754       1768.1054         49.6004         46.8004
 10  1  5  0 43  0.0000000  0  8G22G12G28G15G27G18G17G 9
  24004612.4084   24004611.2494   24004613.4404   -2616495.23946  -1869549.28346
      1400.9344       1091.6364         39.7004         37.6004
  24026247.6194   24026245.8264   24026249.4834   -4630511.54446  -3562001.88846
      3637.6214       2834.5104         41.5004         39.0004
  23033241.8574   23033241.8494   23033245.4514   -7613142.23047  -5915284.50346
     -2724.3684      -2122.8854         43.2004         40.4004
  21000355.1584   21000355.2074   21000359.0374  -18147065.95348 -14119009.37847
     -1823.4314      -1420.8564         49.5004         46.5004
  21155519.5064   21155519.2334   21155522.8214  -18769894.83748 -14181181.87447
      1181.4054        920.5774         49.3004         46.3004
  22889170.7744   22889170.3154   22889174.4504   -6686334.82147  -5193348.84646
      -435.3164       -339.1994         43.0004         40.2004
  22381336.3044   22381336.7834   22381340.1544  -12506108.58947  -9724271.48047
      1704.9714       1328.5544         46.7004         43.9004
  20611480.2214   20611479.7684   20611484.0694  -22434838.03548 -17443255.54147
      2256.3734       1758.2144         49.8004         46.8004
 10  1  5  0 43 30.0000000  0  8G22G12G28G15G27G18G17G 9
  23996663.0194   23996663.7234   23996664.4444   -2658266.86046  -1902098.62246
      1383.8734       1078.3414         40.1004         37.8004
  24005493.0424   24005494.0894   24005497.4264   -4739561.44846  -3646975.81146
      3632.3384       2830.3974         41.1004         38.3004
  23048817.0594   23048817.4574   23048819.0594   -7531297.70447  -5851509.56946
     -2731.8854      -2128.7454         43.4004         40.7004
  21010812.8134   21010812.5164   21010815.2434  -18092117.36048 -14076192.30047
     -1839.7824      -1433.5934         49.6004         46.6004
  21148799.1294   21148799.0874   21148803.2904  -18805207.38048 -14208698.14547
      1172.7494        913.8364         49.1004         46.3004
  22891710.3464   22891709.1014   22891713.3544   -6672992.88547  -5182952.55046
      -454.1404       -353.8634         42.9004         40.2004
  22371651.3634   22371651.4254   22371654.4644  -12557006.60347  -9763932.24747
      1688.2004       1315.4794         46.9004         43.9004
  20598635.8064   20598635.0554   20598639.4524  -22502338.06148 -17495852.95747
      2243.5944       1748.2524         49.8004         46.8004
 10  1  5  0 44  0.0000000  0  8G22G12G28G15G27G18G17G 9
  23988812.5374   23988812.1664   23988814.2434   -2699524.61246  -1934247.53346
      1366.7004       1064.9634         40.6004         38.3004
  23984770.6754   23984771.4454   23984777.2854   -4848453.18346  -3731826.53446
      3627.0324       2826.2654         41.3004         38.6004
  23064434.4064   23064432.5624   23064437.2714   -7449228.68647  -5787559.68246
     -2739.3734      -2134.5664         43.6004         40.9004
  21021360.6794   21021361.3114   21021364.5124  -18036679.56848 -14032994.03447
     -1856.0664      -1446.2824         49.5004         46.5004
  21142128.6654   21142128.7704   21142132.9054  -18840260.27648 -14236012.08847
      1164.0984        907.0934         49.1004         46.3004
  22894356.7824   22894356.2944   22894359.0904   -6659086.21347  -5172116.20346
      -472.9474       -368.5164         42.7004         39.7004
  22362060.8984   22362061.0384   22362064.9924  -12607400.47147  -9803200.16847
      1671.3514       1302.3544         46.9004         43.9004
  20585863.7574   20585863.3864   20585866.7344  -22569454.36648 -17548151.37947
      2230.7844       1738.2764         49.8004         46.8004
 10  1  5  0 44 30.0000000  0  8G22G12G28G15G27G18G17G 9
  23981058.5134   23981057.2744   23981060.3034   -2740267.20046  -1965995.04746
      1349.4984       1051.5584         40.4004         37.8004
  23964079.9174   23964080.5324   23964084.7584   -4957185.37546  -3816552.88346
      3621.7474       2822.1354         40.9004         38.1004
  23080094.1834   23080092.2574   23080095.9144   -7366936.80447  -5723436.14246
     -2746.7354      -2140.3144         43.7004         40.7004
  21032004.1744   21032004.4144   21032006.9754  -17980753.72348 -13989415.45647
     -1872.3404      -1458.9684         49.5004         46.5004
  21135507.9454   21135507.5904   21135512.5984  -18875052.95948 -14263123.26747
      1155.4174        900.3254         49.1004         46.3004
  22897109.0914   22897109.4204   22897113.0174   -6644615.62047  -5160840.41646
      -491.7724       -383.2084         42.5004         39.9004
  22352568.5244   22352567.6734   22352571.4294  -12657288.21347  -9842073.72447
      1654.4954       1289.2144         46.9004         44.0004
  20573164.8894   20573164.7644   20573168.7034  -22636185.40948 -17600149.58847
      2217.9384       1728.2594         49.8004         46.8004
 10  1  5  0 45  0.0000000  0  8G22G12G28G15G27G18G17G 9
  23973404.9694   23973404.7994   23973406.5024   -2780493.35346  -1997340.10446
      1332.1594       1038.0434         40.4004         37.8004
  23943420.4584   23943421.0404   23943423.3934   -5065756.02246  -3901153.38346
      3616.3054       2817.9014         40.8004         38.1004
  23095796.0174   23095795.4244   23095797.7784   -7284423.86747  -5659140.35446
     -2754.1534      -2146.0894         43.9004         41.1004
  21042739.0184   21042738.5574   21042741.9114  -17924340.99948 -13945457.48947
     -1888.5124      -1471.5694         49.5004         46.3004
  21128936.0204   21128936.1474   21128940.7454  -18909584.99248 -14290031.34447
      1146.7184        893.5504         49.1004         46.3004
  22899970.2004   22899970.7004   22899974.0424   -6629581.52547  -5149125.55946
      -510.5244       -397.8034         42.5004         39.9004
  22343171.7574   22343171.3444   22343174.7524  -12706667.71447  -9880551.24247
      1637.4934       1275.9704         46.9004         43.9004
  20560539.9224   20560539.7254   20560543.6614  -22702529.85648 -17651846.56647
      2205.0064       1718.1884         49.8004         46.8004
 10  1  5  0 45 30.0000000  0  8G22G12G28G15G27G18G17G 9
  23965850.3444   23965847.5614   23965850.0434   -2820201.81946  -2028281.78946
      1314.9544       1024.6414         40.3004         37.6004
  23922790.7204   23922789.5904   23922795.0944   -5174163.45146  -3985626.71846
      3610.8634       2813.6694         40.9004         38.6004
  23111539.7904   23111538.9984   23111541.6024   -7201692.05147  -5594674.03946
     -2761.3694      -2151.6994         43.6004         40.6004
  21053565.7994   21053566.1184   21053569.6754  -17867442.74548 -13901121.20047
     -1904.6984      -1484.1824         49.3004         46.5004
  21122415.3344   21122415.1954   21122419.6274  -18943855.65148 -14316735.75347
      1137.9874        886.7464         49.3004         46.5004
  22902940.2614   22902939.1674   22902942.1294   -6613984.76647  -5136972.24846
      -529.2634       -412.4194         42.5004         39.9004
  22333871.4524   22333872.0404   22333875.0024  -12755537.38247  -9918631.50047
      1620.4624       1262.6964         46.9004         43.9004
  20547989.3934   20547988.7294   20547992.9934  -22768486.35548 -17703241.23747
      2192.0624       1708.0984         50.0004         47.0004
 10  1  5  0 46  0.0000000  0  8G22G12G28G15G27G18G17G 9
  23958389.9834   23958390.7734   23958392.0134   -2859391.41946  -2058819.12446
      1297.6574       1011.1444         39.7004         37.1004
  23902196.6954   23902193.8464   23902197.8454   -5282405.98546  -4069971.51446
      3605.2404       2809.2874         41.5004         39.0004
  23127324.2304   23127323.9994   23127326.2324   -7118743.27847  -5530038.61546
     -2768.5534      -2157.3134         43.2004         40.2004
  21064485.8324   21064486.2094   21064489.0524  -17810060.16548 -13856407.50147
     -1920.8274      -1496.7504         49.3004         46.3004
  21115944.8294   21115943.8734   21115948.0904  -18977864.54348 -14343236.18247
      1129.2644        879.9454         49.5004         46.5004
  22906013.7514   22906014.7974   22906016.0624   -6597826.93247  -5124381.76646
      -547.9774       -427.0094         42.3004         39.3004
  22324670.8274   22324670.6234   22324673.0724  -12803894.88247  -9956312.64747
      1603.3594       1249.3724         47.0004         44.2004
  20535512.1974   20535511.7444   20535516.0314  -22834052.83848 -17754331.99947
      2179.0394       1697.9534         50.0004         46.8004
 10  1  5  0 46 30.0000000  0  8G22G12G28G15G27G18G17G 9
  23951032.4314   23951032.7264   23951032.5184   -2898060.81046  -2088951.14346
      1280.2464        997.6004         39.6004         37.4004
  23881628.6974   23881628.7044   23881630.5844   -5390481.86546  -4154186.48646
      3599.7374       2804.9894         41.6004         39.0004
  23143147.9564   23143148.2044   23143152.3014   -7035579.24647  -5465235.49846
     -2775.7194      -2162.8994         43.0004         40.2004
  21075497.4234   21075497.5184   21075500.5744  -17752194.38648 -13811317.30747
     -1936.9004      -1509.2684         49.3004         46.3004
  21109521.6504   21109521.5694   21109526.1784  -19011611.12848 -14369532.21847
      1120.4984        873.1144         49.5004         46.5004
  22909194.7804   22909195.2014   22909198.5844   -6581108.56447  -5111354.48546
      -566.5974       -441.4974         42.3004         39.9004
  22315565.5604   22315565.4394   22315568.8064  -12851738.61647  -9993593.45847
      1586.1864       1235.9884         47.0004         44.2004
  20523109.7094   20523109.3744   20523113.3284  -22899227.65448 -17805117.57247
      2165.9374       1687.7454         49.8004         46.8004
 10  1  5  0 47  0.0000000  0  8G22G12G28G15G27G18G17G 9
  23943773.2544   23943772.2294   23943774.2544   -2936208.95246  -2118676.94146
      1262.9154        984.0914         39.9004         37.8004
  23861092.6974   23861092.6914   23861094.9874   -5498389.53946  -4238270.32646
      3594.0794       2800.5924         41.1004         38.3004
  23159014.9994   23159015.0614   23159017.8044   -6952201.83147  -5400266.10446
     -2782.7414      -2168.3594         43.0004         40.6004
  21086599.4544   21086600.2234   21086603.9304  -17693847.19148 -13765851.96747
     -1952.9294      -1521.7604         49.3004         46.3004
  21103150.3544   21103150.0474   21103154.4004  -19045094.77348 -14395623.37747
      1111.7164        866.2724         49.5004         46.5004
  22912484.3534   22912482.6314   22912485.5724   -6563830.18547  -5097890.81846
      -585.2794       -456.0604         42.9004         40.2004
  22306558.9094   22306559.4114   22306562.5024  -12899066.49247 -10030472.32447
      1568.9844       1222.5914         47.2004         44.4004
  20510781.4694   20510781.5844   20510785.6284  -22964009.59248 -17855596.99647
      2152.8344       1677.5354         49.8004         46.6004
 10  1  5  0 47 30.0000000  0  8G22G12G28G15G27G18G17G 9
  23936613.9784   23936613.5114   23936615.0984   -2973834.61946  -2147995.68246
      1245.4624        970.4914         40.6004         38.1004
  23840591.7494   23840592.3054   23840593.2794   -5606127.01046  -4322221.62846
      3588.3964       2796.1644         40.9004         38.5004
  23174921.8804   23174922.4294   23174923.9134   -6868613.12747  -5335132.04546
     -2789.7934      -2173.8694         43.2004         40.6004
  21097795.6584   21097795.2394   21097798.0114  -17635018.90848 -13720011.76047
     -1968.9474      -1534.2434         49.3004         46.3004
  21096828.1524   21096828.1034   21096832.6844  -19078315.15548 -14421509.39147
      1102.9454        859.4424         49.3004         46.5004
  22915877.3004   22915877.5574   22915880.2554   -6545992.92347  -5083991.66446
      -603.8734       -470.5474         43.0004         40.2004
  22297651.5944   22297651.6424   22297655.0714  -12945876.58047 -10066947.70147
      1551.6784       1209.0944         47.2004         44.2004
  20498528.4274   20498528.9284   20498533.2334  -23028397.23148 -17905769.18547
      2139.6594       1667.2694         49.8004         46.8004
 10  1  5  0 48  0.0000000  0  8G22G12G28G15G27G18G17G 9
  23929554.1704   23929554.6274   23929553.4904   -3010936.22046  -2176906.00246
      1227.9784        956.8624         40.6004         38.3004
  23820123.6794   23820123.1374   23820124.0574   -5713692.63846  -4406038.99546
      3582.6064       2791.6464         41.3004         38.6004
  23190867.7174   23190867.9734   23190870.7634   -6784814.69147  -5269834.57046
     -2796.7424      -2179.2944         43.4004         40.2004
  21109080.2644   21109080.9054   21109084.5954  -17575711.42548 -13673798.14847
     -1984.8844      -1546.6644         49.3004         46.3004
  21090557.1024   21090556.7244   21090561.4864  -19111271.45048 -14447189.61847
      1094.1224        852.5674         49.5004         46.5004
  22919377.6454   22919376.9584   22919381.2254   -6527597.82947  -5069657.85646
      -622.4514       -485.0134         42.9004         39.9004
  22288843.1444   22288843.0594   22288845.8094  -12992167.09447 -10103018.22947
      1534.3384       1195.5784         47.2004         44.4004
  20486351.6134   20486351.8064   20486356.0104  -23092388.88448 -17955632.80747
      2126.4344       1656.9584         49.8004         46.8004
 10  1  5  0 48 30.0000000  0  8G22G12G28G15G27G18G17G 9
  23922593.5634   23922592.9284   23922593.3364   -3047512.96246  -2205407.36346
      1210.4744        943.2194         40.6004         37.8004
  23799684.6454   23799685.8834   23799690.3364   -5821084.87946  -4489721.24746
      3576.7834       2787.0954         41.5004         39.0004
  23206855.5884   23206854.1024   23206857.8004   -6700808.65747  -5204375.32546
     -2803.6604      -2184.6794         43.4004         40.7004
  21120457.1194   21120457.2994   21120461.3584  -17515925.97548 -13627212.10147
     -2000.8164      -1559.0794         49.1004         46.1004
  21084336.0184   21084335.7654   21084340.3874  -19143963.21948 -14472663.72347
      1085.3024        845.6884         49.5004         46.5004
  22922984.0824   22922984.5454   22922986.4034   -6508645.80047  -5054890.03646
      -641.0504       -499.5264         42.9004         40.4004
  22280133.8914   22280133.3954   22280136.9324  -13037936.27947 -10138682.52147
      1516.9364       1182.0294         47.4004         44.5004
  20474250.4624   20474250.2034   20474254.4214  -23155983.00848 -18005186.67247
      2113.1544       1646.6064         49.8004         46.8004
 10  1  5  0 49  0.0000000  0  8G22G12G28G15G27G18G17G 9
  23915732.9094   23915732.1914   23915733.5394   -3083563.94746  -2233499.05446
      1192.9324        929.5494         40.8004         38.1004
  23779283.0574   23779283.1724   23779285.9604   -5928301.96746  -4573267.00946
      3570.9744       2782.5774         41.6004         39.0004
  23222879.8634   23222878.9164   23222881.5004   -6616596.71047  -5138755.63346
     -2810.4374      -2189.9374         43.4004         40.4004
  21131925.1604   21131925.2664   21131928.3814  -17455663.85448 -13580254.60947
     -2016.6724      -1571.4334         49.1004         46.1004
  21078165.6594   21078165.0934   21078170.0114  -19176389.80548 -14497931.18947
      1076.4584        838.7964         49.5004         46.5004
  22926697.2084   22926696.4954   22926698.3154   -6489137.90847  -5039689.11346
      -659.5124       -513.9204         43.0004         40.2004
  22271523.3804   22271522.9864   22271525.9974  -13083182.25447 -10173939.11047
      1499.4414       1168.3944         47.4004         44.4004
  20462224.9844   20462224.6864   20462229.0344  -23219178.17048 -18054429.64447
      2099.8424       1636.2384         50.0004         47.0004
 10  1  5  0 49 30.0000000  0  8G22G12G28G15G27G18G17G 9
  23908969.3314   23908971.5464   23908973.9404   -3119087.69046  -2261179.85946
      1175.3234        915.8364         40.4004         37.6004
  23758914.9044   23758913.8594   23758918.5724   -6035342.06947  -4656674.88446
      3565.0574       2777.9594         42.0004         39.3004
  23238943.2064   23238942.4214   23238946.3044   -6532180.63347  -5072976.87946
     -2817.2704      -2195.2704         43.0004         40.2004
  21143483.3054   21143483.3824   21143486.8884  -17394926.53748 -13532926.84847
     -2032.4864      -1583.7614         49.1004         46.3004
  21072045.3124   21072045.2744   21072049.6944  -19208550.79448 -14522991.69447
      1067.5994        831.8964         49.5004         46.5004
  22930513.5494   22930513.6274   22930518.4094   -6469075.11447  -5024055.78946
      -678.0004       -528.2824         43.0004         40.2004
  22263012.9344   22263013.0334   22263017.3844  -13127903.39047 -10208786.75047
      1481.9314       1154.7564         47.5004         44.7004
  20450276.3314   20450275.5404   20450279.1654  -23281972.94248 -18103360.63647
      2086.4884       1625.8394         50.0004         47.0004
 10  1  5  0 50  0.0000000  0  8G22G12G28G15G27G18G17G 9
  23902312.9624   23902311.7814   23902312.8714   -3154083.03346  -2288448.96446
      1157.6774        902.0884         40.1004         37.1004
  23738577.7494   23738578.7054   23738583.2234   -6142203.75146  -4739943.73246
      3559.0524       2773.2874         41.8004         39.0004
  23255044.4494   23255044.9174   23255046.7064   -6447562.52647  -5007040.71546
     -2823.9564      -2200.4614         42.9004         39.9004
  21155131.1804   21155131.2134   21155134.8774  -17333715.28848 -13485229.77947
     -2048.2454      -1596.0374         49.1004         46.1004
  21065976.2724   21065975.9314   21065980.3684  -19240445.61148 -14547844.80147
      1058.7224        824.9814         49.5004         46.6004
  22934438.7654   22934437.9354   22934441.2864   -6448458.42047  -5007990.83646
      -696.4304       -542.6654         42.9004         39.9004
  22254603.9004   22254603.4544   22254606.7064  -13172097.69847 -10243223.85547
      1464.3424       1141.0454         47.7004         44.7004
  20438402.5564   20438402.2784   20438406.6154  -23344365.74448 -18151978.40147
      2073.0434       1615.3554         50.0004         47.0004
 10  1  5  0 50 30.0000000  0  8G22G12G28G15G27G18G17G 9
  23895754.3404   23895753.1944   23895753.5394   -3188549.27946  -2315305.74645
      1139.9564        888.2744         38.5004         35.5004
  23718277.3844   23718277.9644   23718283.6304   -6248885.08047  -4823072.03746
      3553.0384       2768.6004         42.2004         39.7004
  23271186.3144   23271184.8704   23271188.2014   -6362744.20747  -4940948.49646
     -2830.6104      -2205.6834         42.7004         40.0004
  21166868.9444   21166868.9464   21166873.1384  -17272031.51148 -13437164.51047
     -2063.9754      -1608.2974         49.1004         46.1004
  21059957.4944   21059957.0274   21059961.7724  -19272073.75148 -14572490.10747
      1049.8134        818.0354         49.5004         46.5004
  22938465.8724   22938466.0604   22938467.8324   -6427288.97547  -4991495.18346
      -714.8464       -557.0174         42.5004         39.3004
  22246293.5614   22246294.1854   22246296.8704  -13215763.62147 -10277249.24747
      1446.6984       1127.2874         47.5004         44.5004
  20426606.1304   20426606.1514   20426610.1244  -23406355.16048 -18200281.84247
      2059.5684       1604.8574         50.0004         47.0004
 10  1  5  0 51  0.0000000  0  8G22G12G28G15G27G18G17G 9
  23889294.6984   23889295.4814   23889296.4924   -3222485.02946  -2341749.17345
      1122.3024        874.5214         37.6004         35.3004
  23698011.3174   23698011.7544   23698016.4864   -6355384.36147  -4906058.45746
      3546.9474       2763.8594         42.2004         39.5004
  23287363.8344   23287363.4864   23287366.2034   -6277727.58947  -4874701.79646
     -2837.1534      -2210.7794         42.7004         40.0004
  21178696.0194   21178696.5594   21178699.9674  -17209876.77348 -13388732.26347
     -2079.6694      -1620.5134         49.1004         46.1004
  21053989.0964   21053989.0964   21053993.6374  -19303434.59648 -14596927.12747
      1040.8984        811.0914         49.5004         46.5004
  22942600.4304   22942599.4564   22942602.2544   -6405567.62147  -4974569.48346
      -733.2514       -571.3634         42.3004         39.7004
  22238085.4544   22238085.5944   22238088.9044  -13258899.45047 -10310861.57247
      1428.9914       1113.4894         47.7004         44.9004
  20414887.0084   20414886.9974   20414891.5504  -23467939.53048 -18248269.65447
      2046.0464       1594.3184         50.2004         47.2004
 10  1  5  0 51 30.0000000  0  8G22G12G28G15G27G18G17G 9
  23882942.0604   23882940.2604   23882939.7924   -3255889.53646  -2367778.70245
      1104.5714        860.7104         37.8004         35.9004
  23677781.5404   23677781.3444   23677784.6804   -6461700.09547  -4988901.90446
      3540.7884       2759.0544         42.3004         39.7004
  23303579.9594   23303579.0234   23303581.4604   -6192514.07847  -4808301.65946
     -2843.6944      -2215.8514         42.5004         39.5004
  21190612.3364   21190613.3884   21190617.5894  -17147252.20148 -13339933.90047
     -2095.3034      -1632.7034         48.9004         45.9004
  21048072.7004   21048072.5124   21048077.1934  -19334527.45548 -14621155.33247
      1031.9614        804.1294         49.3004         46.5004
  22946838.0914   22946837.5734   22946840.3714   -6383295.67647  -4957214.72246
      -751.5644       -585.6394         42.3004         39.7004
  22229977.4234   22229978.4614   22229981.0974  -13301502.96247 -10344059.10147
      1411.2174       1099.6414         47.7004         44.7004
  20403246.0764   20403245.3994   20403249.5494  -23529117.04248 -18295940.43647
      2032.4394       1583.7154         50.3004         47.3004
 10  1  5  0 52  0.0000000  0  8G22G12G28G15G27G18G17G 9
  23876683.6274   23876682.4264   23876683.8684   -3288761.30446  -2393393.02945
      1086.8004        846.8584         37.6004         35.5004
  23657584.1794   23657585.1664   23657589.3334   -6567830.50147  -5071600.88746
      3534.5214       2754.1744         42.2004         39.5004
  23319831.3884   23319830.9354   23319833.5364   -6107105.87947  -4741749.79646
     -2850.1874      -2220.9114         42.0004         39.0004
  21202620.0964   21202620.2754   21202623.9304  -17084159.43648 -13290770.73047
     -2110.8814      -1644.8284         49.1004         46.3004
  21042207.3634   21042207.0574   21042211.0944  -19365351.90248 -14645174.37947
      1023.0154        797.1544         49.5004         46.5004
  22951180.0364   22951179.3754   22951184.3614   -6360474.40747  -4939431.93446
      -769.8704       -599.8734         42.2004         39.3004
  22221972.2484   22221972.3344   22221975.8834  -13343572.65347 -10376840.67447
      1393.4024       1085.7684         47.7004         44.5004
  20391681.7024   20391681.6504   20391685.3344  -23589886.23148 -18343293.04647
      2018.8344       1573.1164         50.3004         47.2004
 10  1  5  0 52 30.0000000  0  8G22G12G28G15G27G18G17G 9
  23870532.5334   23870531.6134   23870532.1194   -3321099.78846  -2418591.89845
      1069.1684        833.1224         37.8004         35.9004
  23637424.6104   23637424.9594   23637428.3614   -6673773.74247  -5154154.08746
      3528.2924       2749.3314         42.2004         39.3004
  23336119.7604   23336119.8334   23336124.2304   -6021504.69746  -4675047.60046
     -2856.5684      -2225.8874         41.8004         38.8004
  21214714.2534   21214714.6424   21214718.8304  -17020599.95648 -13241243.86647
     -2126.4254      -1656.9604         49.1004         46.1004
  21036393.2284   21036392.6654   21036396.7054  -19395907.36048 -14668983.82747
      1014.0644        790.1764         49.5004         46.5004
  22955628.2764   22955628.0924   22955630.5314   -6337104.89047  -4921221.91946
      -788.1124       -614.1174         42.0004         39.3004
  22214069.2914   22214069.0024   22214072.4174  -13385107.19147 -10409205.25147
      1375.5344       1071.8474         47.7004         44.7004
  20380195.7064   20380195.5294   20380199.4754  -23650245.82848 -18390326.49447
      2005.1074       1562.4214         50.2004         47.2004
 10  1  5  0 53  0.0000000  0  8G22G12G28G15G27G18G17G 9
  23864478.1434   23864477.0804   23864478.8564   -3352903.91846  -2443374.29046
      1051.2344        819.1394         38.3004         36.4004
  23617301.0264   23617299.2974   23617304.0714   -6779528.21447  -5236560.14546
      3521.9884       2744.4114         42.0004         39.3004
  23352446.7384   23352444.9074   23352451.3874   -5935712.70847  -4608196.70846
     -2862.9124      -2230.8504         42.0004         39.5004
  21226898.6194   21226898.9404   21226902.6584  -16956575.00748 -13191354.30247
     -2141.8944      -1669.0074         49.3004         46.3004
  21030629.8354   21030629.0914   21030633.5374  -19426193.14848 -14692583.14747
      1005.0284        783.1334         49.5004         46.5004
  22960178.2484   22960178.0054   22960181.7374   -6313188.18347  -4902585.55146
      -806.3384       -628.3394         42.0004         39.7004
  22206267.0794   22206266.8774   22206270.8704  -13426104.41047 -10441151.13047
      1357.6004       1057.8714         47.7004         44.5004
  20368787.3944   20368787.4054   20368791.3374  -23710194.24348 -18437039.54347
      1991.4224       1551.7584         50.2004         47.0004
 10  1  5  0 53 30.0000000  0  8G22G12G28G15G27G18G17G 9
  23858528.7154   23858529.3924   23858530.0684   -3384172.84146  -2467739.68546
      1033.3734        805.2284         39.0004         36.9004
  23597213.1144   23597212.7454   23597216.0294   -6885092.48247  -5318818.01346
      3515.6124       2739.4414         42.3004         39.7004
  23368807.8484   23368807.2184   23368812.2404   -5849731.28547  -4541198.22246
     -2869.1914      -2235.7164         42.0004         39.3004
  21239170.1644   21239170.8034   21239174.1104  -16892086.22048 -13141103.31347
     -2157.3584      -1681.0574         49.1004         46.1004
  21024917.2254   21024917.2164   21024921.7234  -19456208.90048 -14715972.04247
       996.0174        776.1124         49.5004         46.6004
  22964833.9334   22964832.4794   22964836.5954   -6288725.35147  -4883523.63046
      -824.5114       -642.4734         42.2004         39.3004
  22198568.3834   22198568.5904   22198571.4284  -13466562.94547 -10472677.25347
      1339.6224       1043.8544         47.7004         44.7004
  20357458.1774   20357458.1304   20357462.4334  -23769730.25548 -18483431.23847
      1977.6474       1541.0204         50.2004         47.2004
 10  1  5  0 54  0.0000000  0  8G22G12G28G15G27G18G17G 9
  23852678.4174   23852678.2454   23852680.8774   -3414905.29746  -2491687.05346
      1015.5134        791.3084         39.2004         36.7004
  23577162.1164   23577161.6284   23577164.3794   -6990464.89047  -5400926.36046
      3509.1774       2734.4214         42.7004         40.2004
  23385205.4154   23385205.9084   23385209.8704   -5763562.19347  -4474053.46946
     -2875.3804      -2240.5534         42.2004         39.3004
  21251530.1104   21251530.4794   21251533.8424  -16827134.74848 -13090491.78147
     -2172.7414      -1693.0464         49.1004         46.1004
  21019257.6774   21019257.4334   21019261.5204  -19485953.88048 -14739149.94547
       986.9804        769.0774         49.6004         46.6004
  22969592.4074   22969591.3734   22969595.7814   -6263717.86747  -4864037.29846
      -842.6354       -656.5994         42.2004         39.0004
  22190972.2734   22190972.2384   22190975.3514  -13506481.25047 -10503782.41147
      1321.5804       1029.7994         47.5004         44.5004
  20346207.9984   20346207.6484   20346211.7764  -23828852.05248 -18529500.16547
      1963.8134       1530.2434         50.2004         47.2004
 10  1  5  0 54 30.0000000  0  8G22G12G28G15G27G18G17G 9
  23846935.7014   23846933.8514   23846935.9744   -3445100.45446  -2515215.74746
       997.5624        777.3224         39.4004         37.4004
  23557146.4814   23557145.9234   23557148.9124   -7095643.31047  -5482883.55446
      3502.7104       2729.4004         42.5004         39.7004
  23401639.7824   23401639.3964   23401641.3624   -5677207.33347  -4406763.97846
     -2881.5474      -2245.3584         42.2004         39.5004
  21263977.6714   21263977.8104   21263981.5594  -16761722.33548 -13039521.07647
     -2188.1024      -1705.0144         48.9004         45.9004
  21013649.4424   21013648.8384   21013652.9934  -19515427.54148 -14762116.43147
       977.9214        762.0144         49.6004         46.8004
  22974453.9184   22974453.9274   22974458.4534   -6238166.66147  -4844127.30246
      -860.7404       -670.7014         42.0004         39.3004
  22183479.1994   22183479.0214   22183482.3104  -13545857.69147 -10534465.36347
      1303.5054       1015.7184         47.7004         44.7004
  20335036.2684   20335036.4614   20335040.6244  -23887558.03648 -18575245.08447
      1949.9134       1519.4124         50.2004         47.2004
 10  1  5  0 55  0.0000000  0  8G22G12G28G15G27G18G17G 9
  23841289.9154   23841290.9044   23841292.4894   -3474757.44546  -2538325.16246
       979.6984        763.3964         39.2004         36.6004
  23537168.0994   23537167.3124   23537172.5594   -7200626.23047  -5564688.40046
      3496.1424       2724.2684         42.5004         39.7004
  23418106.4234   23418106.7534   23418109.0204   -5590668.81447  -4339331.37046
     -2887.6404      -2250.0934         42.3004         39.9004
  21276512.8794   21276512.8504   21276516.5944  -16695850.34048 -12988192.26347
     -2203.3784      -1716.9154         48.9004         45.9004
  21008091.8574   21008091.6644   21008096.1534  -19544629.40948 -14784871.13947
       968.8544        754.9584         49.6004         46.6004
  22979420.2144   22979419.4654   22979423.2524   -6212073.33347  -4823794.86646
      -878.7804       -684.7764         42.2004         39.5004
  22176088.5404   22176089.2384   22176093.0684  -13584690.64547 -10564724.80447
      1285.3544       1001.5724         47.7004         44.9004
  20323944.2604   20323944.3504   20323948.3574  -23945846.82648 -18620664.91647
      1935.9794       1508.5544         50.2004         47.2004
 10  1  5  0 55 30.0000000  0  8G22G12G28G15G27G18G17G 9
  23835751.0294   23835749.1624   23835749.2404   -3503875.46046  -2561014.59846
       961.6684        749.3484         39.0004         36.2004
  23517229.3794   23517228.3154   23517230.9594   -7305412.14047  -5646339.74646
      3489.5594       2719.1294         42.7004         40.0004
  23434609.7164   23434609.6304   23434611.7164   -5503948.42847  -4271757.06646
     -2893.6734      -2254.7964         42.7004         40.0004
  21289134.5994   21289134.5764   21289138.3144  -16629520.61448 -12936506.77347
     -2218.5994      -1728.7854         48.8004         45.6004
  21002586.8694   21002586.5144   21002590.8774  -19573558.83748 -14807413.55147
       959.7704        747.8724         49.6004         46.6004
  22984487.4604   22984487.9924   22984491.1684   -6185439.19747  -4803041.03146
      -896.8734       -698.8734         42.2004         39.5004
  22168804.0864   22168803.9364   22168806.0804  -13622978.36247 -10594559.38447
      1267.1374        987.3794         47.9004         44.9004
  20312932.7604   20312932.2664   20312936.0724  -24003716.98548 -18665758.54347
      1922.0124       1497.6694         50.2004         47.2004
 10  1  5  0 56  0.0000000  0  8G22G12G28G15G27G18G17G 9
  23830311.9184   23830310.2804   23830313.5814   -3532453.53046  -2583283.16546
       943.6444        735.3014         39.0004         36.7004
  23497326.2204   23497326.0404   23497329.0124   -7409999.59747  -5727836.45246
      3482.9134       2713.9694         42.9004         40.2004
  23451145.4274   23451146.5004   23451146.9314   -5417047.96447  -4204042.39446
     -2899.6734      -2259.5054         42.3004         39.2004
  21301842.6724   21301843.5764   21301848.5104  -16562734.69848 -12884465.83447
     -2233.7624      -1740.5904         48.8004         45.9004
  20997134.1634   20997133.8374   20997137.8504  -19602215.38548 -14829743.33247
       950.6514        740.7644         49.6004         46.8004
  22989659.9514   22989658.7194   22989662.8614   -6158265.49147  -4781866.73046
      -914.7654       -712.8094         42.3004         39.7004
  22161622.0484   22161621.7014   22161624.3784  -13660719.61147 -10623968.13247
      1248.9294        973.1834         47.9004         44.9004
  20301999.6514   20301999.4514   20302003.4964  -24061167.13148 -18710524.88847
      1907.9804       1486.7384         50.2004         47.2004
 10  1  5  0 56 30.0000000  0  8G22G12G28G15G27G18G17G 9
  23824977.6724   23824977.4274   23824977.4294   -3560491.00046  -2605130.58746
       925.5384        721.2034         39.6004         37.4004
  23477459.4384   23477460.7944   23477465.6894   -7514386.73047  -5809177.04946
      3476.2064       2708.7344         42.7004         40.0004
  23467715.6414   23467715.4144   23467718.7594   -5329968.97046  -4136188.65246
     -2905.6104      -2264.1214         41.8004         39.0004
  21314639.3714   21314639.6514   21314642.5824  -16495493.97548 -12832070.49047
     -2248.9364      -1752.4154         48.8004         45.6004
  20991733.4274   20991732.6844   20991736.9554  -19630598.40948 -14851859.97847
       941.5314        733.6664         49.8004         46.8004
  22994933.3984   22994931.7354   22994935.7834   -6130553.41147  -4760272.89946
      -932.6914       -726.7794         42.2004         39.3004
  22154544.1464   22154544.1844   22154546.7664  -13697912.74147 -10652949.76247
      1230.6304        958.9344         47.9004         44.9004
  20291147.1994   20291147.4884   20291151.4524  -24118195.76548 -18754962.78547
      1893.9184       1475.7794         50.2004         47.2004
 10  1  5  0 57  0.0000000  0  8G22G12G28G15G27G18G17G 9
  23819744.1504   23819743.0364   23819745.4054   -3587986.99046  -2626556.04546
       907.4774        707.1304         39.9004         37.4004
  23457637.2784   23457635.7834   23457639.9134   -7618572.07847  -5890360.41246
      3469.4344       2703.4564         43.2004         40.4004
  23484319.2974   23484318.4014   23484322.1294   -5242713.41746  -4068197.32046
     -2911.4664      -2268.6874         41.6004         39.0004
  21327521.5424   21327521.4094   21327524.2324  -16427799.70248 -12779321.71047
     -2264.0184      -1764.1664         48.8004         45.6004
  20986383.2024   20986383.2764   20986387.6474  -19658707.44148 -14873763.11847
       932.3954        726.5374         49.6004         46.8004
  23000309.1714   23000308.3354   23000311.9194   -6102304.22247  -4738260.55946
      -950.5764       -740.7014         42.2004         39.3004
  22147570.8284   22147570.5734   22147573.9964  -13734556.33047 -10681503.20347
      1212.2604        944.6194         47.9004         44.9004
  20280376.2994   20280375.6364   20280380.0434  -24174801.40748 -18799071.07747
      1879.7854       1464.7624         50.3004         47.3004
 10  1  5  0 57 30.0000000  0  8G22G12G28G15G27G18G17G 9
  23814614.8884   23814613.8784   23814615.8814   -3614940.79846  -2647559.01446
       889.4024        693.0394         39.7004         37.3004
  23437848.2414   23437848.0404   23437852.1354   -7722553.82547  -5971385.13446
      3462.6174       2698.1454         43.0004         40.4004
  23500957.1634   23500957.4644   23500959.7444   -5155282.93346  -4000069.68746
     -2917.2574      -2273.1924         41.5004         38.8004
  21340488.4394   21340488.7024   21340492.8404  -16359653.53948 -12726220.81047
     -2279.0544      -1775.8884         48.6004         45.6004
  20981086.9154   20981086.7004   20981090.6784  -19686541.67548 -14895452.13847
       923.2184        719.3964         49.6004         46.6004
  23005787.8574   23005786.5634   23005789.4434   -6073519.54047  -4715830.96646
      -968.4294       -754.6184         42.2004         39.3004
  22140702.1364   22140703.1784   22140706.0874  -13770648.30347 -10709626.82247
      1193.8374        930.2634         47.9004         45.1004
  20269684.7074   20269684.7934   20269688.8854  -24230982.49348 -18842848.54247
      1865.6044       1453.7204         50.3004         47.3004
 10  1  5  0 58  0.0000000  0  8G22G12G28G15G27G18G17G 9
  23809588.8904   23809587.6684   23809590.1134   -3641351.38546  -2668138.69446
       871.4294        679.0324         39.6004         36.9004
  23418098.5254   23418099.7964   23418103.1764   -7826330.20347  -6052249.83146
      3455.7994       2692.8364         43.0004         40.2004
  23517626.5374   23517626.7284   23517630.6414   -5067679.34446  -3931807.16446
     -2922.9794      -2277.6494         41.3004         38.6004
  21353542.2004   21353542.5114   21353546.1614  -16291057.40848 -12672769.30147
     -2294.0574      -1787.5714         48.6004         45.6004
  20975842.4864   20975842.2354   20975847.0374  -19714100.61348 -14916926.63347
       914.0374        712.2414         49.6004         46.8004
  23011365.4834   23011364.8564   23011368.4984   -6044200.62247  -4692985.05246
      -986.2044       -768.4704         42.0004         39.3004
  22133939.8924   22133939.9084   22133942.8634  -13806187.89547 -10737320.00647
      1175.4304        915.9184         47.9004         45.1004
  20259074.8514   20259074.7644   20259078.9904  -24286737.46848 -18886293.97147
      1851.3724       1442.6254         50.5004         47.3004
 10  1  5  0 58 30.0000000  0  8G22G12G28G15G27G18G17G 9
  23804664.4924   23804665.1704   23804668.8984   -3667218.03046  -2688294.53946
       853.1644        664.7984         38.7004         36.0004
  23398393.3274   23398392.4634   23398394.9504   -7929899.54647  -6132953.18746
      3448.8614       2687.4244         43.2004         40.6004
  23534331.3844   23534330.3424   23534333.9114   -4979904.51746  -3863411.18546
     -2928.6324      -2282.0524         41.1004         38.6004
  21366681.3544   21366681.7584   21366685.1604  -16222012.60448 -12618968.15547
     -2308.9524      -1799.1754         48.6004         45.6004
  20970650.9464   20970650.7684   20970655.0514  -19741383.73448 -14938186.21047
       904.8374        705.0724         49.6004         46.8004
  23017046.6604   23017046.6714   23017049.7494   -6014348.78247  -4669723.88546
     -1003.9174       -782.2644         42.3004         39.9004
  22127281.7124   22127282.0004   22127285.3164  -13841173.49548 -10764581.48547
      1156.9134        901.4904         48.1004         45.1004
  20248546.9444   20248546.5304   20248550.6124  -24342064.94248 -18929406.28647
      1837.1204       1431.5284         50.3004         47.3004
 10  1  5  0 59  0.0000000  0  8G22G12G28G15G27G18G17G 9
  23799847.7984   23799847.4324   23799848.3694   -3692540.29846  -2708026.20346
       835.0114        650.6594         38.5004         36.2004
  23378723.5554   23378724.1794   23378726.4174   -8033260.36947  -6213494.05546
      3441.8734       2681.9704         43.2004         40.4004
  23551065.9044   23551064.4894   23551069.6804   -4891960.26646  -3794883.21346
     -2934.2824      -2286.4504         41.5004         39.0004
  21379904.5974   21379904.9174   21379908.1614  -16152520.81548 -12564818.71847
     -2323.8224      -1810.7764         48.4004         45.2004
  20965511.6954   20965511.4264   20965515.6754  -19768390.45748 -14959230.41147
       895.6044        697.8724         49.8004         46.8004
  23022829.0964   23022828.3314   23022831.1134   -5983965.31547  -4646048.49246
     -1021.6044       -796.0464         42.5004         39.9004
  22120730.8194   22120730.5734   22120733.9624  -13875603.45748 -10791410.02947
      1138.3724        887.0424         48.1004         45.1004
  20238100.1484   20238099.7644   20238103.6304  -24396963.43248 -18972184.33047
      1822.7804       1420.3534         50.3004         47.3004
 10  1  5  0 59 30.0000000  0  8G22G12G28G15G27G18G17G 9
  23795132.6224   23795132.2684   23795134.3324   -3717317.14046  -2727332.86046
       816.8374        636.4964         38.3004         36.2004
  23359093.0244   23359093.2054   23359097.5364   -8136411.26947  -6293871.34646
      3434.8054       2676.4814         43.0004         40.0004
  23567832.1194   23567832.9934   23567835.7714   -4803848.33946  -3726224.60646
     -2939.8034      -2290.7564         41.3004         38.6004
  21393213.7534   21393213.5144   21393216.8324  -16082583.76348 -12510322.32447
     -2338.6414      -1822.3184         48.4004         45.4004
  20960424.7454   20960424.8394   20960429.1324  -19795120.20648 -14980058.79147
       886.3684        690.6804         49.6004         46.8004
  23028710.5264   23028709.9304   23028712.9044   -5953051.89047  -4621960.14946
     -1039.2574       -809.8074         42.2004         39.2004
  22114285.2684   22114284.7304   22114288.2424  -13909476.41948 -10817804.53147
      1119.7954        872.5724         48.2004         45.2004
  20227735.5634   20227735.2844   20227738.8354  -24451431.51248 -19014626.99047
      1808.4124       1409.1524         50.5004         47.5004
                            4  7
RINEX FILE SPLICE                                           COMMENT
teqc  2009Mar23     root                20100105 02:00:00UTCCOMMENT
BIT 2 OF LLI FLAGS DATA COLLECTED UNDER A/S CONDITION       COMMENT
Forced Modulo Decimation to 30 seconds                      COMMENT
 SNR is mapped to RINEX snr flag value [0-9]                COMMENT
  L1 & L2: min(max(int(snr_dBHz/6), 0), 9)                  COMMENT
pseudorange smoothing corrections not applied               COMMENT
 10  1  5  1  0  0.0000000  0  7G12G28G15G27G18G17G 9
  23339503.5204   23339504.3604   23339507.6304   -8239350.12347  -6374083.45046
      3427.6854       2670.9254         43.2004         40.2004
  23584632.1894   23584632.2534   23584634.3964   -4715570.39746  -3657436.57746
     -2945.3954      -2295.1244         41.3004         38.6004
  21406606.1264   21406606.5414   21406610.3154  -16012203.17048 -12455480.31047
     -2353.3934      -1833.8114         48.4004         45.4004
  20955391.5234   20955391.2514   20955395.1964  -19821572.66148 -15000671.10247
       877.1454        683.4934         49.6004         46.6004
  23034693.4394   23034693.1054   23034696.2894   -5921610.29246  -4597460.21646
     -1056.8514       -823.5274         41.8004         39.2004
  22107943.7844   22107945.0054   22107948.9844  -13942791.26848 -10843764.14747
      1101.1944        858.0784         48.2004         45.2004
  20217452.5344   20217452.2984   20217456.3094  -24505467.91948 -19056733.27547
      1794.0054       1397.9214         50.7004         47.5004
 10  1  5  1  0 30.0000000  0  8G22G12G28G15G27G18G17G 9
  23786015.5824   23786014.8624   23786015.8854   -3765232.62946  -2764669.64446
       780.3354        608.0534         38.9004         36.9004
  23319956.9214   23319957.5414   23319960.6074   -8342075.79847  -6454129.41246
      3420.5884       2665.3874         43.2004         40.6004
  23601461.3194   23601460.5214   23601465.3144   -4627128.60146  -3588520.89546
     -2950.7894      -2299.3194         41.1004         38.5004
  21420083.0944   21420083.8194   21420087.1164  -15941380.73648 -12400294.03247
     -2368.1184      -1845.2894         48.4004         45.4004
  20950410.5254   20950409.9864   20950414.7104  -19847747.10248 -15021066.76747
       867.8404        676.2454         49.6004         46.6004
  23040777.3464   23040777.0524   23040781.2244   -5889641.69646  -4572549.65546
     -1074.3914       -837.1634         41.8004         39.2004
  22101712.1984   22101711.7414   22101714.3864  -13975546.66848 -10869287.83747
      1082.4864        843.4894         48.1004         44.7004
  20207252.1404   20207251.8434   20207255.7334  -24559071.30748 -19098502.15147
      1779.5454       1386.6544         50.7004         47.5004
 10  1  5  1  1  0.0000000  0  9G22G12G28G15G27G18G26G17G 9
  23781611.6364   23781612.0004   23781613.5664   -3788369.46746  -2782698.37646
       762.0844        593.8314         38.7004         36.4004
  23300449.9274   23300450.0104   23300452.4584   -8444586.42947  -6534007.79146
      3413.4174       2659.7934         43.2004         40.4004
  23618322.6984   23618322.3494   23618327.4394   -4538524.27446  -3519478.59146
     -2956.1454      -2303.4974         41.1004         38.5004
  21433643.8624   21433644.2344   21433647.9404  -15870117.83448 -12344764.48847
     -2382.7744      -1856.7084         48.2004         45.2004
  20945482.1784   20945482.1424   20945486.9824  -19873642.76548 -15041245.20747
       858.5314        668.9914         49.6004         46.6004
  23046959.9514   23046958.7354   23046963.6334   -5857147.54446  -4547229.53746
     -1091.9264       -850.8554         41.6004         38.8004
  23259266.6804                                     -64148.97244    -39293.82543
      3531.5314       2751.8424         26.4004         23.4004
  22095585.3514   22095585.2224   22095588.6524  -14007741.26847 -10894374.53047
      1063.7904        828.9334         47.7004         44.9004
  20197134.2734   20197134.1124   20197138.0924  -24612239.69848 -19139932.06747
      1765.0314       1375.3524         50.5004         47.5004
 10  1  5  1  1 30.0000000  0  9G22G12G28G15G27G18G26G17G 9
  23777313.1544   23777310.8194   23777313.5354   -3810958.63746  -2800300.30245
       743.8854        579.6544         38.0004         35.3004
  23280985.0924   23280984.4984   23280987.1654   -8546880.26847  -6613717.27646
      3406.1384       2654.1424         43.6004         40.9004
  23635215.5324   23635214.2914   23635215.7574   -4449759.39046  -3450311.14546
     -2961.4954      -2307.6794         41.1004         38.3004
  21447287.6894   21447288.3944   21447292.9594  -15798416.26548 -12288893.14747
     -2397.3464      -1868.0624         48.4004         45.4004
  20940607.9114   20940607.6284   20940612.0214  -19899259.13448 -15061206.01147
       849.2174        661.7274         49.6004         46.8004
  23053245.0344   23053244.1824   23053246.3554   -5824129.43146  -4521501.17046
     -1109.3104       -864.3874         41.6004         39.5004
  23239133.6714                                    -169955.83844   -121740.52246
      3522.3024       2744.6514         26.4004         36.0004
  22089565.8584   22089565.9584   22089569.3584  -14039373.59247 -10919023.08447
      1044.9934        814.2814         47.9004         44.9004
  20187099.2324   20187099.4904   20187103.5454  -24664971.87448 -19181022.07047
      1750.4454       1363.9884         50.5004         47.5004
 10  1  5  1  2  0.0000000  0  9G22G12G28G15G27G18G26G17G 9
  23773118.5134   23773119.4624   23773120.7014   -3832999.41246  -2817474.92745
       725.5494        565.3704         37.1004         34.8004
  23261558.8774   23261558.9554   23261563.2994   -8648956.11347  -6693256.87446
      3398.8664       2648.4684         43.7004         40.9004
  23652135.7154   23652134.6524   23652139.6574   -4360835.40646  -3381019.72046
     -2966.7364      -2311.7394         40.8004         37.9004
  21461015.9924   21461016.3354   21461019.8374  -15726277.42148 -12232681.07147
     -2411.9034      -1879.4034         48.4004         45.4004
  20935786.9064   20935786.4844   20935790.8154  -19924595.64348 -15080948.74747
       839.8524        654.4304         49.6004         46.8004
  23059626.5224   23059625.8794   23059628.7434   -5790589.12547  -4495365.90546
     -1126.6834       -877.9324         42.0004         39.3004
  23219051.7664                   23219053.2864    -275482.49844   -203969.17146
      3512.8714       2737.3084         27.0004         36.6004
  22083653.5964   22083653.9084   22083656.6984  -14070442.19147 -10943232.38747
      1026.1944        799.6334         47.9004         44.9004
  20177147.9854   20177147.8834   20177152.2384  -24717266.50648 -19221771.12647
      1735.8364       1352.5944         50.5004         47.5004
 10  1  5  1  2 30.0000000  0  9G22G12G28G15G27G18G26G17G 9
  23769030.0374   23769029.7084   23769032.8234   -3854491.00846  -2834221.62845
       707.1744        551.0374         36.3004         34.5004
  23242177.0894   23242177.0834   23242180.4014   -8750812.03047  -6772625.11246
      3391.4864       2642.7204         43.9004         41.1004
  23669085.6924   23669085.7204   23669091.0384   -4271754.24346  -3311605.85146
     -2971.9524      -2315.8134         40.3004         37.6004
  21474826.2184   21474826.7224   21474830.5594  -15653703.59048 -12176130.03947
     -2426.3624      -1890.6704         48.4004         45.4004
  20931018.3144   20931018.3854   20931022.8454  -19949651.76248 -15100472.99547
       830.5174        647.1544         49.6004         46.8004
  23066105.7784   23066107.1704   23066111.2264   -5756528.17246  -4468824.93446
     -1144.0134       -891.4394         41.8004         38.8004
  23199021.2864   23199022.6274   23199026.6364    -380725.87446   -285977.03946
      3503.3574       2729.8864         37.6004         36.4004
  22077849.5104   22077849.5834   22077852.8054  -14100946.07448 -10967001.63647
      1007.3684        784.9704         48.2004         45.2004
  20167280.6834   20167280.3024   20167284.0544  -24769122.03948 -19262178.04447
      1721.1904       1341.1864         50.5004         47.3004
 10  1  5  1  3  0.0000000  0  9G22G12G28G15G27G18G26G17G 9
  23765041.7774   23765042.9264   23765047.1564   -3875432.95146  -2850540.07545
       688.7694        536.6964         36.6004         34.8004
  23222835.2924   23222835.5174   23222840.4684   -8852446.50847  -6851820.77446
      3384.1194       2636.9784         43.6004         40.6004
  23686066.6984   23686068.1934   23686071.2574   -4182517.81146  -3242070.96046
     -2977.1634      -2319.8544         40.3004         37.8004
  21488719.5344   21488719.3874   21488723.0304  -15580696.32548 -12119241.27947
     -2440.7964      -1901.9194         48.4004         45.2004
  20926304.1434   20926303.9434   20926308.3524  -19974426.80948 -15119778.23347
       821.1214        639.8364         49.8004         47.0004
  23072687.7054   23072688.2784   23072690.4354   -5721947.96746  -4441879.33546
     -1161.2674       -904.8824         41.3004         38.5004
  23179050.8424   23179048.6944   23179056.6134    -485683.18946   -367761.95346
      3493.7884       2722.4334         38.9004         36.7004
  22072151.4554   22072151.8954   22072155.3534  -14130883.86048 -10990329.77747
       988.4634        770.2344         48.1004         44.9004
  20157496.7314   20157496.4384   20157500.1054  -24820537.29748 -19302241.87647
      1706.4974       1329.7414         50.5004         47.5004
 10  1  5  1  3 30.0000000  0  9G22G12G28G15G27G18G26G17G 9
  23761164.6264   23761166.1384   23761165.7534   -3895824.63846  -2866429.68545
       670.5794        522.5254         37.3004         35.5004
  23203537.9244   23203538.0884   23203541.6174   -8953857.88947  -6930842.64446
      3376.6314       2631.1464         43.9004         41.1004
  23703077.0034   23703077.1394   23703083.2324   -4093127.80946  -3172416.41446
     -2982.2254      -2323.8064         40.4004         38.1004
  21502695.3944   21502694.8254   21502698.5294  -15507257.12348 -12062015.94447
     -2455.1584      -1913.1064         48.4004         45.4004
  20921642.8024   20921643.0214   20921647.0864  -19998920.13548 -15138863.94547
       811.7474        632.5314         49.8004         46.8004
  23079366.1754   23079366.4754   23079368.9344   -5686850.14246  -4414530.39246
     -1178.5124       -918.3184         41.5004         38.6004
  23159131.8554   23159132.9144   23159136.6144    -590351.48246   -449321.67846
      3484.0824       2714.8724         39.9004         37.8004
  22066562.5044   22066563.3224   22066566.4744  -14160254.33847 -11013215.85747
       969.5124        755.4664         47.9004         44.9004
  20147796.4834   20147796.5174   20147800.5094  -24871510.81248 -19341961.50147
      1691.7234       1318.2264         50.5004         47.5004
 10  1  5  1  4  0.0000000  0  9G22G12G28G15G27G18G26G17G 9
  23757385.8074   23757387.9484   23757389.8254   -3915665.66046  -2881890.19045
       652.1884        508.2064         37.5004         35.7004
  23184284.6174   23184284.7154   23184287.8294   -9055044.64547  -7009689.46746
      3369.1254       2625.2964         44.1004         41.6004
  23720119.0684   23720119.1594   23720122.8554   -4003585.85746  -3102643.48446
     -2987.2574      -2327.7234         41.1004         38.8004
  21516750.8674   21516751.5344   21516755.9934  -15433387.74348 -12004455.39447
     -2469.4634      -1924.2594         48.4004         45.6004
  20917036.2774   20917035.7324   20917039.9724  -20023131.28948 -15157729.77547
       802.3184        625.1874         49.8004         46.8004
  23086143.8694   23086143.4244   23086147.5254   -5651236.38246  -4386779.43546
     -1195.7354       -931.7394         41.5004         39.0004
  23139271.3654   23139269.2974   23139273.9414    -694727.89846   -530654.00746
      3474.3264       2707.2684         39.6004         36.9004
  22061081.7364   22061081.5394   22061085.5794  -14189056.61547 -11035659.18547
       950.5694        740.7114         47.9004         44.9004
  20138180.9454   20138181.2424   20138184.5374  -24922041.06848 -19381335.72247
      1676.9274       1306.7024         50.5004         47.5004
 10  1  5  1  4 30.0000000  0  9G22G12G28G15G27G18G26G17G 9
  23753719.3834   23753718.6584   23753720.3614   -3934955.67746  -2896921.34745
       633.7584        493.8374         37.1004         35.0004
  23165072.3874   23165071.6694   23165075.7924   -9156005.27447  -7088360.07246
      3361.5284       2619.3624         44.2004         41.2004
  23737186.7564   23737185.9954   23737190.4774   -3913893.68846  -3032753.46646
     -2992.2384      -2331.6204         41.1004         38.1004
  21530890.1714   21530890.2334   21530893.8224  -15359090.27148 -11946561.26947
     -2483.7034      -1935.3594         48.6004         45.6004
  20912482.4864   20912482.3384   20912486.7174  -20047059.58448 -15176375.19947
       792.8704        617.8204         49.8004         47.0004
  23093019.0264   23093019.0084   23093022.7324   -5615108.42246  -4358627.80846
     -1212.7684       -945.0244         41.5004         38.8004
  23119461.7034   23119463.2044   23119468.0214    -798809.84246   -611756.82846
      3464.3764       2699.5144         39.2004         36.7004
  22055710.3624   22055710.5324   22055712.5114  -14217289.39848 -11057658.75747
       931.5814        725.9014         48.1004         45.2004
  20128649.7284   20128649.7034   20128653.5284  -24972126.70748 -19420363.49647
      1662.0824       1295.1264         50.5004         47.5004
 10  1  5  1  5  0.0000000  0  9G22G12G28G15G27G18G26G17G 9
  23750150.8224   23750153.3194   23750152.8094   -3953693.83046  -2911522.49045
       615.4454        479.5694         36.3004         34.1004
  23145902.1464   23145902.1394   23145906.9894   -9256738.20847  -7166853.26146
      3353.9534       2613.4804         44.1004         41.2004
  23754281.1624   23754280.7054   23754286.1974   -3824053.01946  -2962747.73846
     -2997.1894      -2335.4714         40.9004         38.1004
  21545109.7724   21545109.8304   21545112.8794  -15284366.04448 -11888334.61847
     -2497.9104      -1946.4244         48.6004         45.6004
  20907983.1314   20907982.6204   20907987.4004  -20070704.48748 -15194799.80047
       783.4234        610.4584         49.8004         47.0004
  23099990.8174   23099991.4444   23099995.2164   -5578467.63546  -4330076.55046
     -1229.8414       -958.3174         41.6004         39.0004
  23099715.3104   23099714.0014   23099719.3934    -902594.14546   -692627.72146
      3454.5254       2691.8404         39.6004         37.1004
  22050446.7284   22050446.0364   22050449.1504  -14244951.14248 -11079213.34547
       912.5324        711.0624         48.2004         45.4004
  20119204.0524   20119203.6994   20119207.7504  -25021765.95248 -19459043.42647
      1647.1954       1283.5284         50.5004         47.5004
 10  1  5  1  5 30.0000000  0  9G22G12G28G15G27G18G26G17G 9
  23746693.7924   23746689.9534   23746693.2794   -3971879.62845  -2925693.32245
       596.8384        465.0654         35.9004         34.0004
  23126776.4374   23126776.2594   23126780.9994   -9357241.83347  -7245167.76346
      3346.2884       2607.4804         43.7004         40.9004
  23771406.3484   23771404.4924   23771410.0894   -3734065.57846  -2892627.68046
     -3001.9874      -2339.2094         40.8004         37.9004
  21559409.7254   21559410.1734   21559413.0894  -15209216.95048 -11829776.89647
     -2512.0274      -1957.4304         48.4004         45.4004
  20903537.7384   20903537.4184   20903541.7914  -20094065.45748 -15213003.15347
       773.9604        603.0854         49.8004         47.0004
  23107062.0754   23107061.8934   23107065.0214   -5541316.03346  -4301127.24346
     -1246.8914       -971.5964         41.6004         39.0004
  23080023.1554   23080022.9664   23080026.1194   -1006078.00046   -773264.47346
      3444.3924       2683.9424         39.7004         37.4004
  22045290.4244   22045290.8034   22045294.7444  -14272040.82248 -11100322.17847
       893.4354        696.1794         48.4004         45.6004
  20109842.8574   20109842.6684   20109846.9054  -25070957.68348 -19497374.63947
      1632.2574       1271.8834         50.5004         47.5004
 10  1  5  1  6  0.0000000  0  9G22G12G28G15G27G18G26G17G 9
  23743332.6974   23743335.2794   23743338.3814   -3989513.03046  -2939433.64745
       578.5854        450.8374         36.6004         35.0004
  23107696.9434   23107696.5604   23107699.2304   -9457514.36447  -7323302.20046
      3338.5544       2601.4484         43.9004         41.1004
  23788557.1824   23788557.4584   23788562.0324   -3643933.00646  -2822394.50946
     -3006.8114      -2342.9954         40.1004         37.4004
  21573790.5684   21573791.1014   21573794.1194  -15133644.74748 -11770889.47047
     -2526.1084      -1968.4004         48.4004         45.4004
  20899145.6014   20899145.9954   20899150.2864  -20117142.07148 -15230984.93047
       764.4734        595.6914         49.8004         47.0004
  23114226.9994   23114228.5354   23114230.8264   -5503655.28246  -4271781.22546
     -1263.8374       -984.8094         41.5004         38.6004
  23060387.8184   23060387.3934   23060390.2934   -1109258.58846   -853664.96346
      3434.2794       2676.0654         39.9004         37.4004
  22040244.8774   22040245.4354   22040248.3924  -14298557.47048 -11120984.48547
       874.2934        681.2664         48.6004         45.6004
  20100567.3674   20100567.2784   20100571.4444  -25119700.98248 -19535356.43247
      1617.2964       1260.2324         50.5004         47.5004
 10  1  5  1  6 30.0000000  0  9G22G12G28G15G27G18G26G17G 9
  23740087.8174   23740086.1754   23740087.6514   -4006593.67746  -2952743.27346
       560.2324        436.5454         38.2004         36.6004
  23088657.9114   23088659.4964   23088662.5804   -9557554.33347  -7401255.41446
      3330.7794       2595.4214         43.9004         41.2004
  23805735.9404   23805734.8614   23805741.6194   -3553657.09446  -2752049.63246
     -3011.5724      -2346.6804         40.4004         37.8004
  21588252.1354   21588252.0604   21588255.5804  -15057651.46348 -11711673.94147
     -2540.1114      -1979.3064         48.4004         45.4004
  20894809.3694   20894809.0984   20894813.5094  -20139933.72248 -15248744.66347
       754.9454        588.2644         49.8004         47.0004
  23121491.7454   23121491.5834   23121493.1134   -5465486.94146  -4242039.67646
     -1280.6754       -997.9324         41.6004         39.2004
  23040809.2684   23040810.5344   23040814.8804   -1212132.82946   -933826.73046
      3423.9554       2668.0184         40.3004         37.8004
  22035309.0364   22035308.4824   22035311.3554  -14324499.88648 -11141199.33947
       855.1674        666.3624         48.6004         45.6004
  20091377.5814   20091377.4974   20091381.5424  -25167993.83548 -19572987.22347
      1602.2304       1248.4864         50.5004         47.7004
 10  1  5  1  7  0.0000000  0  9G22G12G28G15G27G18G26G17G 9
  23736939.4314   23736939.9794   23736942.5704   -4023120.89246  -2965621.61746
       541.6574        422.0694         39.4004         37.4004
  23069665.9204   23069667.0264   23069670.0934   -9657360.52547  -7479026.45446
      3322.9654       2589.3174         43.9004         41.4004
  23822944.4374   23822943.1774   23822946.7374   -3463239.60446  -2681594.47146
     -3016.2854      -2350.3634         40.4004         37.8004
  21602792.5404   21602792.7684   21602796.4014  -14981238.55248 -11652131.43147
     -2554.0694      -1990.1924         48.4004         45.4004
  20890525.9634   20890526.3374   20890530.7314  -20162439.66848 -15266281.76647
       745.4164        580.8384         49.8004         47.0004
  23128851.9524   23128849.8674   23128853.9094   -5426813.09947  -4211904.21246
     -1297.5114      -1011.0464         42.0004         39.5004
  23021295.1854   23021294.2554   23021297.7944   -1314697.81346  -1013747.45046
      3413.6974       2660.0264         40.6004         38.3004
  22030480.2484   22030480.3174   22030484.4714  -14349867.05848 -11160965.96347
       835.9854        651.4084         48.4004         45.2004
  20082274.3854   20082274.0714   20082277.6264  -25215834.78948 -19610265.90147
      1587.1524       1236.7364         50.7004         47.7004
 10  1  5  1  7 30.0000000  0  9G22G12G28G15G27G18G26G17G 9
  23733901.8594   23733900.5854   23733903.3054   -4039094.27746  -2978068.37446
       523.1734        407.6714         39.9004         37.8004
  23050718.3204   23050717.3414   23050722.6214   -9756930.80947  -7556613.64746
      3315.0334       2583.1494         44.1004         41.1004
  23840175.7814   23840174.2154   23840179.1344   -3372682.15246  -2611030.22546
     -3020.9044      -2353.9574         40.1004         37.3004
  21617412.6364   21617412.3484   21617416.2344  -14904408.00348 -11592263.48447
     -2567.9484      -2000.9964         48.2004         45.1004
  20886298.4524   20886298.1644   20886302.5724  -20184659.43048 -15283595.86547
       735.8784        573.4174         50.0004         47.2004
  23136306.7954   23136305.5614   23136310.4404   -5387635.27147  -4181376.05446
     -1314.3294      -1024.1334         42.2004         39.5004
  23001834.8314   23001835.2374   23001838.4714   -1416950.73946  -1093425.07746
      3403.1874       2651.8394         40.4004         37.6004
  22025763.8724   22025763.6124   22025765.9754  -14374658.10648 -11180283.65047
       816.7314        636.4084         48.2004         45.2004
  20073256.3894   20073256.1484   20073260.1194  -25263222.74748 -19647191.57247
      1572.0414       1224.9684         50.7004         47.7004
 10  1  5  1  8  0.0000000  0  9G22G12G28G15G27G18G26G17G 9
  23730965.4704   23730966.1144   23730967.9714   -4054513.49246  -2990083.36546
       504.7244        393.2884         39.9004         37.3004
  23031816.1664   23031816.8724   23031819.4834   -9856263.75947  -7634015.94746
      3307.1484       2577.0104         44.2004         41.4004
  23857434.6724   23857432.7854   23857437.4144   -3281986.36446  -2540358.19846
     -3025.4964      -2357.5334         39.6004         36.7004
  21632112.3634   21632112.6414   21632116.5634  -14827161.85648 -11532071.68547
     -2581.7694      -2011.7734         48.2004         45.2004
  20882124.2214   20882124.2764   20882128.7234  -20206592.51748 -15300686.57847
       726.3164        565.9634         50.0004         47.2004
  23143857.0334   23143856.3244   23143858.1684   -5347955.35046  -4150456.65146
     -1330.9864      -1037.1434         41.5004         38.6004
  22982437.5784   22982438.3824   22982442.6484   -1518888.73846  -1172857.26346
      3392.6274       2643.6084         40.8004         38.5004
  22021155.1254   22021155.2864   22021159.0874  -14398871.87348 -11199151.49547
       797.5014        621.4264         48.2004         45.2004
  20064325.1244   20064324.8874   20064329.0394  -25310156.41948 -19683763.26147
      1556.8574       1213.1374         50.7004         47.5004
 10  1  5  1  8 30.0000000  0  9G22G12G28G15G27G18G26G17G 9
  23728138.2594   23728137.4824   23728139.0184   -4069378.49046  -3001666.48446
       486.4064        379.0154         39.7004         37.3004
  23012960.0474   23012958.2514   23012962.4374   -9955358.22547  -7711232.44046
      3299.1224       2570.7484         44.1004         41.1004
  23874719.4154   23874718.9784   23874720.7944   -3191154.06746  -2469579.81146
     -3030.0274      -2361.0684         39.4004         37.3004
  21646891.1484   21646891.0464   21646895.2814  -14749501.73848 -11471557.32547
     -2595.5874      -2022.5304         48.2004         45.2004
  20878004.9384   20878005.0754   20878009.8294  -20228238.24548 -15317553.38047
       716.7174        558.4804         50.0004         47.0004
  23151502.2394   23151502.0034   23151504.6294   -5307775.11646  -4119147.38746
     -1347.6684      -1050.1424         41.3004         38.5004
  22963101.6744   22963099.8114   22963103.5914   -1620509.01046  -1252041.88446
      3382.0304       2635.3494         41.1004         38.8004
  22016657.5504   22016657.6684   22016661.0294  -14422507.45348 -11217568.82447
       778.1764        606.3754         48.1004         45.2004
  20055480.5764   20055480.3764   20055484.2324  -25356634.48148 -19719979.94247
      1541.6434       1201.2854         50.7004         47.7004
 10  1  5  1  9  0.0000000  0  9G22G12G28G15G27G18G26G17G 9
  23725415.1144   23725414.9304   23725416.0734   -4083688.84646  -3012817.42046
       467.7564        364.4904         39.2004         36.6004
  22994148.0364   22994147.5994   22994151.2404  -10054212.39847  -7788261.61746
      3291.0984       2564.5014         44.2004         41.6004
  23892030.6544   23892029.9734   23892031.2794   -3100187.05446  -2398696.43046
     -3034.4314      -2364.4784         39.7004         37.1004
  21661747.3504   21661747.6704   21661750.9554  -14671429.52148 -11410721.84447
     -2609.2364      -2033.1734         48.2004         45.1004
  20873941.0454   20873940.5944   20873945.5514  -20249595.91648 -15334195.72247
       707.1004        550.9874         50.0004         47.0004
  23159243.6584   23159243.6004   23159246.4854   -5267096.22046  -4087449.59846
     -1364.2644      -1063.0594         41.1004         38.5004
  22943822.5544   22943821.5834   22943826.6484   -1721808.43946  -1330976.51046
      3371.2264       2626.9294         41.1004         38.3004
  22012270.5104   22012270.2234   22012274.1674  -14445563.70148 -11235534.72247
       758.8674        591.3264         48.2004         45.4004
  20046723.4914   20046722.9474   20046726.5204  -25402655.54548 -19755840.50947
      1526.4004       1189.4034         50.7004         47.7004
 10  1  5  1  9 30.0000000  0  9G22G12G28G15G27G18G26G17G 9
  23722793.8534   23722795.1154   23722797.3644   -4097444.20046  -3023535.88645
       449.1744        350.0094         38.2004         35.3004
  22975381.4454   22975381.5504   22975386.6214  -10152824.53847  -7865102.20146
      3283.0264       2558.1964         44.6004         41.6004
  23909365.7994   23909366.8804   23909367.4564   -3009086.84046  -2327709.24246
     -3038.8424      -2367.9304         39.7004         37.6004
  21676682.0834   21676682.2314   21676685.5684  -14592947.13947 -11349566.75047
     -2622.8804      -2043.8054         47.9004         44.9004
  20869931.8384   20869931.8344   20869936.3784  -20270664.89148 -15350613.11047
       697.4804        543.4914         50.0004         47.2004
  23167079.2254   23167078.8214   23167081.9814   -5225920.63146  -4055364.73046
     -1380.7774      -1075.9204         41.3004         38.8004
  22924606.5284   22924607.9144   22924612.3944   -1822784.23846  -1409658.91346
      3360.4104       2618.5024         41.1004         38.8004
  22007993.2774   22007993.2224   22007996.5914  -14468039.62348 -11253048.41847
       739.4934        576.2254         48.2004         45.2004
  20038052.9834   20038052.5114   20038056.2344  -25448218.19448 -19791343.86947
      1511.1064       1177.4854         50.7004         47.7004
 10  1  5  1 10  0.0000000  0  9G22G12G28G15G27G18G26G17G 9
  23720283.6804   23720283.1204   23720286.5734   -4110644.59446  -3033821.89946
       430.7324        335.6324         38.2004         36.2004
  22956665.0044   22956664.2324   22956667.4894  -10251193.40447  -7941753.23246
      3274.8634       2551.8374         44.4004         41.6004
  23926726.5584   23926726.0384   23926729.6034   -2917855.05146  -2256619.57446
     -3043.2284      -2371.3614         40.1004         37.6004
  21691694.2374   21691695.0214   21691698.7544  -14514056.34247 -11288093.42347
     -2636.4844      -2054.4014         47.9004         45.1004
  20865977.8864   20865977.6444   20865981.5314  -20291444.64348 -15366805.12547
       687.8244        535.9694         50.0004         47.2004
  23175009.3844   23175009.4244   23175011.1944   -5184250.41946  -4022894.46246
     -1397.2384      -1088.7654         41.5004         39.0004
  22905456.0684   22905455.4394   22905459.1034   -1923433.52446  -1488086.94846
      3349.4494       2609.9604         41.5004         39.0004
  22003826.1974   22003826.7354   22003830.8464  -14489934.46548 -11270109.31247
       720.1384        561.1494         48.2004         45.4004
  20029470.8344   20029470.1544   20029473.5964  -25493321.11148 -19826489.00547
      1495.7554       1165.5214         50.7004         47.8004
 10  1  5  1 10 30.0000000  0  9G22G12G28G15G27G18G26G17G 9
  23717881.2194   23717876.8414   23717879.9784   -4123289.31046  -3043674.93345
       412.2584        321.2394         38.0004         35.3004
  22937991.6564   22937992.2114   22937994.1544  -10349317.47147  -8018213.54546
      3266.7184       2545.4884         44.4004         41.8004
  23944110.4274   23944110.1614   23944115.6284   -2826493.19646  -2185428.51846
     -3047.5254      -2374.6854         39.7004         37.1004
  21706784.1754   21706784.1124   21706787.5034  -14434759.11647 -11226303.37647
     -2649.9924      -2064.9244         47.9004         44.7004
  20862078.6194   20862078.3854   20862082.8044  -20311934.41448 -15382771.18047
       678.1404        528.4194         50.0004         47.2004
  23183033.2974   23183032.3914   23183035.1494   -5142087.39546  -3990040.16646
     -1413.6264      -1101.5254         41.5004         39.2004
  22886365.2194   22886364.9994   22886368.7584   -2023753.21746  -1566258.09846
      3338.4064       2601.3554         41.3004         38.8004
  21999770.1654   21999770.9184   21999774.3414  -14511247.27448 -11286716.68047
       700.7254        546.0204         48.2004         45.2004
  20020974.4004   20020974.7104   20020978.5004  -25537962.84848 -19861274.77647
      1480.3484       1153.5174         50.7004         47.7004
 10  1  5  1 11  0.0000000  0  9G22G12G28G15G27G18G26G17G 9
  23715578.1854   23715578.1664   23715579.1444   -4135378.35346  -3053094.95045
       393.6834        306.7684         38.0004         35.7004
  22919365.3994   22919365.3064   22919370.0234  -10447195.09847  -8094481.80446
      3258.4774       2539.0694         44.6004         41.8004
  23961521.4844   23961519.6974   23961524.6144   -2735003.27746  -2114137.67946
     -3051.7774      -2378.0114         39.4004         36.9004
  21721949.9084   21721950.1184   21721954.2154  -14355057.84947 -11164198.51447
     -2663.4314      -2075.4024         47.7004         44.5004
  20858234.2724   20858234.8424   20858238.9194  -20332133.80848 -15398510.97947
       668.4664        520.8784         50.0004         47.2004
  23191149.5874   23191149.2644   23191151.3494   -5099433.43946  -3956803.34846
     -1429.9774      -1114.2714         41.8004         39.3004
  22867338.0954   22867338.8904   22867342.0194   -2123740.35946  -1644170.22846
      3327.3304       2592.7284         41.3004         38.8004
  21995825.9134   21995826.2194   21995829.1804  -14531977.18648 -11302869.84447
       681.2824        530.8744         48.2004         45.2004
  20012567.7074   20012567.9034   20012571.7054  -25582142.20648 -19895700.24847
      1464.9234       1141.4994         50.8004         47.8004
 10  1  5  1 11 30.0000000  0  9G22G12G28G15G27G18G26G17G 9
  23713384.0684   23713383.0394   23713385.5534   -4146911.54446  -3062081.90745
       375.2554        292.4054         37.8004         35.5004
  22900787.5564   22900787.6074   22900791.0514  -10544825.04347  -8170557.06647
      3250.1484       2532.5814         44.8004         42.1004
  23978955.8404   23978956.1104   23978959.3904   -2643386.73646  -2042748.18946
     -3055.9904      -2381.2884         39.2004         36.7004
  21737194.3764   21737194.5284   21737198.5894  -14274953.48747 -11101779.55147
     -2676.8244      -2085.8334         47.7004         44.9004
  20854446.1364   20854445.9114   20854450.5944  -20352042.32348 -15414024.10647
       658.7524        513.3214         50.2004         47.2004
  23199358.8164   23199358.3414   23199362.4034   -5056290.39846  -3923185.40446
     -1446.2414      -1126.9524         41.8004         39.0004
  22848374.0784   22848375.3374   22848378.8424   -2223392.32846  -1721821.07746
      3316.1394       2584.0044         41.5004         39.0004
  21991992.6914   21991992.8574   21991996.0914  -14552123.08548 -11318567.93647
       661.8024        515.6844         48.2004         45.2004
  20004249.3514   20004249.3454   20004252.5934  -25625857.72448 -19929764.28947
      1449.4254       1129.4204         50.8004         47.8004
 10  1  5  1 12  0.0000000  0  9G22G12G28G15G27G18G26G17G 9
  23711298.2224   23711297.6914   23711292.5054   -4157888.96446  -3070635.75645
       356.7044        277.9584         37.3004         35.0004
  22882258.5284   22882257.5084   22882260.2674  -10642205.36547  -8246437.83447
      3241.8174       2526.0864         44.9004         42.3004
  23996415.3544   23996413.3164   23996417.9594   -2551645.34046  -1971261.38546
     -3060.1624      -2384.5424         39.2004         36.9004
  21752513.0844   21752513.6914   21752518.0834  -14194448.32547 -11039048.26247
     -2690.1574      -2096.2194         47.9004         44.9004
  20850713.3914   20850713.0534   20850717.2944  -20371659.32548 -15429310.08647
       649.0264        505.7384         50.2004         47.2004
  23207661.3524   23207661.7494   23207663.5094   -5012660.09646  -3889187.79746
     -1462.3994      -1139.5424         41.6004         39.0004
  22829475.2414   22829476.2074   22829478.4584   -2322705.94346  -1799208.33446
      3304.7864       2575.1584         41.5004         38.6004
  21988270.9704   21988270.9504   21988273.7404  -14571684.47148 -11333810.55147
       642.2914        500.4974         48.4004         45.6004
  19996018.3204   19996018.5564   19996022.5134  -25669108.03048 -19963465.82847
      1433.8974       1117.3274         50.8004         47.7004
 10  1  5  1 12 30.0000000  0  9G22G12G28G15G27G18G26G17G 9
  23709306.2554   23709308.1034   23709314.8334   -4168310.32946  -3078756.33945
       338.0954        263.4544         36.4004         34.3004
  22863774.5764   22863773.9494   22863776.0494  -10739334.70647  -8322123.03846
      3233.4974       2519.6254         44.9004         41.9004
  24013895.6494   24013894.7474   24013897.6604   -2459780.45546  -1899678.37646
     -3064.2014      -2387.6884         38.9004         36.4004
  21767909.8194   21767909.5614   21767914.1094  -14113544.32247 -10976006.19447
     -2703.4404      -2106.5774         47.9004         45.1004
  20847035.4384   20847035.5144   20847040.2274  -20390984.20248 -15444368.43747
       639.2954        498.1594         50.2004         47.2004
  23216056.6264   23216055.0754   23216060.0304   -4968544.69446  -3854812.18246
     -1478.5884      -1152.1464         41.5004         38.6004
  22810642.9174   22810642.3464   22810646.2544   -2421678.34846  -1876329.72746
      3293.3634       2566.2654         41.5004         38.8004
  21984659.2344   21984659.6584   21984661.8804  -14590660.39548 -11348596.97947
       622.7484        485.2614         48.4004         45.4004
  19987877.4484   19987877.2114   19987881.0144  -25711891.75948 -19996803.80147
      1418.3294       1105.1934         50.8004         47.7004
 10  1  5  1 13  0.0000000  0  9G22G12G28G15G27G18G26G17G 9
  23707434.8194   23707435.0444   23707437.0044   -4178175.04446  -3086443.11845
       319.6184        249.0534         36.1004         34.5004
  22845338.4494   22845338.2754   22845341.6494  -10836211.53947  -8397611.48047
      3224.9874       2512.9774         45.1004         42.3004
  24031400.9204   24031400.0274   24031403.0614   -2367793.96746  -1828000.60046
     -3068.1644      -2390.7754         38.7004         36.2004
  21783381.7224   21783381.8844   21783383.6704  -14032243.37248 -10912654.80947
     -2716.6194      -2116.8514         48.1004         45.1004
  20843414.2094   20843414.0764   20843418.3514  -20410016.40948 -15459198.72747
       629.5184        490.5394         50.2004         47.2004
  23224543.5064   23224543.5634   23224547.0134   -4923946.07546  -3820060.07446
     -1494.6464      -1164.6664         41.6004         39.0004
  22791873.1744   22791873.1814   22791878.4464   -2520306.75946  -1953183.03646
      3281.7564       2557.2074         41.6004         39.2004
  21981159.7794   21981160.0684   21981163.1854  -14609049.76548 -11362926.34347
       603.2044        470.0304         48.4004         45.4004
  19979824.8344   19979824.8964   19979828.7484  -25754207.74348 -20029777.29947
      1402.7164       1093.0304         50.7004         47.7004
 10  1  5  1 13 30.0000000  0  9G22G12G28G15G27G18G26G17G 9
  23705662.6324   23705661.9084   23705664.8294   -4187483.54646  -3093696.46045
       300.9744        234.5264         36.6004         35.0004
  22826952.0144   22826951.8104   22826955.2304  -10932834.38947  -8472902.00347
      3216.4774       2506.3604         45.1004         42.3004
  24048925.8354   24048926.2964   24048927.7614   -2275687.44146  -1756229.29645
     -3072.2434      -2393.9614         38.3004         35.9004
  21798926.3704   21798927.3434   21798929.3724  -13950547.44447 -10848995.64547
     -2729.7774      -2127.1054         47.9004         44.9004
  20839847.9334   20839847.9464   20839852.3774  -20428755.41448 -15473800.55147
       619.7324        482.9104         50.2004         47.2004
  23233121.8704   23233121.1274   23233125.8054   -4878866.38646  -3784933.06846
     -1510.6644      -1177.1344         41.6004         39.0004
  22773170.9714   22773171.1114   22773174.6614   -2618588.08346  -2029765.88346
      3270.2394       2548.2354         41.3004         38.6004
  21977772.2254   21977772.0984   21977775.2834  -14626852.16748 -11376798.33847
       583.6044        454.7604         48.4004         45.6004
  19971861.8014   19971861.2664   19971865.3594  -25796054.70148 -20062385.31447
      1387.0384       1080.8134         50.7004         47.7004
 10  1  5  1 14  0.0000000  0  9G22G12G28G15G27G18G26G17G 9
  23703999.2594   23703997.8014   23703999.0444   -4196235.69746  -3100516.26946
       282.4394        220.0814         37.5004         36.0004
  22808613.2484   22808613.2674   22808617.4694  -11029201.70147  -8547993.41047
      3208.0034       2499.7344         45.1004         42.3004
  24066477.3274   24066476.3984   24066480.0754   -2183462.57946  -1684365.80946
     -3076.1204      -2396.9784         38.3004         36.4004
  21814547.5624   21814547.8544   21814552.0994  -13868458.71247 -10785030.41347
     -2742.8204      -2137.2624         47.9004         45.1004
  20836338.1784   20836337.8394   20836342.2734  -20447200.60548 -15488173.43647
       609.9204        475.2634         50.2004         47.2004
  23241791.1934   23241790.5224   23241794.0874   -4833307.31946  -3749432.53246
     -1526.6714      -1189.6074         41.5004         38.8004
  22754536.0244   22754535.6684   22754539.9084   -2716519.43546  -2106076.07546
      3258.4864       2539.0794         41.3004         39.0004
  21974496.3184   21974496.2864   21974499.7994  -14644066.95648 -11390212.47147
       564.0114        439.4934         48.6004         45.6004
  19963988.3204   19963987.9264   19963991.9044  -25837431.50048 -20094626.97447
      1371.3654       1068.5914         50.8004         47.8004
 10  1  5  1 14 30.0000000  0  9G22G12G28G15G27G18G26G17G 9
  23702438.1834   23702437.5704   23702439.1664   -4204431.27746  -3106902.48945
       263.9974        205.7154         38.0004         35.9004
  22790325.2294   22790325.6504   22790328.0934  -11125312.16547  -8622884.68247
      3199.3714       2493.0094         45.5004         42.8004
  24084048.6724   24084048.0904   24084051.9044   -2091121.03846  -1612411.37045
     -3079.9884      -2399.9884         38.5004         35.9004
  21830242.0474   21830243.0034   21830247.5274  -13785978.89348 -10720760.44747
     -2755.8474      -2147.4114         48.1004         45.1004
  20832883.9034   20832884.1584   20832888.2174  -20465351.30848 -15502316.84547
       600.1154        467.6174         50.2004         47.3004
  23250551.6064   23250551.5054   23250554.4324   -4787271.05946  -3713560.13246
     -1542.4864      -1201.9384         41.5004         38.8004
  22735968.2614   22735967.6624   22735971.6034   -2814097.87546  -2182111.21746
      3246.7434       2529.9284         41.8004         39.3004
  21971332.7264   21971332.3124   21971335.7534  -14660693.18548 -11403167.93947
       544.3744        424.1884         48.6004         45.6004
  19956204.0584   19956203.6544   19956207.6874  -25878336.84948 -20126501.27247
      1355.6274       1056.3284         50.8004         47.8004
 10  1  5  1 15  0.0000000  0  9G22G12G28G15G27G18G26G17G 9
  23700984.0114   23700985.1974   23700986.7214   -4212070.57546  -3112855.19646
       245.3534        191.1854         38.3004         36.2004
  22772083.2064   22772084.8194   22772088.0294  -11221164.22747  -8697574.59347
      3190.7514       2486.2984         45.5004         42.6004
  24101643.1954   24101642.8804   24101643.3004   -1998664.53246  -1540367.36745
     -3083.7814      -2402.9514         38.3004         35.7004
  21846012.6164   21846013.1364   21846015.4494  -13703110.00248 -10656187.29547
     -2768.7534      -2157.4654         48.1004         44.9004
  20829486.4634   20829486.4954   20829490.3714  -20483207.01348 -15516230.38347
       590.2674        459.9434         50.2004         47.3004
  23259401.4204   23259401.1004   23259405.7174   -4740759.89146  -3677317.69946
     -1558.2814      -1214.2524         41.3004         38.5004
  22717465.8324   22717467.2174   22717470.9954   -2911320.62246  -2257869.22346
      3234.8464       2520.6514         41.8004         39.3004
  21968280.0174   21968280.4984   21968284.3374  -14676730.70048 -11415664.69447
       524.7294        408.8754         48.6004         45.8004
  19948509.4304   19948509.5344   19948513.5704  -25918769.13648 -20158006.95647
      1339.8434       1044.0314         50.8004         47.7004
 10  1  5  1 15 30.0000000  0  9G22G12G28G15G27G18G26G17G 9
  23699638.9414   23699636.3964   23699636.3164   -4219153.01446  -3118374.00045
       226.7294        176.6764         37.6004         35.5004
  22753893.4764   22753893.8564   22753897.3554  -11316756.34647  -8772061.94347
      3182.0254       2479.4944         45.5004         42.5004
  24119259.2164   24119258.5164   24119260.4754   -1906094.27146  -1468234.68745
     -3087.5434      -2405.8824         37.8004         35.3004
  21861855.5384   21861855.9184   21861859.3764  -13619854.25348 -10591312.67747
     -2781.6284      -2167.5074         48.1004         45.1004
  20826144.4704   20826144.7804   20826148.9184  -20500767.30548 -15529913.72947
       580.4054        452.2644         50.2004         47.3004
  23268344.0044   23268343.9754   23268345.7694   -4693775.84146  -3640706.75946
     -1574.0184      -1226.5074         40.9004         37.9004
  22699032.3094   22699033.1484   22699037.2854   -3008184.62347  -2333347.69346
      3222.7934       2511.2684         42.0004         39.2004
  21965341.3494   21965341.3504   21965344.7344  -14692178.09848 -11427701.62247
       505.0724        393.5554         48.9004         45.9004
  19940905.9534   19940905.9124   19940909.8754  -25958727.47948 -20189143.32947
      1324.0164       1031.7014         50.7004         47.7004
 10  1  5  1 16  0.0000000  0  9G22G12G28G15G27G18G26G17G 9
  23698394.1384   23698393.9954   23698395.8364   -4225679.41446  -3123459.52345
       208.3184        162.3264         37.3004         35.3004
  22735752.9494   22735754.0394   22735756.5204  -11412087.08147  -8846345.62647
      3173.3154       2472.6974         45.3004         42.6004
  24136894.3204   24136893.5264   24136895.6984   -1813412.21146  -1396014.94745
     -3091.2994      -2408.8014         37.3004         35.3004
  21877772.2574   21877772.2994   21877775.9254  -13536213.55048 -10526138.11747
     -2794.4184      -2177.4654         48.1004         45.1004
  20822859.4324   20822859.4604   20822863.8624  -20518031.27448 -15543366.17147
       570.5244        444.5664         50.2004         47.3004
  23277373.1904   23277373.7504   23277376.6704   -4646320.71646  -3603728.78846
     -1589.6594      -1238.7064         40.6004         37.9004
  22680669.5994   22680669.1524   22680674.3324   -3104687.05346  -2408544.38846
      3210.6924       2501.8434         41.8004         39.3004
  21962513.5014   21962513.6244   21962517.2954  -14707034.96248 -11439278.37947
       485.3544        378.1984         48.8004         45.8004
  19933392.6584   19933392.5374   19933396.4374  -25998210.44448 -20219909.27647
      1308.1494       1019.3384         50.8004         47.8004
 10  1  5  1 16 30.0000000  0  9G22G12G28G15G27G18G26G17G 9
  23697260.0034   23697258.0194   23697259.2144   -4231649.45146  -3128111.53745
       189.6144        147.7544         37.1004         35.0004
  22717662.6764   22717662.4994   22717666.1614  -11507154.80047  -8920424.35947
      3164.5004       2465.8454         45.5004         42.8004
  24154552.0734   24154551.1234   24154553.9434   -1720619.61946  -1323709.03445
     -3094.8724      -2411.5934         37.5004         35.5004
  21893761.4574   21893761.3274   21893764.5364  -13452189.68548 -10460664.99047
     -2807.1404      -2187.3854         48.1004         44.7004
  20819631.0874   20819630.9914   20819634.9724  -20534998.40848 -15556587.32347
       560.6184        436.8404         50.3004         47.5004
  23286493.5634   23286492.9694   23286496.0414   -4598396.63846  -3566385.38446
     -1605.2914      -1250.8744         40.6004         38.3004
  22662376.2214   22662375.6644   22662379.3294   -3200824.88347  -2483456.99546
      3198.5464       2492.3724         42.0004         39.3004
  21959798.6754   21959799.0854   21959802.0544  -14721300.46948 -11450394.34847
       465.6494        362.8364         48.8004         45.6004
  19925969.6624   19925970.0094   19925974.0164  -26037216.89648 -20250303.91348
      1292.2474       1006.9474         50.8004         48.0004
 10  1  5  1 17  0.0000000  0  9G22G12G28G15G27G18G26G17G 9
  23696228.0444   23696228.7904   23696231.3834   -4237063.09846  -3132330.04045
       171.2654        133.4474         37.5004         35.7004
  22699620.9674   22699622.2254   22699625.4884  -11601958.29147  -8994297.21647
      3155.7054       2458.9874         45.6004         42.8004
  24172232.3284   24172230.7174   24172234.8274   -1627718.67046  -1251318.68545
     -3098.5354      -2414.4414         37.8004         35.9004
  21909823.1484   21909823.1444   21909826.1334  -13367784.84047 -10394894.97847
     -2819.8274      -2197.2644         47.7004         44.5004
  20816458.8444   20816458.6414   20816462.7074  -20551668.26848 -15569576.82547
       550.7024        429.1194         50.3004         47.5004
  23295702.9474   23295700.6624   23295706.4154   -4550005.81846  -3528678.25046
     -1620.8164      -1262.9754         41.1004         38.5004
  22644149.6554   22644149.5884   22644156.1684   -3296595.25547  -2558083.27146
      3186.2094       2482.7594         42.2004         39.5004
  21957197.1194   21957197.2524   21957200.8924  -14734974.25148 -11461049.23347
       445.9244        347.4744         48.6004         45.8004
  19918638.8934   19918638.5374   19918642.1484  -26075745.33248 -20280326.07747
      1276.3044        994.5194         50.8004         47.8004
 10  1  5  1 17 30.0000000  0  9G22G12G28G15G27G18G26G17G 9
  23695305.3564   23695304.1694   23695305.3104   -4241920.28546  -3136114.88746
       152.6314        118.9334         38.2004         36.4004
  22681630.5154   22681630.9564   22681635.7654  -11696495.92147  -9067962.90447
      3146.8294       2452.0724         45.6004         42.6004
  24189930.8084   24189930.7194   24189933.8494   -1534710.20046  -1178844.59646
     -3102.0874      -2417.2094         38.3004         36.2004
  21925955.5904   21925956.4634   21925960.8574  -13283000.77647 -10328829.48947
     -2832.4024      -2207.0674         47.7004         44.7004
  20813343.3774   20813343.2884   20813347.3774  -20568040.15748 -15582334.14247
       540.7544        421.3734         50.3004         47.5004
  23304997.9474   23304998.2214   23305002.8444   -4501150.40146  -3490609.14946
     -1636.2044      -1274.9694         41.3004         38.5004
  22625997.0274   22625997.2624   22626001.4174   -3391995.30647  -2632420.96446
      3173.7894       2473.0844         42.3004         39.9004
  21954707.5674   21954708.1974   21954711.4404  -14748055.89948 -11471242.71047
       426.1654        332.0814         48.8004         45.8004
  19911397.8914   19911397.7944   19911401.8044  -26113794.55748 -20309974.82648
      1260.3144        982.0624         51.0004         48.0004
 10  1  5  1 18  0.0000000  0  9G22G12G28G15G27G18G26G17G 9
  23694487.0394   23694485.4324   23694488.5814   -4246221.32646  -3139466.37946
       134.0974        104.4874         38.9004         37.1004
  22663691.9304   22663692.1254   22663696.5864  -11790766.31847  -9141420.32447
      3137.8534       2445.0814         45.6004         42.8004
  24207648.3454   24207648.6624   24207651.3804   -1441596.00946  -1106288.10645
     -3105.5344      -2419.9004         38.0004         35.3004
  21942162.2504   21942162.4814   21942165.8294  -13197839.74647 -10262470.26247
     -2844.9674      -2216.8684         47.5004         44.5004
  20810284.9614   20810284.6164   20810288.5994  -20584113.49348 -15594858.81847
       530.8014        413.6104         50.3004         47.5004
  23314383.1734   23314383.1734   23314386.5554   -4451832.40946  -3452179.52746
     -1651.6214      -1286.9954         41.1004         38.3004
  22607914.1744   22607913.4884   22607918.6464   -3487021.95247  -2706467.70446
      3161.3854       2463.4054         42.5004         39.7004
  21952331.3544   21952331.4264   21952335.1324  -14760544.63448 -11480974.17047
       406.4114        316.6834         48.8004         45.8004
  19904249.0344   19904248.8444   19904252.5774  -26151363.48848 -20339249.31248
      1244.2654        969.5574         51.0004         48.0004
 10  1  5  1 18 30.0000000  0  9G22G12G28G15G27G18G26G17G 9
  23693775.2624   23693774.5394   23693774.0084   -4249966.28646  -3142384.52546
       115.5854         90.0694         39.2004         36.9004
  22645804.6954   22645805.2654   22645808.3354  -11884767.98347  -9214668.37747
      3128.8744       2438.0954         45.6004         42.8004
  24225386.9844   24225387.1824   24225390.9534   -1348378.10746  -1033650.80045
     -3108.9534      -2422.5594         37.5004         35.5004
  21958439.0084   21958439.4234   21958442.5374  -13112303.85447 -10195818.90347
     -2857.4174      -2226.5604         47.4004         44.2004
  20807283.4054   20807282.9824   20807287.0294  -20599887.60048 -15607150.32847
       520.8094        405.8234         50.3004         47.5004
  23323855.0924   23323854.9964   23323859.7324   -4402054.02146  -3413391.23246
     -1666.8884      -1298.8724         40.9004         38.3004
  22589902.8854   22589903.6044   22589907.4104   -3581672.31247  -2780221.23746
      3148.7534       2453.5794         43.0004         40.4004
  21950067.4974   21950068.3494   21950070.7724  -14772440.02148 -11490243.29747
       386.6254        301.2634         48.8004         45.8004
  19897191.9004   19897191.2034   19897194.7894  -26188450.72548 -20368148.46248
      1228.2014        957.0474         51.0004         48.0004
 10  1  5  1 19  0.0000000  0  9G22G12G28G15G27G18G26G17G 9
  23693164.9264   23693164.6794   23693167.8864   -4253155.46846  -3144869.59146
        97.0444         75.6214         39.2004         37.1004
  22627968.1704   22627967.6914   22627971.9384  -11978499.57347  -9287705.97147
      3119.8854       2431.0914         45.8004         43.0004
  24243145.9254   24243146.4324   24243149.2974   -1255057.74246   -960933.65045
     -3112.3054      -2425.1864         37.6004         35.5004
  21974786.8134   21974787.3594   21974790.9164  -13026395.30847 -10128877.18647
     -2869.8114      -2236.2104         47.4004         44.5004
  20804338.5614   20804338.2534   20804342.1094  -20615361.94448 -15619208.26347
       510.8014        398.0304         50.3004         47.3004
  23333417.6554   23333415.4884   23333420.0804   -4351817.57946  -3374245.92346
     -1682.1794      -1310.7894         41.1004         38.6004
  22571965.1544   22571963.5104   22571967.6334   -3675943.53847  -2853679.35846
      3136.0964       2443.7074         43.0004         40.0004
  21947916.6434   21947917.0044   21947920.7034  -14783741.80548 -11499049.86147
       366.8114        285.8204         48.9004         45.9004
  19890225.3284   19890225.5444   19890229.4144  -26225055.37748 -20396671.57548
      1212.0834        944.4814         51.0004         48.0004
 10  1  5  1 19 30.0000000  0  9G22G12G28G15G27G18G26G17G 9
  23692665.5344   23692665.3194   23692667.6654   -4255788.56746  -3146921.37346
        78.4654         61.1444         39.9004         37.9004
  22610182.4514   22610183.1264   22610186.6664  -12071959.53047  -9360531.89547
      3110.7744       2423.9704         46.0004         43.0004
  24260922.6604   24260921.6324   24260926.6814   -1161636.31146   -888137.70345
     -3115.6904      -2427.8004         37.5004         35.3004
  21991205.7054   21991206.1524   21991208.5394  -12940116.47347 -10061646.93147
     -2882.1394      -2245.8144         47.4004         44.2004
  20801451.0834   20801450.6554   20801454.7104  -20630535.88248 -15631032.11347
       500.7614        390.2074         50.3004         47.3004
  23343062.6784   23343063.1114   23343065.5914   -4301125.22146  -3334745.42446
     -1697.3404      -1322.5994         40.8004         37.9004
  22554097.1444   22554096.7704   22554101.9034   -3769832.65147  -2926839.71346
      3123.2594       2433.7014         42.7004         39.9004
  21945878.6394   21945879.4024   21945883.3654  -14794448.78848 -11507392.94647
       346.9654        270.3544         48.8004         45.9004
  19883351.8454   19883351.8484   19883355.8054  -26261176.01948 -20424817.52048
      1195.9404        931.8974         51.0004         48.0004
 10  1  5  1 20  0.0000000  0  9G22G12G28G15G27G18G26G17G 9
  23692270.7364   23692270.1734   23692271.3174   -4257866.20446  -3148540.28946
        60.0184         46.7684         40.8004         38.8004
  22592450.8924   22592450.7734   22592454.5574  -12165146.41647  -9433145.04447
      3101.6554       2416.8764         46.0004         43.2004
  24278721.4514   24278719.8424   24278722.2824   -1068115.78646   -815264.59845
     -3119.0254      -2430.4104         37.6004         35.5004
  22007693.8094   22007694.3214   22007697.2334  -12853468.34047  -9994128.90447
     -2894.4194      -2255.3924         47.2004         44.2004
  20798620.6124   20798620.7024   20798624.8704  -20645408.99148 -15642621.55047
       490.7434        382.3974         50.3004         47.5004
  23352796.4064   23352795.9644   23352797.8334   -4249978.99746  -3294891.25846
     -1712.3844      -1334.3404         40.4004         37.9004
  22536304.6204   22536305.0024   22536307.8754   -3863336.77347  -2999700.06946
      3110.3834       2423.6744         42.7004         40.0004
  21943955.5654   21943955.9744   21943958.3184  -14804561.05448 -11515272.62847
       327.1594        254.9284         48.9004         45.8004
  19876570.9564   19876570.6394   19876574.9174  -26296811.25548 -20452585.24448
      1179.7514        919.2854         51.0004         48.0004
 10  1  5  1 20 30.0000000  0  9G22G12G28G15G27G18G26G17G 9
  23691978.4864   23691979.6514   23691981.4714   -4259388.74346  -3149726.69146
        41.4724         32.3124         41.1004         38.6004
  22574769.6054   22574769.3594   22574773.3154  -12258058.82447  -9505544.31747
      3092.4534       2409.7054         46.0004         43.2004
  24296535.4644   24296533.8894   24296538.3904    -974497.36246   -742315.16345
     -3122.1974      -2432.8794         37.3004         35.3004
  22024252.3224   22024252.1554   22024256.6474  -12766453.43447  -9926325.09247
     -2906.5614      -2264.8424         47.2004         44.4004
  20795847.0644   20795847.2964   20795851.7394  -20659980.57248 -15653976.02747
       480.6874        374.5634         50.3004         47.3004
  23362613.6604   23362613.4594   23362616.5714   -4198381.14846  -3254685.15546
     -1727.4224      -1346.0574         40.6004         37.4004
  22518584.6744   22518584.8814   22518588.4784   -3956452.94547  -3072258.12946
      3097.3634       2413.5344         42.7004         39.9004
  21942144.0284   21942144.1824   21942147.6404  -14814077.93548 -11522688.36547
       307.3104        239.4634         48.8004         45.8004
  19869881.7814   19869881.8454   19869886.1854  -26331960.22548 -20479974.05048
      1163.5034        906.6284         51.0004         48.0004
 10  1  5  1 21  0.0000000  0  9G22G12G28G15G27G18G26G17G 9
  23691798.6934   23691796.7244   23691797.7574   -4260356.26446  -3150480.62646
        23.0204         17.9404         41.3004         38.8004
  22557141.1704   22557141.5044   22557145.7324  -12350695.36747  -9577728.61647
      3083.2824       2402.5534         46.0004         43.2004
  24314369.1644   24314368.7824   24314372.5304    -880782.74246   -669290.82245
     -3125.4334      -2435.4084         37.5004         35.3004
  22040879.5524   22040880.2494   22040884.2464  -12679073.94347  -9858237.19847
     -2918.7134      -2274.3174         47.4004         44.4004
  20793132.0314   20793131.8684   20793136.3184  -20674250.10448 -15665095.14247
       470.6064        366.7074         50.3004         47.3004
  23372518.3224   23372517.7134   23372520.8204   -4146333.84246  -3214128.82746
     -1742.3804      -1357.7034         40.1004         37.6004
  22500938.2514   22500938.8934   22500943.9134   -4049178.39447  -3144511.70446
      3084.3804       2403.4124         42.5004         39.7004
  21940446.8454   21940446.7634   21940449.7354  -14822999.27348 -11529640.03647
       287.4394        223.9764         48.8004         45.9004
  19863285.8814   19863285.8814   19863290.1954  -26366621.53348 -20506982.86048
      1147.2214        893.9394         51.0004         48.0004
 10  1  5  1 21 30.0000000  0  9G22G12G28G15G27G18G26G17G 9
  23691717.2424   23691717.0254   23691719.5344   -4260769.08246  -3150802.31146
         4.5204          3.5044         41.5004         38.8004
  22539565.9864   22539566.6454   22539570.1554  -12443054.64447  -9649696.86047
      3073.9614       2395.3054         46.2004         43.3004
  24332219.0344   24332217.3724   24332224.3484    -786973.33246   -596192.60845
     -3128.4334      -2437.7344         37.3004         35.2004
  22057577.7284   22057577.0534   22057580.9744  -12591331.86447  -9789866.76047
     -2930.7294      -2283.6764         47.4004         44.4004
  20790474.4734   20790474.1274   20790478.7564  -20688216.85248 -15675978.32447
       460.5084        358.8444         50.3004         47.5004
  23382507.8874   23382507.5424   23382509.3994   -4093839.76046  -3173224.34746
     -1757.2164      -1369.2654         40.1004         37.4004
  22483369.1744   22483369.8624   22483372.7614   -4141509.97847  -3216458.42646
      3071.1614       2393.1124         42.2004         39.2004
  21938861.9984   21938862.0764   21938864.7864  -14831324.30448 -11536127.06047
       267.5424        208.4764         48.8004         45.6004
  19856783.6914   19856783.2524   19856787.5164  -26400794.13848 -20533610.86848
      1130.9174        881.2364         51.0004         48.0004
 10  1  5  1 22  0.0000000  0  9G22G12G28G15G27G18G26G17G 9
  23691742.0474   23691743.4144   23691746.4824   -4260627.47346  -3150691.96946
       -14.0304        -10.9314         41.1004         38.3004
  22522043.9554   22522043.5944   22522047.5804  -12535135.14247  -9721447.88247
      3064.6834       2388.0614         46.0004         43.2004
  24350090.8594   24350090.0414   24350092.8844    -693070.90546   -523021.91645
     -3131.6424      -2440.2394         37.1004         35.2004
  22074341.9914   22074342.6944   22074345.5744  -12503229.63447  -9721215.66847
     -2942.7194      -2293.0274         47.2004         44.2004
  20787874.3254   20787873.9884   20787878.5364  -20701880.41148 -15686625.25647
       450.3824        350.9484         50.3004         47.3004
  23392581.5174   23392581.4614   23392584.3344   -4040900.99346  -3131973.38446
     -1772.0264      -1380.7974         40.1004         37.8004
  22465874.7984   22465874.8074   22465879.2574   -4233445.04347  -3288096.14446
      3057.8454       2382.7354         42.2004         39.3004
  21937392.2714   21937392.2014   21937394.4754  -14839052.91748 -11542149.32847
       247.6894        192.9964         48.8004         45.9004
  19850374.5694   19850373.7314   19850377.6294  -26434476.88948 -20559857.17248
      1114.5724        868.4994         51.0004         48.0004
 10  1  5  1 22 30.0000000  0  9G22G12G28G15G27G18G26G17G 9
  23691878.6924   23691878.3024   23691878.9334   -4259931.53346  -3150149.70646
       -32.3764        -25.2304         40.8004         37.9004
  22504574.8854   22504574.5644   22504578.3134  -12626935.67247  -9792980.74647
      3055.3314       2380.7824         46.2004         43.3004
  24367977.5734   24367975.9454   24367977.4564    -599076.77546   -449779.73645
     -3134.6564      -2442.5914         37.1004         35.0004
  22091175.7154   22091176.0974   22091179.7884  -12414769.20347  -9652285.46647
     -2954.6314      -2302.3084         47.4004         44.5004
  20785331.9784   20785331.6144   20785336.1284  -20715240.03948 -15697035.35447
       440.2484        343.0554         50.3004         47.3004
  23402739.1474   23402740.0084   23402742.8924   -3987519.97146  -3090377.82646
     -1786.7354      -1392.2664         40.6004         38.3004
  22448455.6224   22448455.8874   22448460.4364   -4324980.59447  -3359422.54146
      3044.4644       2372.3164         42.2004         39.7004
  21936034.7904   21936034.8564   21936038.2634  -14846184.74548 -11547706.57647
       227.7624        177.4794         48.9004         46.1004
  19844058.1854   19844057.6784   19844061.2234  -26467668.57348 -20585720.81848
      1098.1794        855.7284         51.0004         48.0004
 10  1  5  1 23  0.0000000  0  9G22G12G28G15G27G18G26G17G 9
  23692114.0564   23692113.7424   23692116.5364   -4258681.83746  -3149175.94146
       -50.9104        -39.6774         40.1004         37.6004
  22487159.0374   22487159.3744   22487163.6494  -12718454.57747  -9864294.16447
      3045.9234       2373.4454         46.5004         43.7004
  24385879.7924   24385880.1704   24385879.8664    -504992.65146   -376467.43045
     -3137.6494      -2444.9194         37.1004         35.2004
  22108077.8674   22108077.3764   22108079.9574  -12325952.53047  -9583077.66747
     -2966.4584      -2311.5204         47.4004         44.4004
  20782847.2164   20782847.4274   20782852.1124  -20728295.34848 -15707208.31947
       430.0854        335.1354         50.3004         47.5004
  23412981.3654   23412981.0384   23412985.4614   -3933698.55946  -3048439.11046
     -1801.3304      -1403.6384         40.4004         37.8004
  22431112.7814   22431112.9664   22431118.0514   -4416113.72847  -3430435.34746
      3031.0614       2361.8634         42.0004         39.3004
  21934790.9594   21934791.1344   21934794.0864  -14852719.52848 -11552798.59947
       207.8634        161.9754         48.8004         45.8004
  19837834.9514   19837835.0064   19837838.9864  -26500367.78048 -20611200.72148
      1081.7604        842.9294         51.0004         48.0004
 10  1  5  1 23 30.0000000  0  9G22G12G28G15G27G18G26G17G 9
  23692457.6924   23692456.3944   23692460.3324   -4256878.29046  -3147770.59646
       -69.3204        -54.0174         40.1004         37.8004
  22469797.5544   22469798.0164   22469801.1824  -12809690.77847  -9935387.30547
      3036.4454       2366.0724         46.5004         43.5004
  24403799.5654   24403798.8024   24403801.1644    -410819.89746   -303086.05145
     -3140.5854      -2447.2134         37.0004         34.8004
  22125045.8044   22125046.0184   22125048.5134  -12236781.99947  -9513594.15547
     -2978.2264      -2320.7044         47.4004         44.4004
  20780421.4494   20780421.4174   20780425.6394  -20741045.65648 -15717143.63247
       419.9224        327.2114         50.5004         47.5004
  23423307.7374   23423307.0904   23423309.4474   -3879439.21446  -3006159.10446
     -1815.9224      -1415.0064         40.3004         37.6004
  22413848.8654   22413848.3754   22413851.7774   -4506841.32747  -3501132.20846
      3017.5344       2351.3254         42.0004         39.2004
  21933661.6654   21933661.5104   21933663.9874  -14858656.74548 -11557424.98747
       187.9654        146.4644         48.9004         45.9004
  19831706.2544   19831706.3574   19831710.5974  -26532573.69448 -20636296.24148
      1065.2904        830.0964         51.0004         48.0004
 10  1  5  1 24  0.0000000  0  9G22G12G28G15G27G18G26G17G 9
  23692906.0164   23692904.2424   23692909.8104   -4254521.97446  -3145934.50246
       -87.8214        -68.4274         40.3004         37.8004
  22452491.5464   22452490.7354   22452493.0524  -12900642.62847 -10006258.88247
      3026.9794       2358.6834         46.5004         43.5004
  24421736.7834   24421735.4684   24421737.3084    -316560.11146   -229636.87545
     -3143.4194      -2449.4094         36.6004         34.8004
  22142080.6434   22142081.2274   22142085.3174  -12147259.49847  -9443836.37147
     -2989.9514      -2329.8314         47.4004         44.5004
  20778053.7324   20778053.4364   20778057.3764  -20753490.45448 -15726840.87347
       409.7174        319.2614         50.5004         47.7004
  23433714.3894   23433713.7184   23433718.3284   -3824744.35246  -2963539.78146
     -1830.3904      -1426.2764         40.3004         37.8004
  22396661.9954   22396661.3234   22396666.3674   -4597160.57447  -3571510.83546
      3003.8294       2340.6394         42.3004         40.0004
  21932644.1174   21932645.0064   21932647.8684  -14863996.54348 -11561585.84947
       168.0284        130.9314         48.8004         45.8004
  19825672.3614   19825672.0174   19825676.1694  -26564285.39148 -20661006.65148
      1048.8064        817.2534         51.0004         48.2004
 10  1  5  1 24 30.0000000  0  9G22G12G28G15G27G18G26G17G 9
  23693459.9314   23693458.6694   23693461.3894   -4251612.78546  -3143667.68446
      -106.1564        -82.7194         40.4004         37.9004
  22435236.7114   22435237.2054   22435240.8734  -12991308.81047 -10076907.84847
      3017.3444       2351.1864         46.5004         43.9004
  24439688.7524   24439690.3334   24439692.7764    -222214.70246   -156120.95545
     -3146.2684      -2451.6434         37.1004         35.2004
  22159183.0474   22159182.8414   22159187.4714  -12057387.19847  -9373806.01847
     -3001.5784      -2338.8744         47.5004         44.4004
  20775743.6424   20775743.4324   20775747.6554  -20765629.06948 -15736299.53647
       399.5134        311.3104         50.5004         47.7004
  23444205.8894   23444206.3404   23444209.1884   -3769616.29146  -2920582.85546
     -1844.7934      -1437.5024         40.6004         38.3004
  22379552.0174   22379552.4244   22379557.5254   -4687068.69847  -3641569.10846
      2990.0954       2329.9404         42.9004         40.0004
  21931743.2144   21931742.9594   21931745.9924  -14868738.37448 -11565280.76247
       148.0944        115.3954         48.8004         45.8004
  19819732.2114   19819731.7774   19819735.8674  -26595501.37548 -20685330.79548
      1032.2664        804.3654         51.2004         48.2004
 10  1  5  1 25  0.0000000  0  9G22G12G28G15G27G18G26G17G 9
  23694119.7544   23694118.5224   23694118.8734   -4248151.51246  -3140970.57546
      -124.6054        -97.0974         40.4004         37.9004
  22418038.5054   22418038.5954   22418041.5904  -13081687.88147 -10147333.09647
      3007.8274       2343.7624         46.7004         43.7004
  24457660.4104   24457659.0754   24457662.2034    -127785.23646    -82539.62645
     -3149.0384      -2453.7924         37.1004         35.2004
  22176351.9374   22176352.3804   22176355.6004  -11967167.68547  -9303505.10347
     -3013.0814      -2347.8554         47.5004         44.7004
  20773492.3314   20773491.9154   20773496.2884  -20777460.93248 -15745519.17047
       389.2714        303.3304         50.5004         47.7004
  23454777.0814   23454776.5164   23454780.4064   -3714057.26146  -2877290.17946
     -1859.1144      -1448.6614         40.6004         37.8004
  22362521.4994   22362521.7524   22362524.9064   -4776562.87447  -3711304.84546
      2976.2254       2319.1384         42.3004         39.5004
  21930953.8584   21930954.3654   21930957.0334  -14872882.07748 -11568509.61547
       128.1364         99.8444         48.9004         45.9004
  19813886.9274   19813886.1014   19813890.2404  -26626220.58348 -20709267.83648
      1015.6874        791.4474         51.2004         48.2004
 10  1  5  1 25 30.0000000  0  9G22G12G28G15G27G18G26G17G 9
  23694879.9844   23694880.3574   23694885.1274   -4244138.62246  -3137843.62246
      -142.9734       -111.4064         40.4004         37.9004
  22400894.8134   22400894.7644   22400898.3064  -13171778.76647 -10217533.79147
      2998.1304       2336.2104         46.5004         43.7004
  24475645.0964   24475645.5404   24475648.9254     -33273.23746     -8893.95645
     -3151.7144      -2455.8824         37.1004         35.0004
  22193585.6024   22193585.6084   22193588.5964  -11876602.77747  -9232935.05047
     -3024.5774      -2356.8154         47.5004         44.4004
  20771299.3404   20771298.9034   20771303.1204  -20788985.46948 -15754499.32547
       379.0064        295.3304         50.5004         47.7004
  23465432.0444   23465431.1344   23465434.2624   -3658070.05846  -2833663.81746
     -1873.3234      -1459.7194         39.9004         37.1004
  22345571.1584   22345572.0534   22345576.2914   -4865639.99647  -3780715.58346
      2962.2734       2308.2674         42.9004         40.4004
  21930279.8494   21930279.5374   21930282.6914  -14876427.48948 -11571272.25547
       108.1934         84.2984         48.9004         45.9004
  19808135.5434   19808135.4404   19808139.1574  -26656442.10848 -20732817.07748
       999.0804        778.5004         51.2004         48.4004
 10  1  5  1 26  0.0000000  0  9G22G12G28G15G27G18G26G17G 9
  23695751.9394   23695751.3434   23695752.6694   -4239574.31646  -3134287.02646
      -161.3104       -125.6954         40.8004         38.3004
  22383805.1924   22383805.7924   22383809.2924  -13261579.83047 -10287508.64847
      2988.4914       2328.6964         46.5004         43.5004
  24493644.4944   24493644.1844   24493642.7644      61319.46946     64814.55045
     -3154.3124      -2457.9044         36.3004         34.0004
  22210885.4044   22210885.6524   22210888.6114  -11785694.46947  -9162097.41547
     -3035.9734      -2365.6844         47.5004         44.5004
  20769164.9734   20769164.8244   20769168.4524  -20800202.09048 -15763239.55647
       368.7374        287.3304         50.7004         47.7004
  23476166.7184   23476165.6494   23476169.8004   -3601656.63946  -2789705.32246
     -1887.5424      -1470.8154         39.7004         37.1004
  22328701.4314   22328700.8744   22328704.9534   -4954297.38547  -3849799.25946
      2948.2334       2297.3244         43.4004         40.7004
  21929717.7584   21929718.6214   21929722.0054  -14879374.50348 -11573568.62147
        88.2514         68.7744         48.9004         46.1004
  19802479.4744   19802479.3044   19802483.2184  -26686164.50648 -20755977.39148
       982.4064        765.5144         51.2004         48.2004
 10  1  5  1 26 30.0000000  0  9G22G12G28G15G27G18G26G17G 9
  23696725.5744   23696724.4504   23696726.2524   -4234458.93946  -3130300.99546
      -179.6434       -139.9834         40.6004         38.1004
  22366772.6564   22366772.9114   22366776.8694  -13351089.39547 -10357256.35247
      2978.8254       2321.1674         46.7004         43.7004
  24511663.3434   24511661.9714   24511662.6804     155992.13746    138585.40245
     -3157.0674      -2460.0494         36.3004         34.6004
  22228248.7094   22228249.6944   22228252.3864  -11694445.10247  -9090994.01947
     -3047.2754      -2374.4974         47.4004         44.2004
  20767089.0604   20767088.7874   20767092.8144  -20811110.17548 -15771739.36347
       358.4674        279.3254         50.7004         47.7004
  23486984.4274   23486983.1014   23486985.9474   -3544819.56346  -2745416.69846
     -1901.5974      -1481.7684         40.3004         37.9004
  22311911.1284   22311910.6834   22311915.0324   -5042532.05547  -3918553.55546
      2934.1014       2286.3034         43.6004         40.7004
  21929271.8224   21929271.6324   21929274.7264  -14881722.67448 -11575398.34447
        68.3034         53.2244         48.9004         45.9004
  19796918.6054   19796918.3834   19796922.4014  -26715386.87948 -20778748.07148
       965.7184        752.5104         51.2004         48.2004
 10  1  5  1 27  0.0000000  0  9G22G12G28G15G27G18G26G17G 9
  23697803.4004   23697802.6944   23697802.9604   -4228793.23546  -3125886.20646
      -198.0064       -154.2824         40.6004         37.9004
  22349795.1054   22349795.5074   22349799.4304  -13440306.55447 -10426776.20547
      2969.0084       2313.5124         46.5004         43.7004
  24529691.2484   24529690.0634   24529696.8224     250742.97446    212417.23745
     -3159.6194      -2462.0354         36.4004         34.6004
  22245677.5244   22245677.8284   22245681.7054  -11602857.16347  -9019626.81047
     -3058.5264      -2383.2704         47.4004         44.2004
  20765072.0294   20765071.9164   20765075.7034  -20821709.26048 -15779998.39647
       348.1344        271.2764         50.5004         47.7004
  23497879.5914   23497879.0514   23497881.7074   -3487561.05946  -2700799.67146
     -1915.5734      -1492.6624         40.4004         37.9004
  22295202.4094   22295200.9154   22295205.2084   -5130341.16847  -3986976.22146
      2919.8514       2275.2084         43.9004         41.2004
  21928938.3454   21928938.3074   21928942.0904  -14883472.12948 -11576761.53747
        48.3524         37.6724         48.8004         45.8004
  19791452.3134   19791452.5604   19791456.9994  -26744108.19748 -20801128.31948
       948.9944        739.4724         51.2004         48.2004
 10  1  5  1 27 30.0000000  0  9G22G12G28G15G27G18G26G17G 9
  23698983.6694   23698983.6804   23698987.5134   -4222577.82546  -3121042.97446
      -216.3334       -168.5674         40.1004         37.3004
  22332873.6884   22332874.0854   22332877.6984  -13529230.04747 -10496067.24747
      2959.2054       2305.8814         46.7004         43.9004
  24547735.0624   24547735.2624   24547735.6844     345570.64346    286308.94145
     -3162.1794      -2464.0364         36.3004         34.3004
  22263169.8124   22263170.8834   22263174.5464  -11510932.37647  -8947997.11247
     -3069.7394      -2392.0054         47.2004         44.4004
  20763114.2374   20763113.5754   20763117.7314  -20831998.84448 -15788016.25447
       337.8124        263.2314         50.5004         47.7004
  23508856.4384   23508853.4474   23508858.2144   -3429883.51646  -2655856.14846
     -1929.5404      -1503.5494         40.4004         37.8004
  22278574.8054   22278573.3844   22278576.4534   -5217721.69347  -4055064.95646
      2905.5284       2264.0394         43.9004         41.2004
  21928719.5534   21928719.4564   21928723.0874  -14884622.72648 -11577658.09847
        28.3684         22.1054         48.9004         45.8004
  19786083.3964   19786083.0394   19786087.2334  -26772327.50348 -20823117.39648
       932.2664        726.4394         51.2004         48.4004
 10  1  5  1 28  0.0000000  0  9G22G12G28G15G27G18G26G17G 9
  23700272.2824   23700273.0084   23700273.3294   -4215813.28846  -3115771.94646
      -234.6354       -182.8324         39.7004         37.4004
  22316008.4894   22316008.0554   22316012.1034  -13617858.45947 -10565128.33147
      2949.3524       2298.1844         46.7004         43.9004
  24565794.3474   24565796.1034   24565800.4324     440473.36546    360259.12745
     -3164.5984      -2465.9274         36.3004         34.5004
  22280727.2154   22280726.6914   22280730.3464  -11418673.09147  -8876106.78447
     -3080.8574      -2400.6564         47.2004         44.0004
  20761214.5074   20761214.6904   20761218.9074  -20841978.12348 -15795792.31747
       327.4504        255.1534         50.5004         47.7004
  23519910.4984   23519910.4364   23519913.5434   -3371789.73046  -2610588.28146
     -1943.3914      -1514.3254         40.1004         37.4004
  22262026.8034   22262027.8224   22262032.2234   -5304670.89747  -4122817.55746
      2891.0824       2252.7974         44.4004         41.8004
  21928614.1594   21928614.2864   21928617.6414  -14885174.54348 -11578088.07147
         8.4084          6.5524         48.8004         45.8004
  19780808.5524   19780808.5094   19780812.9664  -26800043.50748 -20844714.27448
       915.4364        713.3264         51.2004         48.4004
 10  1  5  1 28 30.0000000  0  9G22G12G28G15G27G18G26G17G 9
  23701663.5054   23701663.7654   23701666.4064   -4208500.06446  -3110073.29146
      -252.8634       -197.0394         39.7004         37.1004
  22299199.3474   22299200.0084   22299203.2654  -13706190.36347 -10633958.38747
      2939.4454       2290.4674         47.0004         44.0004
  24583869.3664   24583869.9674   24583872.1304     535449.88246    434266.79945
     -3167.0754      -2467.8534         36.6004         34.6004
  22298346.6864   22298346.4364   22298349.3864  -11326081.25947  -8803957.31847
     -3091.8994      -2409.2704         47.0004         44.0004
  20759375.1714   20759374.6394   20759379.0314  -20851646.64548 -15803326.23147
       317.1094        247.0964         50.5004         47.7004
  23531045.6334   23531043.1624   23531046.0134   -3313281.74646  -2564997.66246
     -1957.2064      -1525.0944         39.6004         36.7004
  22245563.1754   22245563.2334   22245567.7024   -5391185.93347  -4190231.86446
      2876.5784       2241.4884         44.4004         41.4004
  21928624.4054   21928624.3104   21928626.2944  -14885127.30148 -11578051.24747
       -11.5574         -9.0054         48.9004         45.9004
  19775630.6364   19775630.2774   19775634.7294  -26827254.90948 -20865917.96748
       898.6284        700.2284         51.2004         48.2004
 10  1  5  1 29  0.0000000  0  9G22G12G28G15G27G18G26G17G 9
  23703161.0754   23703160.9324   23703159.7914   -4200638.72946  -3103947.62846
      -271.1834       -211.3124         39.4004         36.7004
  22282447.6394   22282447.2804   22282450.2394  -13794224.42447 -10702556.33347
      2929.4754       2282.7014         46.9004         43.9004
  24601954.7334   24601955.6394   24601958.7114     630498.50246    508330.64745
     -3169.4224      -2469.6804         36.4004         34.3004
  22316029.3564   22316029.1574   22316032.9624  -11233159.44247  -8731550.72047
     -3102.8724      -2417.8354         47.2004         44.2004
  20757594.2174   20757594.2834   20757598.1784  -20861003.87848 -15810617.58547
       306.7044        238.9874         50.5004         47.7004
  23542253.1054   23542253.5434   23542258.0924   -3254362.34446  -2519086.44646
     -1970.7434      -1535.6294         39.4004         36.7004
  22229183.9604   22229183.9224   22229188.2574   -5477263.85447  -4257305.59646
      2861.9414       2230.0854         44.4004         41.8004
  21928746.1394   21928746.2664   21928750.2934  -14884481.25148 -11577547.82347
       -31.5374        -24.5764         48.9004         45.8004
  19770548.5474   19770548.3234   19770552.7634  -26853961.20948 -20886728.07148
       881.7794        687.1014         51.2004         48.4004
 10  1  5  1 29 30.0000000  0  9G22G12G28G15G27G18G26G17G 9
  23704758.6674   23704759.4034   23704762.7304   -4192230.25846  -3097395.53446
      -289.4284       -225.5354         38.7004         36.2004
  22265752.2094   22265752.6494   22265754.7764  -13881959.16047 -10770921.07847
      2919.4914       2274.9314         46.9004         44.0004
  24620056.9884   24620055.3654   24620059.3304     725618.13445    582449.78345
     -3171.8344      -2471.5574         35.9004         34.0004
  22333773.1844   22333773.7714   22333778.0444  -11139910.15047  -8658888.94547
     -3113.7614      -2426.3114         47.0004         43.9004
  20755872.5854   20755872.8994   20755877.2664  -20870049.28448 -15817665.95247
       296.3034        230.8814         50.5004         47.7004
  23553545.2354   23553545.0044   23553550.0004   -3195034.12846  -2472856.66546
     -1984.3784      -1546.2724         39.7004         37.8004
  22212886.0864   22212886.8384   22212891.3544   -5562901.90447  -4324036.50546
      2847.1944       2218.6064         44.4004         41.4004
  21928983.2234   21928984.1054   21928986.4104  -14883236.02648 -11576577.50047
       -51.5004        -40.1364         48.8004         45.8004
  19765562.8674   19765562.8244   19765567.2264  -26880161.25948 -20907143.69148
       864.8704        673.9244         51.4004         48.4004
 10  1  5  1 30  0.0000000  0  9G22G12G28G15G27G18G26G17G 9
  23706465.5594   23706465.5964   23706466.1054   -4183275.00146  -3090417.45446
      -307.6164       -239.7014         38.9004         36.9004
  22249113.2644   22249113.2514   22249117.4314  -13969393.60247 -10839051.79247
      2909.4704       2267.1124         46.9004         43.9004
  24638170.7574   24638169.2214   24638172.1184     820807.12945    656622.99745
     -3174.0364      -2473.2734         35.2004         33.4004
  22351580.9134   22351581.2704   22351584.4414  -11046335.31747  -8585973.49747
     -3124.5764      -2434.7334         46.9004         44.0004
  20754211.3784   20754210.9694   20754215.3114  -20878782.32448 -15824470.92447
       285.8844        222.7634         50.5004         47.7004
  23564914.2674   23564913.1584   23564913.7214   -3135299.43246  -2426310.18346
     -1997.8814      -1556.7914         40.1004         37.6004
  22196677.1614   22196675.9394   22196678.8134   -5648097.28047  -4390422.55446
      2832.4284       2207.0904         44.2004         41.4004
  21929334.8264   21929334.6864   21929338.0944  -14881391.91648 -11575140.51847
       -71.4534        -55.6834         48.9004         45.9004
  19760673.9044   19760673.7054   19760677.9584  -26905854.15548 -20927164.13848
       847.9414        660.7324         51.4004         48.4004
 10  1  5  1 30 30.0000000  0  9G22G12G28G15G27G18G26G17G 9
  23708274.9954   23708273.2814   23708274.9714   -4173773.48346  -3083013.66646
      -325.8104       -253.8774         39.0004         36.7004
  22232534.6754   22232533.6854   22232536.1294  -14056526.39447 -10906947.48047
      2899.3794       2259.2514         47.0004         44.2004
  24656295.0224   24656297.0284   24656300.7824     916063.95545    730849.07245
     -3176.2884      -2475.0314         35.2004         33.8004
  22369449.6424   22369448.9624   22369452.1134  -10952436.99947  -8512805.97847
     -3135.3534      -2443.1484         46.9004         43.9004
  20752609.3794   20752608.8034   20752612.7804  -20887202.23448 -15831031.89347
       275.4294        214.6194         50.5004         47.7004
  23576356.5124   23576356.0224   23576358.5634   -3075160.49746  -2379448.71346
     -2011.3334      -1567.2804         40.3004         37.6004
  22180547.0334   22180546.9114   22180552.1864   -5732846.87747  -4456461.17946
      2817.5014       2195.4484         44.2004         41.4004
  21929799.2574   21929799.3474   21929803.1644  -14878948.73048 -11573236.72247
       -91.4534        -71.2654         48.9004         45.9004
  19755881.2784   19755880.9324   19755885.2434  -26931038.46548 -20946788.28048
       830.9934        647.5274         51.2004         48.4004
 10  1  5  1 31  0.0000000  0  9G22G12G28G15G27G18G26G17G 9
  23710184.1324   23710185.7544   23710186.0904   -4163726.65246  -3075184.93946
      -343.9334       -268.0024         39.2004         37.1004
  22216010.4414   22216009.7774   22216013.1854  -14143355.92647 -10974606.85147
      2889.2614       2251.3724         47.2004         44.4004
  24674435.7374   24674435.7794   24674440.8924    1011387.45345    805127.09745
     -3178.5484      -2476.7974         35.2004         33.8004
  22387379.0144   22387378.5144   22387381.8074  -10858217.02247  -8439387.84347
     -3146.0114      -2451.4424         46.9004         43.9004
  20751066.5514   20751066.1644   20751070.2804  -20895308.60748 -15837348.55147
       264.9724        206.4694         50.5004         47.7004
  23587877.5704   23587876.4944   23587880.1004   -3014620.37046  -2332274.60246
     -2024.6834      -1577.6684         40.1004         37.6004
  22164508.6394   22164506.4314   22164510.1244   -5817148.01847  -4522150.39347
      2802.5044       2183.7734         44.6004         42.1004
  21930378.1734   21930378.4784   21930381.7004  -14875906.71548 -11570866.31447
      -111.3884        -86.8004         48.8004         45.9004
  19751185.6024   19751185.5494   19751190.0924  -26955713.22848 -20966015.36748
       814.0024        634.2864         51.2004         48.4004
 10  1  5  1 31 30.0000000  0  9G22G12G28G15G27G18G26G17G 9
  23712200.7164   23712199.2424   23712201.4044   -4153135.04146  -3066931.76946
      -362.1204       -282.1724         39.4004         36.9004
  22199544.7094   22199544.7664   22199547.8434  -14229881.08947 -11042029.04247
      2879.0774       2243.4404         47.4004         44.5004
  24692588.9154   24692587.6514   24692593.5304    1106776.14245    879455.94245
     -3180.7284      -2478.4874         35.2004         34.0004
  22405368.8414   22405368.7134   22405371.4524  -10763678.32147  -8365721.32747
     -3156.5734      -2459.6714         46.7004         43.7004
  20749583.3624   20749583.1854   20749587.8524  -20903100.75648 -15843420.35947
       254.4834        198.2994         50.5004         47.7004
  23599472.6464   23599472.1124   23599475.3074   -2953681.08446  -2284789.49946
     -2037.9044      -1587.9884         40.1004         37.4004
  22148550.2084   22148549.7884   22148554.9444   -5900997.82347  -4587487.89046
      2787.4634       2172.0444         44.8004         41.9004
  21931071.2614   21931071.4384   21931074.8684  -14872265.91648 -11568029.29947
      -131.3564       -102.3534         48.9004         45.9004
  19746587.7864   19746587.5954   19746591.4174  -26979877.63948 -20984844.77748
       796.9604        621.0094         51.4004         48.4004
 10  1  5  1 32  0.0000000  0  9G22G12G28G15G27G18G26G17G 9
  23714318.8374   23714318.4454   23714318.9974   -4141999.74046  -3058254.89446
      -380.2134       -296.2734         39.2004         36.6004
  22183138.9424   22183138.0824   22183141.0514  -14316100.38147 -11109212.91147
      2868.8774       2235.4954         47.7004         44.9004
  24710752.0984   24710751.8374   24710759.3344    1202228.49845    953834.40145
     -3182.7594      -2480.0784         35.4004         33.6004
  22423418.1014   22423418.4614   22423422.3494  -10668823.00447  -8291808.11247
     -3167.0874      -2467.8564         46.7004         43.7004
  20748160.7774   20748160.4574   20748164.7294  -20910578.07948 -15849246.84747
       243.9894        190.1264         50.7004         47.8004
  23611145.2544   23611144.7354   23611148.7504   -2892345.33546  -2236995.42046
     -2051.1344      -1598.2884         40.1004         37.8004
  22132680.3234   22132680.6094   22132683.7524   -5984393.38047  -4652471.42846
      2772.2924       2160.2344         44.6004         41.8004
  21931877.7374   21931877.4074   21931881.4844  -14868026.43748 -11564725.80747
      -151.3124       -117.9004         48.8004         45.8004
  19742086.8254   19742086.3304   19742090.2774  -27003530.86848 -21003275.86548
       779.9074        607.7194         51.4004         48.4004
 10  1  5  1 32 30.0000000  0  9G22G12G28G15G27G18G26G17G 9
  23716541.8194   23716541.2564   23716542.4934   -4130321.00646  -3049154.62946
      -398.3594       -310.4064         39.2004         36.9004
  22166787.3214   22166788.7054   22166792.5514  -14402012.63847 -11176157.51347
      2858.6134       2227.4854         47.5004         44.7004
  24728927.2974   24728925.2304   24728933.8644    1297743.29945   1028261.48345
     -3184.8564      -2481.7104         35.0004         33.3004
  22441529.2134   22441529.2334   22441532.6424  -10573653.27347  -8217649.90247
     -3177.5534      -2476.0214         46.7004         43.7004
  20746797.6614   20746797.5544   20746801.7234  -20917740.10948 -15854827.65247
       233.4704        181.9244         50.7004         47.7004
  23622891.2754   23622889.5844   23622894.5524   -2830615.59046  -2188894.35346
     -2064.2094      -1608.4684         39.9004         37.1004
  22116898.1004   22116898.1954   22116901.8544   -6067331.90947  -4717098.86547
      2757.0284       2148.3424         44.8004         42.1004
  21932797.1644   21932798.2364   21932801.6274  -14863188.45548 -11560955.93447
      -171.2184       -133.4234         48.8004         45.8004
  19737683.0064   19737682.9154   19737686.9214  -27026671.69848 -21021307.68648
       762.7974        594.3854         51.4004         48.4004
 10  1  5  1 33  0.0000000  0  9G22G12G28G15G27G18G26G17G 9
  23718864.9334   23718865.9234   23718869.2864   -4118099.98546  -3039631.79546
      -416.3604       -324.4424         39.6004         37.3004
  22150499.6314   22150499.5634   22150502.1784  -14487616.66547 -11242861.93747
      2848.3314       2219.4834         47.5004         44.7004
  24747112.9794   24747114.1314   24747121.7824    1393318.99345   1102736.02345
     -3186.7934      -2483.2084         34.3004         32.6004
  22459698.3064   22459698.6064   22459702.0624  -10478171.53247  -8143248.56147
     -3187.8964      -2484.0734         46.5004         43.5004
  20745495.2524   20745494.7344   20745499.2704  -20924586.20848 -15860162.28147
       222.9254        173.7094         50.7004         47.7004
  23634713.4234   23634713.5654   23634716.5754   -2768494.24146  -2140488.17546
     -2077.2264      -1618.6064         39.6004         37.1004
  22101203.1184   22101202.3044   22101206.0684   -6149810.87847  -4781368.19446
      2741.6434       2136.3534         44.9004         41.9004
  21933834.0234   21933833.1014   21933836.2094  -14857752.27648 -11556719.93147
      -191.1864       -148.9724         48.8004         45.8004
  19733377.2904   19733377.1494   19733381.0344  -27049299.12948 -21038939.44948
       745.6804        581.0524         51.4004         48.5004
 10  1  5  1 33 30.0000000  0  9G22G12G28G15G27G18G26G17G 9
  23721297.2134   23721295.1454   23721296.5514   -4105337.50846  -3029687.03146
      -434.5104       -338.5754         39.4004         36.9004
  22134267.6384   22134267.4334   22134271.3984  -14572911.47747 -11309325.41647
      2837.9734       2211.4034         47.5004         44.7004
  24765315.7534   24765315.2424   24765317.9844    1488954.36945   1177257.07045
     -3188.8574      -2484.8254         34.0004         32.7004
  22477925.4754   22477927.0454   22477930.8174  -10382379.74347  -8068605.64047
     -3198.2154      -2492.1204         46.5004         43.7004
  20744251.6354   20744251.8244   20744256.6944  -20931115.96448 -15865250.40447
       212.3714        165.4814         50.7004         47.8004
  23646608.1614   23646608.8694   23646611.2424   -2705984.29446  -2091779.13846
     -2090.1324      -1628.6774         39.6004         37.1004
  22085595.7764   22085595.6304   22085599.3754   -6231827.21747  -4845277.03946
      2726.1664       2124.2894         44.9004         41.9004
  21934980.9644   21934981.5764   21934984.4674  -14851717.68348 -11552017.64747
      -211.1454       -164.5374         48.8004         45.8004
  19729169.0014   19729168.9544   19729173.0604  -27071412.59748 -21056170.72648
       728.5124        567.6704         51.4004         48.4004
 10  1  5  1 34  0.0000000  0  9G22G12G28G15G27G18G26G17G 9
  23723826.4694   23723826.2124   23723828.0194   -4092034.11446  -3019320.76746
      -452.4704       -352.5694         39.0004         36.7004
  22118096.6714   22118096.8364   22118099.7994  -14657895.56347 -11375546.77247
      2827.5984       2203.3294         47.7004         44.9004
  24783524.4804   24783522.9484   24783527.3154    1584647.74045   1251823.30445
     -3190.5764      -2486.1644         33.8004         32.7004
  22496214.1994   22496214.5534   22496217.6464  -10286280.41247  -7993723.05447
     -3208.4444      -2500.0804         46.5004         43.7004
  20743069.6904   20743069.8904   20743074.2134  -20937328.75848 -15870091.54647
       201.7894        157.2414         50.7004         47.8004
  23658576.6974   23658577.6214   23658580.3864   -2643088.25346  -2042769.33246
     -2102.9374      -1638.6564         39.6004         36.7004
  22070076.8274   22070077.2404   22070080.7454   -6313377.98247  -4908823.07747
      2710.5804       2112.1534         45.1004         42.5004
  21936243.6184   21936243.7974   21936246.5794  -14845085.03748 -11546849.33347
      -231.0384       -180.0264         48.9004         45.9004
  19725058.8624   19725058.8784   19725062.9754  -27093010.83248 -21073000.51948
       711.3194        554.2794         51.4004         48.4004
 10  1  5  1 34 30.0000000  0  9G22G12G28G15G27G18G26G17G 9
  23726460.8874   23726459.8154   23726463.4544   -4078190.81346  -3008533.83246
      -470.4394       -366.5724         39.4004         37.1004
  22101983.4064   22101983.6524   22101986.7884  -14742567.45447 -11441524.83247
      2817.1834       2195.2014         47.9004         44.9004
  24801746.5024   24801745.2204   24801744.7474    1680397.89545   1326433.76545
     -3192.5434      -2487.6944         34.0004         32.9004
  22514559.6554   22514559.3154   22514563.1534  -10189875.79047  -7918602.58947
     -3218.5674      -2507.9744         46.3004         43.2004
  20741948.5164   20741948.2374   20741952.2924  -20943223.91748 -15874685.18547
       191.2054        148.9884         50.7004         47.8004
  23670618.3494   23670617.3414   23670620.9254   -2579808.59946  -1993460.54946
     -2115.7134      -1648.6054         39.0004         36.4004
  22054647.8254   22054647.5614   22054650.8454   -6394460.55447  -4972004.30447
      2694.9634       2099.9754         45.5004         42.5004
  21937618.1504   21937618.9474   21937621.8924  -14837854.98848 -11541215.51947
      -250.9694       -195.5594         48.8004         45.6004
  19721046.6234   19721046.8154   19721051.0134  -27114093.03148 -21089428.20848
       694.1274        540.8734         51.4004         48.4004
 10  1  5  1 35  0.0000000  0  9G22G12G28G15G27G18G26G17G 9
  23729198.1114   23729197.1094   23729198.6224   -4063808.83646  -2997327.11246
      -488.3794       -380.5584         39.7004         37.4004
  22085931.3314   22085930.8264   22085933.9564  -14826926.15147 -11507258.85747
      2806.7074       2187.0354         47.9004         44.9004
  24819977.1264   24819973.1124   24819977.6294    1776203.39445   1401087.41845
     -3194.3274      -2489.0694         33.8004         32.6004
  22532962.3314   22532962.8944   22532965.5524  -10093168.45647  -7843246.24247
     -3228.6344      -2515.8114         46.3004         43.3004
  20740887.1184   20740886.6444   20740890.7854  -20948801.14748 -15879031.08547
       180.5924        140.7214         50.7004         47.7004
  23682733.3954   23682732.7994   23682737.6144   -2516148.01746  -1943854.91646
     -2128.3304      -1658.4434         39.0004         36.9004
  22039307.5044   22039307.7354   22039311.2074   -6475072.25247  -5034818.60547
      2679.1714       2087.6554         45.5004         42.6004
  21939108.6994   21939108.7894   21939111.5724  -14830027.32948 -11535116.04247
      -270.8904       -211.0854         48.8004         45.8004
  19717134.0374   19717133.4894   19717137.4744  -27134658.51648 -21105453.26448
       676.8904        527.4434         51.4004         48.5004
 10  1  5  1 35 30.0000000  0  9G22G12G28G15G27G18G26G17G 9
  23732037.0634   23732036.9984   23732039.7414   -4048888.63146  -2985700.96846
      -506.3284       -394.5424         40.1004         37.6004
  22069938.9734   22069938.1444   22069941.4544  -14910970.43147 -11572747.89147
      2796.2024       2178.8584         47.9004         44.9004
  24838219.8114   24838222.1174   24838224.0934    1872062.76545   1475783.09645
     -3196.2734      -2490.6004         34.7004         33.4004
  22551422.0884   22551422.5274   22551425.0094   -9996160.09447  -7767655.31547
     -3238.6334      -2523.6154         46.3004         43.2004
  20739886.3004   20739886.0324   20739890.3554  -20954059.77548 -15883128.71547
       169.9664        132.4424         50.7004         47.7004
  23694920.4764   23694919.4184   23694921.5624   -2452109.29146  -1893954.68146
     -2140.9084      -1668.2334         39.4004         36.7004
  22024057.6454   22024056.9104   22024061.4194   -6555210.26647  -5097263.81347
      2663.3824       2075.3674         45.5004         42.5004
  21940711.8684   21940712.1264   21940714.9824  -14821602.55848 -11528551.27247
      -290.7864       -226.5884         48.8004         45.8004
  19713319.1014   19713318.8024   19713322.5244  -27154706.22148 -21121074.85648
       659.6074        513.9824         51.4004         48.5004
 10  1  5  1 36  0.0000000  0  9G22G12G28G15G27G18G26G17G 9
  23734980.2454   23734979.0854   23734980.7414   -4033431.31646  -2973656.31946
      -524.2004       -408.4694         40.3004         37.9004
  22054003.5444   22054004.4084   22054008.1354  -14994698.76147 -11637990.71647
      2785.6584       2170.6414         47.9004         44.9004
  24856471.0874   24856472.4624   24856473.7064    1967975.01545   1550519.90545
     -3197.9604      -2491.9264         34.7004         33.3004
  22569938.6764   22569939.1174   22569942.0794   -9898853.33747  -7691831.89147
     -3248.5114      -2531.3044         46.2004         43.2004
  20738946.7544   20738946.2724   20738950.4694  -20958999.27948 -15886977.68347
       159.3114        124.1414         50.7004         47.8004
  23707177.5384   23707176.3174   23707179.6934   -2387694.42146  -1843761.30346
     -2153.3764      -1677.9544         39.4004         36.9004
  22008896.6904   22008897.6574   22008902.3824   -6634871.76247  -5159337.69647
      2647.4354       2062.9324         45.3004         42.5004
  21942428.7014   21942428.9584   21942431.0034  -14812581.08848 -11521521.55247
      -310.6624       -242.0724         48.8004         45.6004
  19709602.6334   19709602.4324   19709606.2264  -27174235.12848 -21136292.18948
       642.2974        500.4974         51.5004         48.5004
 10  1  5  1 36 30.0000000  0  9G22G12G28G15G27G18G26G17G 9
  23738022.6734   23738021.7874   23738024.5614   -4017437.68846  -2961193.78146
      -542.0794       -422.4024         40.6004         38.1004
  22038131.4864   22038132.2554   22038135.4274  -15078110.23147 -11702986.63347
      2775.0754       2162.3934         47.9004         45.1004
  24874733.4194   24874734.0894   24874735.2364    2063938.49945   1625296.59345
     -3199.6304      -2493.2174         34.5004         32.9004
  22588512.1534   22588512.7524   22588516.5254   -9801250.45247  -7615777.70247
     -3258.3364      -2538.9654         46.2004         43.2004
  20738067.0554   20738067.1694   20738071.3474  -20963618.91348 -15890577.40047
       148.6524        115.8374         50.7004         47.8004
  23719507.5604   23719505.6174   23719508.9464   -2322906.33146  -1793277.08346
     -2165.8154      -1687.6534         39.4004         36.7004
  21993829.5854   21993831.0324   21993833.8864   -6714053.82147  -5221037.98647
      2631.3974       2050.4654         45.3004         42.5004
  21944259.0444   21944259.6644   21944261.8024  -14802963.05148 -11514026.95847
      -330.5474       -257.5664         48.8004         45.8004
  19705985.5184   19705985.2064   19705988.8764  -27193244.26048 -21151104.50248
       624.9574        486.9814         51.5004         48.5004
 10  1  5  1 37  0.0000000  0  9G22G12G28G15G27G18G26G17G 9
  23741168.5524   23741168.4654   23741170.4474   -4000908.83546  -2948314.20046
      -559.9064       -436.2874         40.9004         38.6004
  22022319.9184   22022320.0294   22022323.1274  -15161203.63948 -11767734.72247
      2764.4914       2154.1534         48.1004         45.1004
  24893000.8964   24893002.3834   24893000.9204    2159951.93845   1700112.23345
     -3201.3824      -2494.5844         33.5004         32.4004
  22607140.6484   22607141.5784   22607145.8054   -9703353.72647  -7539494.55347
     -3268.0854      -2546.5684         46.0004         43.2004
  20737249.3764   20737249.0534   20737253.1944  -20967918.37748 -15893927.63447
       137.9584        107.4984         50.7004         47.8004
  23731905.8184   23731905.1274   23731908.7774   -2257747.97846  -1742504.41546
     -2178.0684      -1697.1964         39.2004         36.7004
  21978853.8974   21978854.0744   21978858.2704   -6792753.75147  -5282362.60647
      2615.2344       2037.8474         45.3004         42.5004
  21946203.6514   21946203.0244   21946205.9634  -14792748.82148 -11506067.80447
      -350.3974       -273.0384         48.9004         45.9004
  19702467.4124   19702467.0004   19702470.6894  -27211732.88948 -21165511.21948
       607.6004        473.4544         51.5004         48.5004
 10  1  5  1 37 30.0000000  0  9G22G12G28G15G27G18G26G17G 9
  23744413.5364   23744413.5104   23744416.7914   -3983845.69746  -2935018.22246
      -577.6514       -450.1164         40.9004         38.5004
  22006568.0304   22006568.3324   22006571.6174  -15243977.69248 -11832233.95747
      2753.7794       2145.7964         48.1004         45.1004
  24911281.8234   24911282.6524   24911280.6854    2256013.84745   1774965.69245
     -3202.8424      -2495.7254         33.1004         32.0004
  22625825.4454   22625825.6444   22625828.7674   -9605165.61747  -7462984.36047
     -3277.7874      -2554.1164         46.0004         43.0004
  20736491.6604   20736491.7264   20736495.9514  -20971897.05248 -15897027.90047
       127.2644         99.1674         50.7004         47.8004
  23744375.1244   23744375.0934   23744377.4404   -2192221.76846  -1691445.06446
     -2190.2654      -1706.7004         39.4004         36.9004
  21963971.5494   21963970.7894   21963974.1394   -6870968.88847  -5343309.46747
      2599.0664       2025.2534         45.6004         42.6004
  21948259.0584   21948259.6594   21948263.5204  -14781938.76948 -11497644.38247
      -370.2654       -288.5184         48.9004         45.9004
  19699047.9054   19699047.9334   19699051.5824  -27229700.16948 -21179511.70848
       590.2134        459.9104         51.5004         48.5004
 10  1  5  1 38  0.0000000  0  9G22G12G28G15G27G18G26G17G 9
  23747762.1794   23747762.3344   23747765.4724   -3966249.09646  -2921306.62246
      -595.4154       -463.9604         41.1004         38.3004
  21990877.4024   21990878.3094   21990881.2174  -15326430.94748 -11896483.20647
      2743.0534       2137.4444         48.1004         45.2004
  24929572.5474   24929570.4614   24929576.6524    2352123.05145   1849855.99545
     -3204.4904      -2497.0074         33.7004         32.6004
  22644565.4594   22644566.5294   22644568.8014   -9506688.31047  -7386248.81347
     -3287.3624      -2561.5714         46.0004         43.0004
  20735796.0724   20735795.7014   20735799.9844  -20975554.35448 -15899877.74647
       116.5314         90.8064         50.7004         47.8004
  23756913.8414   23756912.6564   23756915.3744   -2126330.38446  -1640101.19346
     -2202.4404      -1716.1984         39.4004         36.7004
  21949179.9534   21949180.3644   21949182.9574   -6948696.43947  -5403876.37947
      2582.7794       2012.5474         45.5004         42.5004
  21950430.1334   21950430.0394   21950433.3524  -14770533.21148 -11488756.92947
      -390.1184       -303.9834         48.8004         45.8004
  19695728.1124   19695728.2334   19695732.2154  -27247145.10848 -21193105.16448
       572.7824        446.3244         51.5004         48.7004
 10  1  5  1 38 30.0000000  0  9G22G12G28G15G27G18G26G17G 9
  23751213.9534   23751213.3314   23751213.7464   -3948120.35746  -2907180.37146
      -613.1134       -477.7554         40.4004         37.8004
  21975248.6824   21975248.6104   21975252.2514  -15408562.15448 -11960481.50447
      2732.3234       2129.0774         48.2004         45.1004
  24947867.0364   24947867.7804   24947871.7904    2448278.22045   1924782.05145
     -3205.6454      -2497.8994         33.1004         32.4004
  22663358.9594   22663359.2114   22663363.5164   -9407924.47347  -7309289.96947
     -3296.9194      -2569.0264         45.8004         42.6004
  20735161.4574   20735161.2754   20735165.4354  -20978889.71248 -15902476.73548
       105.7994         82.4454         50.8004         48.0004
  23769521.1344   23769521.5304   23769523.5034   -2060076.46846  -1588474.80746
     -2214.5114      -1725.5804         39.0004         36.4004
  21934481.4324   21934481.7864   21934484.7564   -7025933.70947  -5464061.27047
      2566.3914       1999.7824         45.3004         42.3004
  21952712.8994   21952713.2904   21952716.8114  -14758532.58448 -11479405.77347
      -409.9504       -319.4444         48.8004         45.6004
  19692508.4464   19692508.2824   19692511.7734  -27264066.97748 -21206291.03148
       555.3224        432.7164         51.5004         48.5004
 10  1  5  1 39  0.0000000  0  9G22G12G28G15G27G18G26G17G 9
  23754763.6804   23754762.9224   23754765.1194   -3929460.54346  -2892640.26746
      -630.8454       -491.5594         40.1004         37.4004
  21959680.6464   21959680.7434   21959684.1894  -15490370.45048 -12024228.21047
      2721.5294       2120.6774         48.1004         45.1004
  24966172.8374   24966171.5074                    2544477.89545   1999742.75545
     -3207.4004      -2499.2814         33.0004         32.2004
  22682209.2934   22682208.4314   22682212.2914   -9308875.78947  -7232109.20147
     -3306.3414      -2576.3734         45.6004         42.8004
  20734587.7744   20734587.7934   20734591.8164  -20981902.70548 -15904824.52647
        95.0224         74.0444         50.8004         47.8004
  23782197.2764   23782195.8794   23782199.8724   -1993463.19946  -1536568.35746
     -2226.4084      -1734.8664         38.9004         36.4004
  21919878.4594   21919877.4964   21919882.2134   -7102678.11647  -5523862.09247
      2549.8964       1986.9394         45.5004         42.5004
  21955110.9814   21955110.8204   21955113.5344  -14745937.67348 -11469591.54947
      -429.7394       -334.8564         48.8004         45.8004
  19689388.2944   19689387.7244   19689391.3594  -27280464.93748 -21219068.66748
       537.8744        419.1254         51.5004         48.5004
 10  1  5  1 39 30.0000000  0  9G22G12G28G15G27G18G26G17G 9
  23758417.0724   23758416.5264   23758417.3844   -3910270.51146  -2877687.01546
      -648.5124       -505.3334         40.3004         37.8004
  21944175.6374   21944175.4364   21944178.2964  -15571854.56748 -12087722.31847
      2710.7224       2112.2514         48.2004         45.2004
  24984487.6924   24984485.1264   24984493.9834    2640720.80045   2074737.24245
     -3208.7474      -2500.3194         33.1004         32.2004
  22701110.8734   22701111.0564   22701113.1344   -9209544.74347  -7154708.40147
     -3315.7064      -2583.6724         45.6004         42.6004
  20734075.9944   20734075.9494   20734079.8584  -20984592.72648 -15906920.64647
        84.2814         65.6784         50.7004         47.8004
  23794941.7814   23794941.3374   23794944.8464   -1926492.62646  -1484383.54346
     -2238.2954      -1744.1304         39.0004         36.9004
  21905366.6744   21905367.5874   21905372.1174   -7178926.56147  -5583276.47547
      2533.3424       1974.0414         45.6004         42.8004
  21957620.6224   21957620.7254   21957623.1474  -14732748.65648 -11459314.38747
      -449.5384       -350.2904         48.9004         45.9004
  19686367.2194   19686367.0384   19686370.9764  -27296338.26248 -21231437.49048
       520.3604        405.4794         51.5004         48.7004
 10  1  5  1 40  0.0000000  0  9G22G12G28G15G27G18G26G17G 9
  23762166.9494   23762168.0714   23762170.4594   -3890551.24546  -2862321.39146
      -666.1314       -519.0684         40.3004         37.9004
  21928730.5264   21928731.2744   21928734.1054  -15653013.33948 -12150962.88847
      2699.8314       2103.7664         48.2004         45.2004
  25002811.0134   25002812.8594   25002816.9254    2737005.69245   2149764.50845
     -3210.3984      -2501.6124         32.4004         31.5004
  22720065.8984   22720065.8824   22720069.3194   -9109934.00947  -7077089.66547
     -3325.0124      -2590.9184         45.6004         42.8004
  20733625.7454   20733625.8114   20733629.6834  -20986959.24648 -15908764.69447
        73.4734         57.2504         50.8004         47.8004
  23807753.7984   23807753.0124   23807755.9064   -1859167.72646  -1431922.64046
     -2250.0244      -1753.2604         39.2004         36.9004
  21890952.3604   21890952.9384   21890958.4314   -7254676.62147  -5642302.48447
      2516.6684       1961.0224         45.8004         43.2004
  21960243.0554   21960243.1944   21960246.3054  -14718966.03548 -11448574.67447
      -469.3214       -365.6984         48.9004         45.8004
  19683446.9514   19683446.7244   19683450.6504  -27311686.11348 -21243396.85348
       502.8454        391.8264         51.7004         48.7004
 10  1  5  1 40 30.0000000  0  9G22G12G28G15G27G18G26G17G 9
  23766022.3754   23766020.8884   23766022.8404   -3870304.02546  -2846544.35246
      -683.6654       -532.7244         39.7004         36.7004
  21913349.8904   21913350.0734   21913352.8654  -15733845.37348 -12213948.86547
      2688.9324       2095.2744         48.4004         45.4004
  25021135.0684   25021135.4864                    2833331.09355   2224823.31555
     -3211.3684      -2502.3484         31.7004         31.9004
  22739073.4324   22739073.7904   22739077.4454   -9010045.83847  -6999254.72547
     -3334.2174      -2598.0834         45.6004         43.0004
  20733237.6104   20733237.1154   20733241.2464  -20989001.54248 -15910356.09348
        62.6814         48.8474         50.8004         48.0004
  23820631.0344   23820628.8924   23820634.0454   -1791491.26046  -1379187.78446
     -2261.7784      -1762.4254         38.7004         36.4004
  21876634.6584   21876634.1484   21876637.4954   -7329925.62247  -5700938.07347
      2499.9364       1948.0054         46.0004         43.2004
  21962978.3654   21962978.1754   21962981.7604  -14704590.27148 -11437372.77547
      -489.0914       -381.1134         48.8004         45.8004
  19680626.6184   19680626.0814   19680630.0244  -27326507.72948 -21254946.16348
       485.2894        378.1484         51.7004         48.7004
 10  1  5  1 41  0.0000000  0  9G22G12G28G15G27G18G26G17G 9
  23769974.8544   23769972.7074   23769975.3434   -3849529.77546  -2830356.65546
      -701.2394       -546.4204         39.2004         36.4004
  21898030.3624   21898029.8144   21898032.3694  -15814349.60348 -12276679.41747
      2678.0184       2086.7624         48.4004         45.2004
  25039478.2914   25039477.4644                    2929696.04355   2299912.86955
     -3212.7214      -2503.4294         31.7004         31.7004
  22758133.6684   22758134.3514   22758138.4104   -8909882.58947  -6921205.45047
     -3343.3414      -2605.2034         46.0004         43.0004
  20732910.2224   20732910.1324   20732914.3254  -20990719.23248 -15911694.55848
        51.8314         40.3894         50.8004         48.0004
  23833575.1374   23833576.2884   23833578.6624   -1723465.47046  -1326180.74346
     -2273.3144      -1771.4064         38.9004         36.6004
  21862410.2434   21862410.1524   21862413.9814   -7404670.64247  -5759180.95347
      2483.0654       1934.8494         46.0004         43.0004
  21965827.1934   21965827.0914   21965830.2824  -14689622.00148 -11425709.17147
      -508.8094       -396.4704         48.8004         45.8004
  19677905.6684   19677905.7434   19677909.9414  -27340802.34348 -21266084.82548
       467.6864        364.4334         51.5004         48.7004
 10  1  5  1 41 30.0000000  0  9G22G12G28G15G27G18G26G17G 9
  23774026.8334   23774026.6854   23774026.4664   -3828229.83546  -2813759.26045
      -718.7224       -560.0374         38.2004         35.3004
  21882773.6114   21882773.6024   21882775.3134  -15894524.91748 -12339153.66047
      2667.0094       2078.1874         48.2004         45.2004
  25057831.0624   25057825.2274                    3026098.90445   2375031.95545
     -3214.0184      -2504.4204         31.7004         31.3004
  22777245.0204   22777246.5484   22777249.5464   -8809446.82447  -6842943.82947
     -3352.3914      -2612.2474         45.6004         42.6004
  20732645.1224   20732645.1504   20732649.4564  -20992111.81448 -15912779.68648
        40.9854         31.9324         50.8004         48.0004
  23846587.2834   23846586.0374   23846589.9404   -1655093.65946  -1272904.03946
     -2284.7684      -1780.3354         38.7004         36.2004
  21848282.8024   21848283.5264   21848286.5444   -7478909.19047  -5817029.16447
      2466.2104       1921.7154         45.8004         43.0004
  21968787.9854   21968788.6254   21968791.1644  -14674061.81848 -11413584.33947
      -528.5694       -411.8774         48.9004         45.9004
  19675286.4204   19675286.1914   19675290.1174  -27354569.36548 -21276812.37348
       450.0914        350.7184         51.7004         48.7004
 10  1  5  1 42  0.0000000  0  9G22G12G28G15G27G18G26G17G 9
  23778181.6094   23778180.6924   23778181.1604   -3806405.37246  -2796753.25045
      -736.1914       -573.6584         37.3004         35.0004
  21867578.3954   21867578.9554   21867582.1974  -15974370.38948 -12401370.88047
      2656.0074       2069.6124         48.2004         45.1004
  25076179.3644                                    3122538.90044     46907.90243
     -3215.2404      -2505.3824         26.4004         23.4004
  22796410.9094   22796410.8414   22796414.0454   -8708740.18847  -6764471.12747
     -3361.3604      -2619.2334         45.8004         43.0004
  20732441.9534   20732442.1524   20732446.3054  -20993178.81048 -15913611.11948
        30.1234         23.4744         50.8004         48.0004
  23859662.5274   23859659.8574   23859665.7424   -1586378.31446  -1219359.60145
     -2296.1154      -1789.1804         38.2004         35.9004
  21834254.2564   21834253.6484   21834257.1374   -7552638.52347  -5874480.59247
      2449.1364       1908.4154         46.2004         43.5004
  21971860.5654   21971861.3154   21971864.3554  -14657910.22548 -11400998.67547
      -548.2374       -427.1934         48.8004         45.6004
  19672766.9524   19672766.6874   19672770.9594  -27367807.76148 -21287128.00548
       432.4534        336.9764         51.5004         48.7004
 10  1  5  1 42 30.0000000  0  9G22G12G28G15G27G18G26G17G 9
  23782431.4764   23782431.7204   23782433.9874   -3784057.68446  -2779339.42945
      -753.6714       -587.2684         36.4004         34.6004
  21852447.8004   21852447.7154   21852450.9404  -16053884.60848 -12463329.97947
      2644.9114       2060.9734         48.1004         45.2004
  25094530.7484                                    3219019.29154    122078.48654
     -3216.7984      -2506.1944         26.4004         29.8004
  22815624.9864   22815625.7524   22815630.0384   -8607765.37847  -6685789.47447
     -3370.2714      -2626.1764         45.8004         43.0004
  20732301.4674   20732301.0734   20732305.4184  -20993919.70148 -15914188.43748
        19.2434         14.9984         50.8004         48.0004
  23872804.2634   23872805.0214   23872807.1234   -1517322.27846  -1165549.73246
     -2307.4334      -1797.9914         38.3004         36.0004
  21820320.3794   21820320.7704   21820323.9514   -7625855.91447  -5931533.08947
      2431.9324       1895.0204         46.2004         43.2004
  21975048.5494   21975047.9844   21975049.8734  -14641168.06548 -11387952.82247
      -567.9014       -442.5254         48.8004         45.8004
  19670348.1724   19670348.4044   19670352.3574  -27380516.80548 -21297031.15848
       414.8004        323.2214         51.5004         48.7004
 10  1  5  1 43  0.0000000  0  9G22G12G28G15G27G18G26G17G 9
  23786782.3154   23786784.9794   23786787.4064   -3761187.92446  -2761518.87345
      -770.9624       -600.7464         36.1004         34.1004
  21837379.1044   21837379.6644   21837383.7394  -16133066.46248 -12525030.11947
      2633.8564       2052.3514         48.1004         45.1004
  25112904.6434                                    3315528.61454    197269.01554
     -3217.5994      -2506.8184         26.4004         29.8004
  22834889.4704   22834890.3034   22834894.8484   -8506524.88847  -6606900.78347
     -3379.0764      -2633.0454         45.8004         43.0004
  20732221.9434   20732222.2914   20732226.3774  -20994333.81448 -15914511.12847
         8.3384          6.4994         50.8004         47.8004
  23886009.4524   23886008.9894   23886012.9274   -1447928.29646  -1111476.51645
     -2318.7044      -1806.7694         38.3004         35.9004
  21806485.5964   21806485.1174   21806489.1664   -7698558.89647  -5988184.77947
      2414.8354       1881.6804         46.0004         43.0004
  21978345.8334   21978345.8044   21978348.7454  -14623835.84848 -11374447.20547
      -587.5604       -457.8304         48.8004         45.8004
  19668031.3644   19668031.0984   19668034.8774  -27392695.75848 -21306521.25448
       397.1134        309.4384         51.7004         48.9004
 10  1  5  1 43 30.0000000  0 10G22G14G12G28G15G27G18G26G17G 9
  23791234.8984   23791235.5814   23791237.1844   -3737797.33346  -2743292.40945
      -788.3884       -614.3214         36.3004         34.6004
  24573584.8044                   24573587.4014    -309406.05145   -216703.39445
      3457.3504       2694.0594         30.0004         34.1004
  21822376.2504   21822375.9124   21822379.1034  -16211914.96648 -12586470.49147
      2622.6874       2043.6614         48.2004         45.4004
  25131274.7654                                    3412072.36954     41905.90053
     -3217.5894      -2507.2124         26.4004         23.4004
  22854205.3354   22854205.6244   22854210.0664   -8405021.09547  -6527806.92347
     -3387.7974      -2639.8384         45.8004         42.6004
  20732205.8374   20732205.7374   20732209.8904  -20994420.53048 -15914578.70248
        -2.5644         -1.9894         50.8004         48.0004
  23899278.8414   23899278.7474   23899279.7794   -1378199.27146  -1057142.29045
     -2329.8824      -1815.4924         38.2004         35.9004
  21792749.3124   21792749.2414   21792752.6204   -7770744.77947  -6044433.51447
      2397.5414       1868.2234         46.0004         43.2004
  21981756.0154   21981756.1114   21981758.3244  -14605914.23248 -11360482.29047
      -607.1964       -473.1424         48.8004         45.6004
  19665814.1124   19665814.1984   19665818.4044  -27404343.87148 -21315597.71248
       379.4294        295.6644         51.7004         48.7004
 10  1  5  1 44  0.0000000  0  9G22G14G12G15G27G18G26G17G 9
  23795788.9554   23795787.3604   23795786.1024   -3713887.01446  -2724661.04845
      -805.6994       -627.8154         36.3004         34.5004
  24553860.2004   24553862.1174   24553865.1984    -413035.79245   -297453.80645
      3451.2364       2689.2734         34.7004         33.6004
  21807434.7314   21807434.8674   21807438.4564  -16290428.44248 -12647649.79447
      2611.5184       2034.9484         48.4004         45.2004
  22873570.7884   22873571.7754   22873575.7994   -8303256.55947  -6448509.88547
     -3396.4884      -2646.6184         45.8004         43.0004
  20732252.1444   20732251.6564   20732255.9194  -20994179.45948 -15914390.85248
       -13.5094        -10.5264         50.8004         48.0004
  23912610.6544   23912610.1934   23912611.4014   -1308137.83546  -1002548.98045
     -2340.8644      -1824.0424         38.0004         35.7004
  21779112.1694   21779111.7554   21779114.6134   -7842410.87447  -6100277.23247
      2380.1734       1854.6954         46.2004         43.3004
  21985278.2544   21985278.5524   21985281.2544  -14587403.56848 -11346058.38947
      -626.8464       -488.4534         48.6004         45.6004
  19663699.0164   19663698.7944   19663703.1214  -27415460.69148 -21324260.16448
       361.7204        281.8614         51.7004         48.7004
 10  1  5  1 44 30.0000000  0  9G22G14G12G15G27G18G26G17G 9
  23800433.5954   23800437.1774   23800436.2744   -3689458.39446  -2705625.76645
      -822.9314       -641.2474         36.4004         34.6004
  24534180.6724   24534177.1114   24534180.0714    -516479.97545   -378059.64145
      3445.0124       2684.4234         34.9004         33.4004
  21792558.0184   21792558.2194   21792561.3984  -16368606.25648 -12708567.56447
      2600.3264       2026.2284         48.2004         45.2004
  22892985.0844   22892986.0994   22892988.9734   -8201233.17147  -6369011.15747
     -3405.1174      -2653.3424         45.6004         42.5004
  20732360.0694   20732360.0634   20732364.2934  -20993610.11448 -15913947.21048
       -24.4744        -19.0754         50.8004         48.0004
  23926005.6894   23926004.7164   23926011.2994   -1237746.49946   -947698.58546
     -2351.8694      -1832.6144         38.3004         36.2004
  21765573.3414   21765573.0054   21765576.6904   -7913554.56647  -6155713.87347
      2362.7274       1841.0854         46.3004         43.5004
  21988912.7564   21988912.4274   21988915.8474  -14568304.68448 -11331176.11847
      -646.4324       -503.7134         48.8004         45.6004
  19661684.7994   19661684.7904   19661688.7594  -27426045.25648 -21332507.88148
       343.9204        267.9894         51.7004         48.9004
 10  1  5  1 45  0.0000000  0  9G22G14G12G15G27G18G26G17G 9
  23805180.2014   23805181.6284   23805183.3504   -3664512.77646  -2686187.60345
      -840.1174       -654.6434         36.6004         34.6004
  24514529.2714   24514529.0564   24514531.7934    -619736.05745   -458518.92245
      3438.7594       2679.5554         35.0004         33.6004
  21777746.5394   21777745.9344   21777748.9724  -16446447.25348 -12769222.88247
      2589.0244       2017.4214         48.2004         45.2004
  22912449.1534   22912449.3704   22912451.7644   -8098953.93647  -6289313.05147
     -3413.5284      -2659.9014         45.6004         42.5004
  20732531.3154   20732531.0804   20732535.0484  -20992712.11748 -15913247.47548
       -35.4174        -27.5964         50.8004         48.0004
  23939462.2694   23939462.2554   23939467.6054   -1167028.37546   -892593.54746
     -2362.6944      -1841.0644         38.3004         36.2004
  21752135.2064   21752135.3594   21752138.0724   -7984173.17747  -6210741.36847
      2345.2054       1827.4294         46.5004         43.7004
  21992658.7344   21992659.1634   21992661.9014  -14548618.54048 -11315836.25647
      -665.9944       -518.9634         48.6004         45.6004
  19659772.8824   19659772.0844   19659775.7324  -27436097.01648 -21340340.42148
       326.1774        254.1654         51.7004         48.9004
 10  1  5  1 45 30.0000000  0  9G22G14G12G15G27G18G26G17G 9
  23810027.1944   23810027.9554   23810029.0154   -3639051.46346  -2666347.60045
      -857.3364       -668.0544         36.8004         35.0004
  24494916.9594   24494914.1634   24494916.8714    -722801.41545   -538829.63945
      3432.2714       2674.4984         35.0004         33.4004
  21762996.9014   21762997.2554   21763000.3994  -16523950.24248 -12829614.80447
      2577.7524       2008.6334         48.2004         45.2004
  22931959.9094   22931960.1584   22931964.6424   -7996420.84147  -6209417.12247
     -3421.9574      -2666.4454         45.3004         42.1004
  20732764.8694   20732764.5044   20732768.5104  -20991484.91848 -15912291.21747
       -46.4134        -36.1644         50.8004         47.8004
  23952980.4484   23952980.7304   23952983.5344   -1095986.42146   -837236.14045
     -2373.4884      -1849.4714         38.2004         35.7004
  21738797.6124   21738797.0474   21738800.6194   -8054264.40347  -6265357.90447
      2327.5284       1813.6634         46.3004         43.3004
  21996516.2594   21996516.4274   21996520.0004  -14528345.89748 -11300039.38247
      -685.4864       -534.1354         48.6004         45.6004
  19657961.1494   19657961.0254   19657964.4934  -27445615.70248 -21347757.58648
       308.3834        240.3004         51.9004         48.9004
 10  1  5  1 46  0.0000000  0  9G22G14G12G15G27G18G26G17G 9
  23814971.2504   23814969.8484   23814973.2134   -3613075.74246  -2646106.76945
      -874.4454       -681.3864         36.8004         34.8004
  24475340.7184   24475338.0214   24475341.2944    -825673.64945   -618989.88745
      3425.7474       2669.4114         34.9004         33.4004
  21748312.8674   21748312.9234   21748316.9574  -16601113.94748 -12889742.33747
      2566.4494       1999.8384         48.2004         45.2004
  22951518.0414   22951519.5534   22951523.7354   -7893636.02747  -6129325.07047
     -3430.3364      -2672.9994         45.5004         42.6004
  20733061.1884   20733060.8244   20733065.1494  -20989927.75448 -15911077.84848
       -57.4294        -44.7474         50.8004         48.0004
  23966562.7834   23966561.5244   23966564.0074   -1024623.05246   -781628.35945
     -2384.0844      -1857.7254         37.6004         35.5004
  21725560.2514   21725559.8894   21725563.4204   -8123825.48047  -6319561.32647
      2309.8764       1799.8994         46.2004         43.2004
  22000485.9464   22000486.4314   22000489.2364  -14507487.24948 -11283785.87847
      -705.0404       -549.3894         48.8004         45.8004
  19656251.4624   19656251.0854   19656254.8694  -27454599.86048 -21354758.23148
       290.5504        226.4074         51.9004         48.9004
 10  1  5  1 46 30.0000000  0  9G22G14G12G15G27G18G26G17G 9
  23820010.9494   23820010.4584   23820011.5974   -3586586.92146  -2625466.17245
      -891.4264       -694.6174         36.4004         34.3004
  24455804.2614   24455802.1984   24455805.0134    -928350.03345   -698997.49445
      3419.1584       2664.2864         35.0004         34.0004
  21733694.5304   21733694.4534   21733697.5904  -16677938.03248 -12949605.25147
      2555.1024       1990.9844         48.4004         45.6004
  22971126.1174   22971126.6474   22971129.6284   -7790602.05647  -6049038.86947
     -3438.5924      -2679.4244         45.5004         42.5004
  20733420.2684   20733419.9344   20733424.1734  -20988040.17748 -15909607.01247
       -68.4354        -53.3244         50.8004         47.8004
  23980201.2214   23980201.8014   23980206.0814    -952941.23246   -725772.38546
     -2394.6634      -1865.9814         38.0004         36.2004
  21712423.3364   21712424.0394   21712428.1854   -8192853.55147  -6373349.43247
      2291.9884       1785.9634         46.2004         43.2004
  22004566.8454   22004567.0814   22004569.7474  -14486043.81048 -11267076.69247
      -724.5104       -564.5554         48.8004         45.6004
  19654643.7814   19654643.3924   19654646.7934  -27463049.36148 -21361342.26348
       272.7434        212.5274         51.9004         48.9004
 10  1  5  1 47  0.0000000  0  9G22G14G12G15G27G18G26G17G 9
  23825148.5614   23825144.9664   23825152.4484   -3559586.47445  -2604426.86945
      -908.5004       -707.9204         35.6004         33.4004
  24436302.1194   24436300.8744   24436304.9824   -1030828.16846   -778850.58445
      3412.5494       2659.1314         36.6004         35.0004
  21719140.6874   21719140.3074   21719143.5584  -16754420.64448 -13009202.09347
      2543.7014       1982.0974         48.6004         45.6004
  22990778.6094   22990779.2224   22990783.1424   -7687321.57347  -5968560.55347
     -3446.7484      -2685.7814         45.3004         42.1004
  20733842.1184   20733841.8974   20733846.2184  -20985821.98148 -15907878.55647
       -79.4544        -61.9114         50.8004         47.8004
  23993903.3334   23993901.7444   23993907.1854    -880944.30446   -669670.88146
     -2405.1564      -1874.1484         38.5004         36.6004
  21699390.6024   21699390.4154   21699394.7704   -8261346.51547  -6426720.57447
      2274.1474       1772.0544         46.3004         43.5004
  22008757.6044   22008758.1984   22008761.0554  -14464015.90048 -11249912.05547
      -744.0004       -579.7434         48.6004         45.6004
  19653136.9214   19653136.9844   19653141.0054  -27470963.42548 -21367509.06448
       254.8614        198.5934         51.7004         48.9004
 10  1  5  1 47 30.0000000  0 10G22G14G12G15G30G27G18G26G17G 9
  23830383.4704   23830381.1974   23830387.6824   -3532075.89545  -2582990.07845
      -925.4454       -721.1254         35.7004         34.1004
  24416839.8194   24416837.7134   24416841.0364   -1133105.20846   -858546.95545
      3405.7954       2653.8604         37.5004         35.3004
  21704650.9134   21704651.1624   21704655.0964  -16830560.87148 -13068532.12647
      2532.2694       1973.1974         48.8004         45.9004
  23010478.0084   23010478.6084   23010482.9814   -7583796.93147  -5887892.01446
     -3454.8224      -2692.0534         44.8004         41.8004
  24397765.5714                                    -253241.86144   -182051.05645
      3749.7124       2921.8524         26.4004         35.2004
  20734327.5254   20734327.1444   20734331.4424  -20983272.62048 -15905892.04647
       -90.5084        -70.5274         50.8004         47.8004
  24007661.8794   24007661.8984   24007665.7784    -808634.39046   -613325.47846
     -2415.4754      -1882.1944         38.7004         36.0004
  21686459.8644   21686458.9564   21686463.5584   -8329301.67547  -6479672.65647
      2256.1354       1758.0324         46.7004         43.9004
  22013060.7064   22013061.1994   22013064.5564  -14441404.58048 -11232292.83947
      -763.3944       -594.8584         48.6004         45.6004
  19651732.9704   19651733.0044   19651736.8354  -27478341.43848 -21373258.17348
       236.9934        184.6764         51.7004         48.9004
 10  1  5  1 48  0.0000000  0 10G22G14G12G15G30G27G18G26G17G 9
  23835719.0674   23835718.4544   23835719.6744   -3504056.33846  -2561156.68845
      -942.4034       -734.3414         36.3004         34.8004
  24397415.1584   24397414.4194   24397418.8984   -1235178.89346   -938084.91345
      3399.0554       2648.6224         37.6004         35.5004
  21690226.9054   21690227.3884   21690230.2894  -16906357.74148 -13127594.60847
      2520.8114       1964.2684         48.8004         45.6004
  23030226.2544   23030225.6154   23030228.8914   -7480030.28247  -5807034.88146
     -3462.8784      -2698.3554         44.8004         41.6004
  24376367.9484                   24376372.8884    -365684.27245   -269668.47445
      3746.4134       2919.2784         35.0004         35.0004
  20734875.6794   20734875.3034   20734879.8114  -20980391.55448 -15903647.06647
      -101.5714        -79.1464         50.8004         47.8004
  24021480.2384   24021480.7504   24021486.1524    -736014.53146   -556738.60945
     -2425.7884      -1890.2264         38.0004         35.5004
  21673629.8084   21673629.9904   21673634.6554   -8396716.56047  -6532203.72547
      2238.1134       1743.9814         46.7004         43.7004
  22017474.7594   22017474.7704   22017477.5544  -14418210.80348 -11214219.74447
      -782.8284       -609.9974         48.6004         45.8004
  19650432.0684   19650431.3164   19650434.9224  -27485182.89448 -21378589.18048
       219.0794        170.7114         51.7004         48.9004
 10  1  5  1 48 30.0000000  0 10G22G14G12G15G30G27G18G26G17G 9
  23841143.5334   23841142.0614   23841146.7354   -3475529.24146  -2538927.87845
      -959.3454       -747.5434         36.1004         34.0004
  24378028.4554   24378028.9154   24378032.8904   -1337046.61446  -1017462.34845
      3392.0904       2643.1814         37.5004         35.3004
  21675869.5524   21675869.2514   21675872.5644  -16981810.01348 -13186388.56947
      2509.3054       1955.2994         48.6004         45.6004
  23050014.2784   23050016.0444   23050021.2574   -7376024.28347  -5725991.26646
     -3470.8374      -2704.5504         44.4004         41.4004
  24354991.5604   24354991.4354   24354994.0664    -478026.67546   -357208.00345
      3743.1304       2916.7234         37.0004         35.3004
  20735486.4124   20735486.5454   20735491.3984  -20977178.17248 -15901143.13947
      -112.6574        -87.7864         50.7004         47.8004
  24035358.1514   24035358.3974   24035364.1054    -663087.45846   -499912.38345
     -2435.9624      -1898.1504         37.1004         35.0004
  21660904.8584   21660905.0884   21660908.9464   -8463588.34647  -6584311.59447
      2219.9984       1729.8674         46.7004         43.9004
  22021998.9304   22021998.7494   22022002.0174  -14394435.20748 -11195693.29847
      -802.1984       -625.0884         48.6004         45.6004
  19649231.1984   19649231.4114   19649235.3254  -27491487.23048 -21383501.65548
       201.1754        156.7554         51.7004         48.9004
 10  1  5  1 49  0.0000000  0 10G22G14G12G15G30G27G18G26G17G 9
  23846674.2414   23846670.2084   23846670.9224   -3446496.43945  -2516304.93245
      -976.2264       -760.6944         34.3004         32.6004
  24358684.6104   24358684.2354   24358687.0444   -1438705.82746  -1096677.31845
      3385.2004       2637.8154         37.3004         35.3004
  21661576.7954   21661577.0034   21661580.3924  -17056916.92748 -13244913.41347
      2497.7774       1946.3264         48.6004         45.6004
  23069854.9534   23069853.6924   23069857.0804   -7271781.68347  -5644763.24346
     -3478.6574      -2710.6334         44.8004         41.9004
  24333632.8144   24333630.4414   24333635.8244    -590267.44946   -444668.29345
      3739.6754       2914.0324         37.5004         35.5004
  20736162.0304   20736161.6354   20736166.0864  -20973631.92248 -15898379.83547
      -123.7694        -96.4404         50.7004         47.8004
  24049295.6244   24049294.9004   24049297.1774    -589856.57446   -442849.42845
     -2446.0534      -1906.0134         37.3004         35.3004
  21648284.0124   21648283.3354   21648287.5504   -8529914.92547  -6635994.63747
      2201.7664       1715.6654         46.7004         43.5004
  22026633.2964   22026634.0274   22026637.3844  -14370078.90348 -11176714.35047
      -821.5574       -640.1694         48.6004         45.8004
  19648134.3874   19648134.3274   19648138.1634  -27497253.89048 -21387995.15448
       183.2654        142.8074         51.7004         48.9004
 10  1  5  1 49 30.0000000  0 10G22G14G12G15G30G27G18G26G17G 9
  23852288.1944   23852288.4484   23852290.7064   -3416958.98145  -2493288.71145
      -992.8304       -773.6304         34.2004         33.3004
  24339377.4944   24339378.5334   24339382.5544   -1540153.97746  -1175727.80345
      3378.0454       2632.2434         37.5004         35.3004
  21647350.3734   21647350.7714   21647354.2854  -17131677.29048 -13303168.22347
      2486.2194       1937.3094         48.6004         45.6004
  23089736.1214   23089736.6894   23089739.5074   -7167304.12047  -5563352.16046
     -3486.4904      -2716.7474         44.6004         41.8004
  24312293.9424   24312293.1804   24312297.2514    -702405.20446   -532048.33646
      3736.2014       2911.3254         38.0004         36.0004
  20736900.3704   20736899.9294   20736904.6984  -20969752.25148 -15895356.71147
      -134.8884       -105.1064         50.8004         47.8004
  24063287.9104   24063287.6114   24063291.8574    -516324.08546   -385551.38346
     -2456.0484      -1913.8054         38.0004         36.2004
  21635765.9854   21635766.1414   21635769.8874   -8595693.73847  -6687250.86347
      2183.4564       1701.3974         46.5004         43.3004
  22031379.2274   22031379.2184   22031382.3094  -14345142.45548 -11157283.34347
      -840.8554       -655.2084         48.6004         45.6004
  19647138.7274   19647138.9064   19647143.4494  -27502482.09148 -21392069.08248
       165.3014        128.8054         51.7004         48.9004
 10  1  5  1 50  0.0000000  0 10G22G14G12G15G30G27G18G26G17G 9
  23858010.2004   23858007.0924   23858007.3934   -3386918.60845  -2469880.61145
     -1009.5934       -786.7024         35.4004         34.1004
  24320115.0794   24320113.9144   24320117.3184   -1641388.43746  -1254611.80945
      3370.8904       2626.6674         37.0004         34.8004
  21633191.0084   21633190.9474   21633193.8254  -17206089.98148 -13361152.13247
      2474.6114       1928.2684         48.8004         45.9004
  23109661.0364   23109662.1944   23109666.0144   -7062594.32147  -5481760.10846
     -3494.1674      -2722.7164         44.8004         41.9004
  24290973.6694   24290973.7764   24290975.8314    -814438.62946   -619347.07545
      3732.7174       2908.6104         38.2004         35.7004
  20737701.8554   20737701.4834   20737706.0884  -20965538.91948 -15892073.60147
      -146.0264       -113.7894         50.7004         47.8004
  24077337.8404   24077339.2794   24077341.1404    -442493.08846   -328020.82445
     -2465.9504      -1921.5234         38.0004         35.7004
  21623354.3884   21623353.4024   21623357.8374   -8660922.19247  -6738078.22347
      2165.0714       1687.0604         46.3004         43.5004
  22036234.3784   22036234.2044   22036237.2604  -14319627.20048 -11137401.31547
      -860.1404       -670.2504         48.4004         45.2004
  19646247.0524   19646246.7334   19646250.8404  -27507171.61348 -21395723.25348
       147.3314        114.8034         51.7004         48.9004
 10  1  5  1 50 30.0000000  0 10G22G14G12G15G30G27G18G26G17G 9
  23863818.1014   23863818.8154   23863821.8454   -3356376.80046  -2446081.83445
     -1026.4114       -799.7994         36.4004         35.0004
  24300893.5734   24300893.4174   24300894.4394   -1742406.60346  -1333327.26245
      3363.6404       2621.0264         36.8004         34.6004
  21619095.9334   21619096.5664   21619099.2724  -17280154.13248 -13418864.43047
      2462.9894       1919.2044         48.8004         45.8004
  23129629.5724   23129630.5084   23129633.5144   -6957655.41747  -5399989.54546
     -3501.7944      -2728.6494         44.6004         41.2004
  24269675.0274   24269674.6334   24269677.1214    -926366.42246   -706563.49345
      3729.1374       2905.8194         38.0004         35.7004
  20738567.7614   20738567.1444   20738571.3994  -20960991.31748 -15888530.01747
      -157.1614       -122.4624         50.8004         47.8004
  24091443.8244   24091442.2934   24091445.1314    -368366.53846   -270259.91945
     -2475.8244      -1929.2114         37.1004         34.6004
  21611046.1544   21611046.6154   21611049.9564   -8725597.69547  -6788474.72247
      2146.6214       1672.6774         46.5004         43.5004
  22041199.4554   22041199.7934   22041202.4224  -14293534.20448 -11117069.10847
      -879.4254       -685.2694         48.4004         45.6004
  19645457.6364   19645457.2414   19645461.3564  -27511321.69148 -21398957.08548
       129.3404        100.7834         51.9004         49.1004
 10  1  5  1 51  0.0000000  0 10G22G14G12G15G30G27G18G26G17G 9
  23869724.8494   23869723.7744   23869727.8994   -3325335.03746  -2421893.42345
     -1043.0264       -812.7464         36.4004         34.5004
  24281711.2774   24281709.1984   24281711.0654   -1843205.97546  -1411872.25745
      3356.2714       2615.2804         36.1004         34.0004
  21605069.4964   21605069.1994   21605072.1144  -17353868.80348 -13476304.42747
      2451.3094       1910.1114         48.9004         45.8004
  23149642.1774   23149642.7794   23149648.2364   -6852488.70847  -5318041.45646
     -3509.3144      -2734.5254         44.2004         41.6004
  24248395.2574   24248393.7274   24248398.3544   -1038187.14246   -793696.44845
      3725.5894       2903.0604         37.6004         35.2004
  20739496.5124   20739496.2444   20739500.3804  -20956108.78248 -15884725.44947
      -168.3404       -131.1794         50.7004         47.8004
  24105605.2984   24105602.5204   24105606.8934    -293947.18946   -212270.79945
     -2485.4764      -1936.7314         37.3004         35.3004
  21598844.4354   21598844.3844   21598848.1654   -8789717.95647  -6838438.56047
      2128.0524       1658.2164         46.5004         43.7004
  22046275.1724   22046275.2504   22046278.6354  -14266864.10548 -11096287.20147
      -898.6034       -700.2104         48.6004         45.8004
  19644770.4774   19644770.1154   19644774.3494  -27514931.84348 -21401770.19748
       111.3264         86.7484         51.9004         48.9004
 10  1  5  1 51 30.0000000  0 10G22G14G12G15G30G27G18G26G17G 9
  23875727.3124   23875726.5214   23875729.6544   -3293794.90945  -2397316.73445
     -1059.5604       -825.6344         35.7004         34.0004
  24262570.7544   24262569.3414   24262573.3164   -1943783.75045  -1490244.54045
      3348.8394       2609.4774         35.9004         34.1004
  21591107.6444   21591108.1904   21591111.2824  -17427232.51248 -13533470.93647
      2439.5984       1900.9914         48.9004         45.9004
  23169697.8744   23169698.3714   23169702.0214   -6747096.92347  -5235917.99046
     -3516.7894      -2740.3684         44.4004         41.4004
  24227135.7784   24227137.0274   24227141.7724   -1149899.41746   -880745.00646
      3721.9204       2900.1954         38.3004         36.2004
  20740489.0924   20740489.1384   20740493.7154  -20950891.07548 -15880659.70547
      -179.5184       -139.8804         50.7004         47.8004
  24119823.1204   24119822.4414   24119825.0824    -219237.85746   -154055.79346
     -2495.0604      -1944.1994         38.2004         36.2004
  21586749.2224   21586749.6504   21586753.4264   -8853280.55047  -6887967.85147
      2109.4374       1643.7204         46.7004         43.9004
  22051460.2404   22051460.2134   22051463.2644  -14239617.76948 -11075056.28147
      -917.7824       -715.1534         48.6004         45.6004
  19644185.9264   19644185.9834   19644190.1614  -27518001.48048 -21404162.12148
        93.2824         72.6884         51.9004         48.9004
 10  1  5  1 52  0.0000000  0 10G22G14G12G15G30G27G18G26G17G 9
  23881825.2264   23881824.4564   23881827.5304   -3261757.98646  -2372352.93945
     -1076.1284       -838.5394         36.1004         34.5004
  24243472.9564   24243471.8344   24243477.6434   -2044137.41146  -1568442.21845
      3341.3664       2603.6654         36.6004         34.8004
  21577214.7664   21577214.5994   21577217.1394  -17500244.50748 -13590363.38247
      2427.8534       1891.8364         48.8004         45.8004
  23189796.5604   23189795.4634   23189799.5734   -6641482.51847  -5153621.02846
     -3524.2174      -2746.1484         44.1004         41.1004
  24205898.7574   24205899.5014   24205903.3934   -1261501.63946   -967707.75346
      3718.1814       2897.2784         38.5004         36.4004
  20741546.1324   20741546.0174   20741550.1524  -20945337.80748 -15876332.48447
      -190.7054       -148.6024         50.8004         47.8004
  24134091.2094   24134090.9864   24134096.3734    -144241.66346    -95617.26545
     -2504.7034      -1951.7114         38.2004         35.7004
  21574760.2854   21574759.6104   21574764.3634   -8916282.98247  -6937060.64647
      2090.7694       1629.1694         46.7004         43.7004
  22056753.2724   22056753.6224   22056757.3344  -14211796.57248 -11053377.42547
      -936.9334       -730.0764         48.6004         45.6004
  19643704.5894   19643704.5024   19643708.9254  -27520530.01848 -21406132.41348
        75.2494         58.6404         51.7004         48.9004
 10  1  5  1 52 30.0000000  0 10G22G14G12G15G30G27G18G26G17G 9
  23888015.4524   23888015.9934   23888015.4904   -3229225.92946  -2347003.31645
     -1092.6504       -851.4214         37.0004         35.3004
  24224420.6334   24224420.4234   24224422.2344   -2144264.74346  -1646463.51645
      3333.6604       2597.6574         37.1004         35.2004
  21563386.9914   21563387.8984   21563391.1684  -17572903.91548 -13646981.08247
      2416.0814       1882.6664         48.8004         45.8004
  23209936.8794   23209935.4374   23209939.2414   -6535648.06347  -5071152.66246
     -3531.4754      -2751.7944         44.1004         41.2004
  24184684.2484   24184684.2254   24184686.7614   -1372992.46446  -1054583.68546
      3714.5034       2894.4184         39.0004         36.9004
  20742667.0924   20742666.6344   20742670.9004  -20939448.58148 -15871743.48547
      -201.9154       -157.3354         50.7004         47.8004
  24148417.2584   24148416.7944   24148421.5744     -68961.18046    -36957.19345
     -2514.0454      -1958.9904         37.6004         35.7004
  21562877.7984   21562878.1624   21562882.7204   -8978722.92247  -6985715.13847
      2071.9234       1614.4804         46.9004         43.9004
  22062157.5804   22062157.5474   22062160.4144  -14183401.51448 -11031251.41047
      -956.0624       -744.9824         48.6004         45.4004
  19643326.5264   19643326.6364   19643330.8814  -27522517.29448 -21407680.94448
        57.1994         44.5724         51.7004         48.9004
 10  1  5  1 53  0.0000000  0 10G22G14G12G15G30G27G18G26G17G 9
  23894299.6074   23894297.3514   23894301.7224   -3196200.29946  -2321269.07145
     -1109.0774       -864.2184         37.0004         34.8004
  24205409.7054   24205410.9144   24205413.7954   -2244162.70146  -1724306.05145
      3326.1124       2591.7724         37.1004         35.0004
  21549628.1264   21549628.0294   21549631.1284  -17645209.75948 -13703323.28447
      2404.2924       1873.4724         48.8004         45.6004
  23230116.9654   23230117.0934   23230120.1344   -6429596.11847  -4988514.76646
     -3538.6364      -2757.3894         43.9004         41.2004
  24163490.3654   24163490.0854   24163493.8924   -1484370.67046  -1141371.83246
      3710.6874       2891.4404         39.6004         37.3004
  20743851.3604   20743851.1604   20743855.6844  -20933222.80648 -15866892.22847
      -213.1464       -166.0904         50.7004         47.8004
  24162797.2884   24162795.3654   24162800.1374       6600.33746     21921.86045
     -2523.3994      -1966.2924         37.3004         34.8004
  21551102.9654   21551103.4644   21551108.1214   -9040597.94247  -7033929.43647
      2053.0264       1599.7554         46.7004         43.7004
  22067669.7344   22067669.6374   22067672.5554  -14154433.48348 -11008678.88547
      -975.1304       -759.8494         48.6004         45.4004
  19643052.4684   19643051.8084   19643055.5454  -27523962.47148 -21408807.05548
        39.1284         30.4874         51.7004         48.9004
 10  1  5  1 53 30.0000000  0 10G22G14G12G15G30G27G18G26G17G 9
  23900670.2364   23900674.4754   23900678.2474   -3162682.68146  -2295151.49545
     -1125.2474       -876.8154         36.3004         34.5004
  24186447.2084   24186445.2364   24186445.2014   -2343828.87146  -1801968.04045
      3318.3124       2585.6974         36.4004         34.5004
  21535936.1374   21535936.7094   21535939.6374  -17717160.82448 -13759389.02547
      2392.4444       1864.2454         48.8004         45.8004
  23250338.0024   23250338.4924   23250343.8814   -6323329.17047  -4905709.36446
     -3545.8104      -2762.9554         44.1004         41.4004
  24142316.1174   24142314.5524   24142320.7174   -1595634.80446  -1228071.10246
      3706.9294       2888.5224         39.0004         36.2004
  20745100.2684   20745100.3054   20745104.4664  -20926659.84848 -15861778.24347
      -224.3894       -174.8494         50.7004         47.8004
  24177225.2664   24177225.7734   24177232.5844      82440.08046     81017.72845
     -2532.6914      -1973.5224         36.8004         34.5004
  21539437.3454   21539437.4764   21539441.4624   -9101905.68747  -7081701.70247
      2034.1324       1585.0274         46.7004         43.7004
  22073291.2074   22073291.2354   22073294.4094  -14124893.87248 -10985661.00747
      -994.1874       -774.6974         48.4004         45.6004
  19642879.8734   19642879.8594   19642883.7044  -27524865.33548 -21409510.59148
        21.0404         16.3954         51.7004         48.9004
 10  1  5  1 54  0.0000000  0 10G22G14G12G15G30G27G18G26G17G 9
  23907146.0604   23907148.6374   23907152.0974   -3128674.84746  -2268651.80545
     -1141.8404       -889.7474         36.1004         34.3004
  24167524.1304   24167523.4274   24167524.2324   -2443260.67846  -1879447.40945
      3310.4234       2579.5514         36.4004         34.5004
  21522312.9184   21522312.7394   21522315.4974  -17788756.15548 -13815177.59047
      2380.5714       1855.0004         48.9004         45.9004
  23270600.9254   23270601.6014   23270604.9384   -6216849.33147  -4822738.06846
     -3552.8514      -2768.4554         44.2004         41.1004
  24121165.9144   24121164.8394   24121169.5484   -1706783.41646  -1314680.39746
      3702.9714       2885.4304         38.9004         36.7004
  20746413.3374   20746413.1514   20746417.6734  -20919759.37748 -15856401.25147
      -235.6314       -183.6074         50.7004         47.8004
  24191715.1064   24191713.1274   24191716.2714     158555.34746    140328.27045
     -2541.7174      -1980.5614         37.3004         35.3004
  21527879.9364   21527880.3204   21527883.0744   -9162643.74047  -7129030.05447
      2015.1014       1570.2114         46.9004         43.9004
  22079021.1824   22079020.5904   22079023.8714  -14094783.45448 -10962198.33747
     -1013.1424       -789.4584         48.6004         45.4004
  19642811.6514   19642811.4134   19642815.6164  -27525225.36248 -21409791.13148
         2.9084          2.2754         51.9004         49.1004
 10  1  5  1 54 30.0000000  0 10G22G14G12G15G30G27G18G26G17G 9
  23913714.7594   23913714.0084   23913714.9844   -3094178.25746  -2241771.36345
     -1157.9554       -902.3064         36.3004         34.5004
  24148648.3534   24148647.3234   24148650.3654   -2542455.63546  -1956742.17145
      3302.5254       2573.3894         36.6004         34.5004
  21508756.9174   21508756.5814   21508759.4914  -17859994.86748 -13870688.25347
      2368.6674       1845.7164         48.9004         45.9004
  23290904.8824   23290904.9314   23290908.1614   -6110159.09547  -4739602.81846
     -3559.8054      -2773.8794         44.2004         41.8004
  24100035.4654   24100036.2684   24100039.7604   -1817815.10746  -1401198.56546
      3699.0554       2882.3814         39.0004         36.6004
  20747791.2594   20747790.9564   20747795.0204  -20912520.99648 -15850760.96147
      -246.9234       -192.4094         50.7004         47.8004
  24206250.0344   24206249.7384   24206251.6324     234943.26946    199851.25045
     -2550.7204      -1987.5764         37.0004         34.6004
  21516430.3634   21516429.9314   21516434.1254   -9222809.91747  -7175912.79547
      1995.9844       1555.3114         46.9004         43.7004
  22084858.3954   22084859.0294   22084861.7664  -14064103.45348 -10938291.84047
     -1032.1524       -804.2764         48.2004         45.2004
  19642846.5824   19642846.1374   19642850.2934  -27525042.14148 -21409648.36048
       -15.1684        -11.8184         51.9004         48.9004
 10  1  5  1 55  0.0000000  0 10G22G14G12G15G30G27G18G26G17G 9
  23920369.9714   23920370.2544   23920368.9604   -3059194.43445  -2214511.34145
     -1174.1664       -914.9354         35.9004         34.1004
  24129816.7494   24129817.1484   24129818.7444   -2641410.80546  -2033850.09045
      3294.5404       2567.1794         36.8004         34.8004
  21495268.1784   21495267.9854   21495271.5344  -17930875.87248 -13925920.19347
      2356.7214       1836.4034         48.9004         45.9004
  23311247.0674   23311246.0394   23311250.5804   -6003261.01147  -4656305.60746
     -3566.7274      -2779.2424         44.2004         41.2004
  24078928.7814   24078929.7654   24078935.3744   -1928728.46446  -1487624.49346
      3695.1174       2879.3074         39.2004         36.7004
  20749233.5324   20749233.0044   20749236.6564  -20904944.08248 -15844856.87947
      -258.1994       -201.1924         50.8004         47.8004
  24220836.5564   24220834.9344   24220839.9724     311600.61946    259584.23045
     -2559.8304      -1994.6754         37.0004         34.8004
  21505090.4684   21505090.0984   21505093.7854   -9282401.71047  -7222347.95147
      1976.8074       1540.3604         46.9004         43.9004
  22090805.6444   22090805.5394   22090808.6024  -14032855.02648 -10913942.40747
     -1051.0994       -819.0424         48.2004         45.2004
  19642984.6894   19642984.5594   19642988.4984  -27524315.26548 -21409081.97048
       -33.3004        -25.9494         51.9004         48.9004
 10  1  5  1 55 30.0000000  0 10G22G14G12G15G30G27G18G26G17G 9
  23927122.3754   23927121.4334   23927122.0804   -3023725.45146  -2186873.17445
     -1190.3314       -927.5364         36.4004         35.0004
  24111033.1824   24111034.3104   24111035.3354   -2740123.93546  -2110769.41545
      3286.3694       2560.8154         37.1004         35.0004
  21481848.0394   21481847.9644   21481851.3644  -18001398.46248 -13980872.84447
      2344.7534       1827.0764         48.9004         45.9004
  23331626.1484   23331627.1504   23331630.4904   -5896157.45647  -4572848.30946
     -3573.5114      -2784.5534         44.1004         41.2004
  24057846.6604   24057846.4194   24057850.3874   -2039522.07846  -1573957.13446
      3691.1504       2876.2214         39.0004         36.6004
  20750739.3684   20750739.0654   20750743.1244  -20897028.60148 -15838688.97148
      -269.5134       -210.0094         50.8004         48.0004
  24235474.5404   24235473.4554   24235479.6554     388524.27346    319524.74345
     -2568.5914      -2001.4974         37.1004         35.2004
  21493859.1604   21493859.4294   21493864.3704   -9341416.92447  -7268333.84347
      1957.4884       1525.3224         47.0004         44.0004
  22096859.7554   22096860.0824   22096863.3274  -14001039.22248 -10889150.86547
     -1069.9724       -833.7424         48.2004         45.2004
  19643226.2504   19643226.2504   19643230.5414  -27523044.12948 -21408091.47548
       -51.4294        -40.0754         51.9004         49.1004
 10  1  5  1 56  0.0000000  0 10G22G14G12G15G30G27G18G26G17G 9
  23933961.7324   23933959.9154   23933962.8784   -2987772.99446  -2158858.26245
     -1206.4814       -940.1184         37.0004         35.0004
  24092295.4654   24092295.6214   24092295.7554   -2838592.40946  -2187498.10145
      3278.1434       2554.4004         37.0004         34.8004
  21468495.8774   21468496.1964   21468499.9874  -18071561.74948 -14035545.52647
      2332.7814       1817.7544         48.9004         45.9004
  23352048.1124   23352047.0324   23352050.5524   -5788851.07647  -4489232.93146
     -3580.2164      -2789.7904         44.1004         40.9004
  24036788.2094   24036787.2084   24036791.9404   -2150194.59646  -1660195.43246
      3687.0544       2873.0244         39.0004         36.6004
  20752310.3714   20752310.1634   20752313.8464  -20888773.91048 -15832256.74948
      -280.8184       -218.8164         50.8004         48.0004
  24250163.1074   24250162.7854   24250167.3394     465711.85046    379670.86445
     -2577.3914      -2008.3544         36.8004         34.8004
  21482739.2184   21482739.3304   21482743.7284   -9399853.19947  -7313868.58047
      1938.1794       1510.2744         47.0004         44.0004
  22103021.6354   22103021.9064   22103025.2234  -13968657.50848 -10863918.36447
     -1088.8124       -848.4244         48.2004         45.2004
  19643572.0414   19643572.1094   19643576.1024  -27521228.55248 -21406676.74148
       -69.5784        -54.2164         51.9004         49.1004
